timestamp,baro_alt_meter,baro_temp_celcius,baro_pressure_pa,rho
96000,487.91,0.0,95600.2,1.13589
104000,488.122,0.0,95597.8,1.13586
108000,488.136,0.0,95597.6,1.13586
112000,487.882,0.0,95600.5,1.13589
116000,488.112,0.0,95597.9,1.13586
120000,488.098,0.0,95598.1,1.13586
124000,488.131,0.0,95597.7,1.13586
128000,488.145,0.0,95597.5,1.13586
132000,488.164,0.0,95597.3,1.13585
140000,488.201,0.0,95596.9,1.13585
144000,488.051,0.0,95598.6,1.13587
148000,488.065,0.0,95598.4,1.13587
156000,488.201,0.0,95596.9,1.13585
160000,488.042,0.0,95598.7,1.13587
168000,488.112,0.0,95597.9,1.13586
176000,487.995,0.0,95599.2,1.13588
184000,488.15,0.0,95597.5,1.13586
188000,488.032,0.0,95598.8,1.13587
192000,488.192,0.0,95597.0,1.13585
196000,487.981,0.0,95599.4,1.13588
200000,488.089,0.0,95598.2,1.13586
204000,487.962,0.0,95599.6,1.13588
212000,488.14,0.0,95597.6,1.13586
216000,487.901,0.0,95600.3,1.13589
220000,488.154,0.0,95597.4,1.13586
224000,488.253,0.0,95596.3,1.13584
228000,488.131,0.0,95597.7,1.13586
232000,488.075,0.0,95598.3,1.13587
236000,488.201,0.0,95596.9,1.13585
244000,488.051,0.0,95598.6,1.13587
248000,488.051,0.0,95598.6,1.13587
252000,488.131,0.0,95597.7,1.13586
256000,488.136,0.0,95597.7,1.13586
260000,488.145,0.0,95597.5,1.13586
264000,487.976,0.0,95599.5,1.13588
268000,488.089,0.0,95598.2,1.13586
276000,488.201,0.0,95596.9,1.13585
280000,488.061,0.0,95598.5,1.13587
284000,488.333,0.0,95595.4,1.13583
292000,488.164,0.0,95597.3,1.13585
296000,488.009,0.0,95599.1,1.13588
300000,487.985,0.0,95599.3,1.13588
308000,488.117,0.0,95597.9,1.13586
312000,488.07,0.0,95598.4,1.13587
320000,488.117,0.0,95597.8,1.13586
324000,488.07,0.0,95598.4,1.13587
332000,488.239,0.0,95596.5,1.13584
336000,488.173,0.0,95597.2,1.13585
340000,488.061,0.0,95598.5,1.13587
344000,488.145,0.0,95597.5,1.13586
348000,488.154,0.0,95597.5,1.13586
352000,488.253,0.0,95596.3,1.13584
356000,488.061,0.0,95598.5,1.13587
364000,488.37,0.0,95595.0,1.13583
372000,487.971,0.0,95599.5,1.13588
376000,488.145,0.0,95597.5,1.13586
380000,487.934,0.0,95599.9,1.13589
384000,488.046,0.0,95598.6,1.13587
388000,488.136,0.0,95597.6,1.13586
392000,488.126,0.0,95597.8,1.13586
396000,487.971,0.0,95599.5,1.13588
400000,488.136,0.0,95597.6,1.13586
404000,488.108,0.0,95598.0,1.13586
412000,488.079,0.0,95598.2,1.13587
416000,488.117,0.0,95597.8,1.13586
420000,488.23,0.0,95596.6,1.13585
424000,487.948,0.0,95599.8,1.13588
432000,488.117,0.0,95597.9,1.13586
436000,488.014,0.0,95599.1,1.13587
440000,488.333,0.0,95595.4,1.13583
448000,488.089,0.0,95598.2,1.13586
452000,488.037,0.0,95598.8,1.13587
456000,488.032,0.0,95598.8,1.13587
460000,488.239,0.0,95596.4,1.13584
464000,487.901,0.0,95600.4,1.13589
468000,488.183,0.0,95597.1,1.13585
472000,487.99,0.0,95599.3,1.13588
476000,488.014,0.0,95599.0,1.13587
480000,488.277,0.0,95596.1,1.13584
484000,488.136,0.0,95597.6,1.13586
488000,488.225,0.0,95596.6,1.13585
492000,488.079,0.0,95598.2,1.13587
500000,488.201,0.0,95596.9,1.13585
504000,488.164,0.0,95597.3,1.13585
512000,488.145,0.0,95597.5,1.13586
516000,488.014,0.0,95599.0,1.13587
520000,488.046,0.0,95598.7,1.13587
528000,488.084,0.0,95598.2,1.13587
532000,488.037,0.0,95598.8,1.13587
536000,488.108,0.0,95598.0,1.13586
540000,488.075,0.0,95598.3,1.13587
548000,488.159,0.0,95597.3,1.13585
556000,488.089,0.0,95598.2,1.13586
560000,488.145,0.0,95597.5,1.13586
564000,488.07,0.0,95598.4,1.13587
572000,488.042,0.0,95598.7,1.13587
580000,488.211,0.0,95596.8,1.13585
584000,488.197,0.0,95596.9,1.13585
588000,488.061,0.0,95598.5,1.13587
596000,487.953,0.0,95599.7,1.13588
604000,488.333,0.0,95595.4,1.13583
612000,487.957,0.0,95599.7,1.13588
616000,488.046,0.0,95598.6,1.13587
620000,488.267,0.0,95596.1,1.13584
624000,488.037,0.0,95598.7,1.13587
628000,488.075,0.0,95598.3,1.13587
632000,488.244,0.0,95596.4,1.13584
636000,488.145,0.0,95597.5,1.13586
640000,488.197,0.0,95597.0,1.13585
644000,488.07,0.0,95598.4,1.13587
652000,488.089,0.0,95598.2,1.13586
660000,488.14,0.0,95597.6,1.13586
664000,487.976,0.0,95599.5,1.13588
672000,488.046,0.0,95598.6,1.13587
676000,487.906,0.0,95600.2,1.13589
680000,487.906,0.0,95600.3,1.13589
684000,487.971,0.0,95599.5,1.13588
688000,488.103,0.0,95598.0,1.13586
692000,488.07,0.0,95598.4,1.13587
700000,488.131,0.0,95597.7,1.13586
704000,488.046,0.0,95598.7,1.13587
712000,487.957,0.0,95599.7,1.13588
716000,488.145,0.0,95597.5,1.13586
720000,488.126,0.0,95597.8,1.13586
724000,487.92,0.0,95600.1,1.13589
728000,488.117,0.0,95597.9,1.13586
732000,488.248,0.0,95596.3,1.13584
740000,488.159,0.0,95597.4,1.13586
744000,488.103,0.0,95598.0,1.13586
748000,488.131,0.0,95597.7,1.13586
752000,488.103,0.0,95598.0,1.13586
756000,488.032,0.0,95598.8,1.13587
764000,488.014,0.0,95599.1,1.13587
768000,487.967,0.0,95599.6,1.13588
772000,487.981,0.0,95599.4,1.13588
776000,488.122,0.0,95597.8,1.13586
780000,488.464,0.0,95593.9,1.13581
784000,487.962,0.0,95599.6,1.13588
792000,487.962,0.0,95599.6,1.13588
796000,488.046,0.0,95598.6,1.13587
800000,487.985,0.0,95599.4,1.13588
804000,488.075,0.0,95598.4,1.13587
808000,488.192,0.0,95597.0,1.13585
812000,488.018,0.0,95599.0,1.13587
816000,488.136,0.0,95597.6,1.13586
820000,488.197,0.0,95596.9,1.13585
828000,488.009,0.0,95599.1,1.13588
832000,488.014,0.0,95599.0,1.13587
836000,487.971,0.0,95599.5,1.13588
840000,488.093,0.0,95598.1,1.13586
844000,487.802,0.0,95601.5,1.1359
848000,488.131,0.0,95597.7,1.13586
852000,488.136,0.0,95597.6,1.13586
856000,488.15,0.0,95597.5,1.13586
860000,488.112,0.0,95597.9,1.13586
864000,488.131,0.0,95597.7,1.13586
868000,488.159,0.0,95597.4,1.13586
876000,487.971,0.0,95599.5,1.13588
880000,487.967,0.0,95599.6,1.13588
884000,488.093,0.0,95598.1,1.13586
888000,488.014,0.0,95599.0,1.13587
892000,488.075,0.0,95598.3,1.13587
896000,488.328,0.0,95595.4,1.13583
900000,488.089,0.0,95598.2,1.13586
904000,487.995,0.0,95599.3,1.13588
908000,488.051,0.0,95598.6,1.13587
912000,488.103,0.0,95598.0,1.13586
916000,488.042,0.0,95598.7,1.13587
920000,487.957,0.0,95599.7,1.13588
924000,487.985,0.0,95599.3,1.13588
928000,488.356,0.0,95595.1,1.13583
932000,487.981,0.0,95599.4,1.13588
936000,488.136,0.0,95597.6,1.13586
940000,488.061,0.0,95598.5,1.13587
944000,487.981,0.0,95599.4,1.13588
948000,488.061,0.0,95598.5,1.13587
952000,488.032,0.0,95598.8,1.13587
956000,488.032,0.0,95598.8,1.13587
960000,488.122,0.0,95597.8,1.13586
964000,488.122,0.0,95597.8,1.13586
972000,487.948,0.0,95599.8,1.13588
976000,488.018,0.0,95599.0,1.13587
980000,488.225,0.0,95596.6,1.13585
984000,488.145,0.0,95597.5,1.13586
992000,487.929,0.0,95600.0,1.13589
996000,488.098,0.0,95598.0,1.13586
1000000,488.215,0.0,95596.7,1.13585
1008000,488.131,0.0,95597.7,1.13586
1012000,488.004,0.0,95599.2,1.13588
1016000,488.117,0.0,95597.9,1.13586
1020000,488.046,0.0,95598.6,1.13587
1024000,488.267,0.0,95596.1,1.13584
1028000,488.093,0.0,95598.1,1.13586
1032000,488.079,0.0,95598.3,1.13587
1036000,488.075,0.0,95598.3,1.13587
1040000,488.206,0.0,95596.8,1.13585
1044000,487.92,0.0,95600.1,1.13589
1048000,488.154,0.0,95597.4,1.13586
1052000,488.028,0.0,95598.9,1.13587
1056000,488.225,0.0,95596.6,1.13585
1064000,488.07,0.0,95598.4,1.13587
1072000,488.051,0.0,95598.6,1.13587
1076000,488.028,0.0,95598.9,1.13587
1080000,488.046,0.0,95598.7,1.13587
1084000,488.291,0.0,95595.9,1.13584
1092000,487.948,0.0,95599.8,1.13588
1096000,487.953,0.0,95599.8,1.13588
1100000,488.023,0.0,95598.9,1.13587
1104000,487.976,0.0,95599.5,1.13588
1108000,488.136,0.0,95597.6,1.13586
1116000,488.244,0.0,95596.4,1.13584
1120000,488.093,0.0,95598.1,1.13586
1128000,488.075,0.0,95598.3,1.13587
1132000,488.037,0.0,95598.8,1.13587
1140000,488.018,0.0,95599.0,1.13587
1144000,488.093,0.0,95598.1,1.13586
1148000,488.065,0.0,95598.4,1.13587
1152000,488.248,0.0,95596.3,1.13584
1156000,487.957,0.0,95599.7,1.13588
1164000,488.197,0.0,95596.9,1.13585
1168000,488.098,0.0,95598.1,1.13586
1172000,488.244,0.0,95596.4,1.13584
1176000,488.22,0.0,95596.7,1.13585
1180000,488.112,0.0,95597.9,1.13586
1184000,487.845,0.0,95601.0,1.1359
1192000,487.887,0.0,95600.5,1.13589
1196000,488.014,0.0,95599.0,1.13587
1200000,488.159,0.0,95597.4,1.13586
1208000,488.075,0.0,95598.3,1.13587
1212000,487.948,0.0,95599.8,1.13588
1216000,487.868,0.0,95600.7,1.13589
1224000,488.112,0.0,95597.9,1.13586
1228000,487.91,0.0,95600.2,1.13589
1232000,487.915,0.0,95600.2,1.13589
1236000,488.136,0.0,95597.7,1.13586
1240000,488.126,0.0,95597.7,1.13586
1244000,488.164,0.0,95597.3,1.13585
1248000,488.075,0.0,95598.4,1.13587
1252000,488.009,0.0,95599.1,1.13588
1256000,488.07,0.0,95598.4,1.13587
1260000,488.004,0.0,95599.2,1.13588
1264000,488.112,0.0,95597.9,1.13586
1272000,487.953,0.0,95599.7,1.13588
1276000,488.089,0.0,95598.2,1.13586
1284000,488.159,0.0,95597.4,1.13585
1288000,488.028,0.0,95598.9,1.13587
1292000,487.967,0.0,95599.6,1.13588
1296000,488.042,0.0,95598.7,1.13587
1304000,488.028,0.0,95598.9,1.13587
1308000,488.07,0.0,95598.4,1.13587
1312000,488.136,0.0,95597.7,1.13586
1316000,488.14,0.0,95597.6,1.13586
1320000,488.079,0.0,95598.3,1.13587
1328000,488.028,0.0,95598.9,1.13587
1332000,488.018,0.0,95599.0,1.13587
1340000,488.201,0.0,95596.9,1.13585
1344000,488.215,0.0,95596.8,1.13585
1352000,488.061,0.0,95598.5,1.13587
1360000,488.178,0.0,95597.2,1.13585
1364000,488.098,0.0,95598.1,1.13586
1368000,488.065,0.0,95598.4,1.13587
1372000,488.075,0.0,95598.3,1.13587
1380000,488.018,0.0,95599.0,1.13587
1384000,488.084,0.0,95598.2,1.13587
1388000,488.07,0.0,95598.4,1.13587
1396000,488.159,0.0,95597.4,1.13585
1400000,488.178,0.0,95597.1,1.13585
1404000,487.953,0.0,95599.7,1.13588
1412000,488.122,0.0,95597.8,1.13586
1416000,488.009,0.0,95599.1,1.13588
1420000,488.112,0.0,95597.9,1.13586
1428000,488.131,0.0,95597.7,1.13586
1432000,488.145,0.0,95597.5,1.13586
1436000,488.112,0.0,95597.9,1.13586
1444000,488.075,0.0,95598.3,1.13587
1448000,488.173,0.0,95597.2,1.13585
1452000,488.164,0.0,95597.3,1.13585
1456000,488.15,0.0,95597.5,1.13586
1460000,488.108,0.0,95598.0,1.13586
1464000,488.089,0.0,95598.2,1.13586
1468000,488.056,0.0,95598.5,1.13587
1472000,488.159,0.0,95597.4,1.13586
1480000,488.173,0.0,95597.2,1.13585
1484000,488.14,0.0,95597.6,1.13586
1488000,488.164,0.0,95597.3,1.13585
1492000,488.023,0.0,95598.9,1.13587
1496000,487.934,0.0,95599.9,1.13589
1500000,488.098,0.0,95598.1,1.13586
1504000,488.154,0.0,95597.4,1.13586
1512000,488.22,0.0,95596.7,1.13585
1516000,488.14,0.0,95597.6,1.13586
1524000,488.042,0.0,95598.7,1.13587
1528000,488.145,0.0,95597.5,1.13586
1532000,487.863,0.0,95600.7,1.1359
1536000,488.061,0.0,95598.5,1.13587
1544000,488.089,0.0,95598.2,1.13586
1548000,487.995,0.0,95599.2,1.13588
1556000,488.023,0.0,95598.9,1.13587
1560000,487.967,0.0,95599.6,1.13588
1564000,488.234,0.0,95596.5,1.13584
1568000,487.99,0.0,95599.3,1.13588
1572000,488.178,0.0,95597.2,1.13585
1576000,488.098,0.0,95598.0,1.13586
1584000,488.093,0.0,95598.1,1.13586
1588000,488.07,0.0,95598.4,1.13587
1592000,488.018,0.0,95599.0,1.13587
1596000,488.197,0.0,95597.0,1.13585
1600000,488.131,0.0,95597.7,1.13586
1604000,488.206,0.0,95596.8,1.13585
1608000,487.934,0.0,95599.9,1.13589
1612000,488.108,0.0,95597.9,1.13586
1616000,488.004,0.0,95599.1,1.13588
1624000,487.887,0.0,95600.5,1.13589
1628000,488.018,0.0,95599.0,1.13587
1632000,488.046,0.0,95598.6,1.13587
1636000,488.032,0.0,95598.8,1.13587
1640000,488.051,0.0,95598.6,1.13587
1644000,488.084,0.0,95598.2,1.13586
1652000,488.056,0.0,95598.5,1.13587
1656000,488.098,0.0,95598.0,1.13586
1660000,488.075,0.0,95598.3,1.13587
1664000,488.154,0.0,95597.4,1.13586
1672000,488.0,0.0,95599.2,1.13588
1676000,488.206,0.0,95596.8,1.13585
1680000,488.046,0.0,95598.7,1.13587
1688000,488.051,0.0,95598.6,1.13587
1692000,488.032,0.0,95598.8,1.13587
1696000,488.079,0.0,95598.3,1.13587
1704000,488.187,0.0,95597.1,1.13585
1708000,488.14,0.0,95597.6,1.13586
1712000,488.056,0.0,95598.6,1.13587
1716000,488.032,0.0,95598.8,1.13587
1720000,488.159,0.0,95597.3,1.13585
1724000,488.192,0.0,95597.0,1.13585
1728000,488.07,0.0,95598.4,1.13587
1732000,488.065,0.0,95598.5,1.13587
1740000,488.173,0.0,95597.2,1.13585
1744000,488.004,0.0,95599.1,1.13588
1748000,488.173,0.0,95597.2,1.13585
1752000,488.178,0.0,95597.1,1.13585
1756000,488.178,0.0,95597.2,1.13585
1764000,487.953,0.0,95599.7,1.13588
1768000,488.098,0.0,95598.0,1.13586
1772000,487.99,0.0,95599.3,1.13588
1780000,488.056,0.0,95598.5,1.13587
1788000,488.061,0.0,95598.5,1.13587
1792000,488.173,0.0,95597.2,1.13585
1796000,488.079,0.0,95598.3,1.13587
1800000,488.014,0.0,95599.0,1.13587
1808000,488.032,0.0,95598.8,1.13587
1812000,488.117,0.0,95597.9,1.13586
1816000,488.014,0.0,95599.1,1.13587
1820000,488.103,0.0,95598.0,1.13586
1828000,488.075,0.0,95598.3,1.13587
1832000,488.056,0.0,95598.6,1.13587
1836000,488.056,0.0,95598.6,1.13587
1840000,488.122,0.0,95597.8,1.13586
1844000,488.061,0.0,95598.5,1.13587
1852000,488.079,0.0,95598.3,1.13587
1856000,488.267,0.0,95596.1,1.13584
1860000,488.051,0.0,95598.6,1.13587
1864000,488.15,0.0,95597.5,1.13586
1872000,488.075,0.0,95598.4,1.13587
1880000,488.225,0.0,95596.6,1.13585
1888000,488.201,0.0,95596.9,1.13585
1892000,488.093,0.0,95598.1,1.13586
1900000,488.028,0.0,95598.9,1.13587
1904000,488.004,0.0,95599.2,1.13588
1908000,488.14,0.0,95597.6,1.13586
1912000,487.971,0.0,95599.5,1.13588
1920000,488.117,0.0,95597.8,1.13586
1924000,488.028,0.0,95598.9,1.13587
1928000,488.187,0.0,95597.1,1.13585
1932000,488.089,0.0,95598.2,1.13586
1936000,488.098,0.0,95598.1,1.13586
1944000,488.051,0.0,95598.6,1.13587
1948000,488.164,0.0,95597.3,1.13585
1956000,488.079,0.0,95598.3,1.13587
1964000,488.042,0.0,95598.7,1.13587
1972000,488.206,0.0,95596.8,1.13585
1976000,487.934,0.0,95599.9,1.13589
1980000,488.07,0.0,95598.4,1.13587
1984000,487.976,0.0,95599.4,1.13588
1988000,488.159,0.0,95597.4,1.13585
1992000,487.943,0.0,95599.8,1.13588
1996000,488.075,0.0,95598.3,1.13587
2000000,488.065,0.0,95598.4,1.13587
2008000,488.089,0.0,95598.2,1.13586
2012000,488.079,0.0,95598.3,1.13587
2016000,488.056,0.0,95598.5,1.13587
2024000,488.112,0.0,95597.9,1.13586
2032000,488.14,0.0,95597.6,1.13586
2036000,488.037,0.0,95598.8,1.13587
2040000,488.042,0.0,95598.7,1.13587
2044000,487.821,0.0,95601.3,1.1359
2048000,488.187,0.0,95597.0,1.13585
2052000,488.131,0.0,95597.7,1.13586
2060000,488.075,0.0,95598.3,1.13587
2064000,488.126,0.0,95597.7,1.13586
2068000,488.07,0.0,95598.4,1.13587
2072000,487.99,0.0,95599.3,1.13588
2080000,488.089,0.0,95598.2,1.13586
2084000,488.23,0.0,95596.6,1.13585
2092000,488.122,0.0,95597.8,1.13586
2096000,488.206,0.0,95596.8,1.13585
2100000,487.915,0.0,95600.2,1.13589
2104000,487.962,0.0,95599.6,1.13588
2108000,487.99,0.0,95599.3,1.13588
2116000,488.154,0.0,95597.4,1.13586
2120000,488.215,0.0,95596.8,1.13585
2128000,488.004,0.0,95599.2,1.13588
2132000,488.103,0.0,95598.0,1.13586
2136000,488.14,0.0,95597.6,1.13586
2144000,488.178,0.0,95597.2,1.13585
2152000,488.159,0.0,95597.4,1.13586
2156000,487.953,0.0,95599.8,1.13588
2160000,488.145,0.0,95597.5,1.13586
2164000,488.14,0.0,95597.6,1.13586
2172000,488.192,0.0,95597.0,1.13585
2176000,487.967,0.0,95599.6,1.13588
2180000,487.934,0.0,95599.9,1.13589
2184000,488.079,0.0,95598.3,1.13587
2192000,487.906,0.0,95600.3,1.13589
2196000,488.004,0.0,95599.2,1.13588
2200000,488.023,0.0,95598.9,1.13587
2208000,488.192,0.0,95597.0,1.13585
2212000,488.014,0.0,95599.0,1.13587
2216000,488.089,0.0,95598.2,1.13586
2220000,488.046,0.0,95598.7,1.13587
2228000,487.948,0.0,95599.8,1.13588
2236000,488.056,0.0,95598.5,1.13587
2240000,488.051,0.0,95598.6,1.13587
2244000,488.07,0.0,95598.4,1.13587
2252000,487.953,0.0,95599.8,1.13588
2256000,488.0,0.0,95599.2,1.13588
2260000,488.14,0.0,95597.6,1.13586
2264000,488.286,0.0,95595.9,1.13584
2268000,488.145,0.0,95597.5,1.13586
2272000,488.136,0.0,95597.6,1.13586
2280000,488.07,0.0,95598.4,1.13587
2284000,488.046,0.0,95598.6,1.13587
2288000,488.009,0.0,95599.1,1.13588
2292000,487.835,0.0,95601.1,1.1359
2296000,488.169,0.0,95597.2,1.13585
2304000,488.117,0.0,95597.9,1.13586
2312000,488.018,0.0,95599.0,1.13587
2316000,488.154,0.0,95597.4,1.13586
2320000,488.028,0.0,95598.9,1.13587
2324000,488.0,0.0,95599.2,1.13588
2328000,488.122,0.0,95597.8,1.13586
2332000,488.131,0.0,95597.7,1.13586
2336000,488.093,0.0,95598.1,1.13586
2340000,488.037,0.0,95598.7,1.13587
2344000,488.079,0.0,95598.3,1.13587
2348000,487.929,0.0,95600.0,1.13589
2352000,488.051,0.0,95598.6,1.13587
2356000,488.211,0.0,95596.8,1.13585
2360000,488.089,0.0,95598.2,1.13586
2364000,488.051,0.0,95598.6,1.13587
2372000,488.201,0.0,95596.9,1.13585
2376000,488.23,0.0,95596.6,1.13585
2380000,488.305,0.0,95595.7,1.13584
2384000,487.967,0.0,95599.6,1.13588
2392000,488.187,0.0,95597.0,1.13585
2396000,487.929,0.0,95600.0,1.13589
2404000,488.131,0.0,95597.7,1.13586
2408000,488.032,0.0,95598.8,1.13587
2412000,487.99,0.0,95599.3,1.13588
2416000,488.122,0.0,95597.8,1.13586
2424000,488.286,0.0,95595.9,1.13584
2428000,488.122,0.0,95597.8,1.13586
2432000,488.093,0.0,95598.1,1.13586
2436000,487.943,0.0,95599.8,1.13588
2440000,488.07,0.0,95598.4,1.13587
2444000,488.112,0.0,95597.9,1.13586
2452000,488.075,0.0,95598.3,1.13587
2460000,488.272,0.0,95596.1,1.13584
2464000,488.169,0.0,95597.3,1.13585
2468000,488.079,0.0,95598.3,1.13587
2472000,488.201,0.0,95596.9,1.13585
2480000,487.967,0.0,95599.6,1.13588
2484000,488.046,0.0,95598.6,1.13587
2492000,488.093,0.0,95598.1,1.13586
2496000,488.215,0.0,95596.8,1.13585
2500000,487.995,0.0,95599.3,1.13588
2504000,488.098,0.0,95598.1,1.13586
2508000,488.201,0.0,95596.9,1.13585
2516000,487.995,0.0,95599.2,1.13588
2520000,488.136,0.0,95597.6,1.13586
2524000,488.056,0.0,95598.6,1.13587
2532000,487.92,0.0,95600.1,1.13589
2536000,488.211,0.0,95596.8,1.13585
2540000,488.145,0.0,95597.5,1.13586
2544000,488.206,0.0,95596.8,1.13585
2548000,488.018,0.0,95599.0,1.13587
2552000,487.948,0.0,95599.8,1.13588
2560000,488.084,0.0,95598.2,1.13586
2568000,488.281,0.0,95596.0,1.13584
2572000,487.948,0.0,95599.8,1.13588
2576000,488.07,0.0,95598.4,1.13587
2580000,487.995,0.0,95599.2,1.13588
2588000,488.0,0.0,95599.2,1.13588
2592000,487.967,0.0,95599.6,1.13588
2596000,487.99,0.0,95599.3,1.13588
2600000,487.948,0.0,95599.8,1.13588
2604000,488.061,0.0,95598.5,1.13587
2608000,488.3,0.0,95595.7,1.13584
2612000,488.117,0.0,95597.9,1.13586
2616000,487.845,0.0,95601.0,1.1359
2620000,487.962,0.0,95599.6,1.13588
2628000,488.178,0.0,95597.2,1.13585
2632000,487.981,0.0,95599.4,1.13588
2636000,488.075,0.0,95598.3,1.13587
2640000,488.145,0.0,95597.5,1.13586
2648000,488.108,0.0,95598.0,1.13586
2656000,488.07,0.0,95598.4,1.13587
2660000,488.173,0.0,95597.2,1.13585
2668000,487.934,0.0,95599.9,1.13589
2672000,488.183,0.0,95597.1,1.13585
2680000,488.131,0.0,95597.7,1.13586
2684000,488.093,0.0,95598.1,1.13586
2688000,487.962,0.0,95599.7,1.13588
2692000,488.164,0.0,95597.3,1.13585
2696000,487.953,0.0,95599.7,1.13588
2700000,488.3,0.0,95595.7,1.13584
2704000,488.079,0.0,95598.2,1.13587
2708000,487.99,0.0,95599.3,1.13588
2712000,488.098,0.0,95598.1,1.13586
2720000,487.976,0.0,95599.5,1.13588
2724000,488.215,0.0,95596.7,1.13585
2728000,488.098,0.0,95598.0,1.13586
2736000,488.018,0.0,95599.0,1.13587
2740000,487.868,0.0,95600.7,1.13589
2744000,487.99,0.0,95599.3,1.13588
2748000,488.206,0.0,95596.8,1.13585
2756000,488.112,0.0,95597.9,1.13586
2760000,487.985,0.0,95599.3,1.13588
2764000,488.206,0.0,95596.8,1.13585
2772000,488.103,0.0,95598.0,1.13586
2776000,488.042,0.0,95598.7,1.13587
2780000,488.234,0.0,95596.5,1.13584
2788000,488.277,0.0,95596.0,1.13584
2792000,488.046,0.0,95598.7,1.13587
2796000,488.183,0.0,95597.1,1.13585
2804000,487.793,0.0,95601.6,1.13591
2808000,488.07,0.0,95598.4,1.13587
2812000,488.046,0.0,95598.7,1.13587
2816000,487.981,0.0,95599.4,1.13588
2824000,488.07,0.0,95598.4,1.13587
2828000,488.112,0.0,95597.9,1.13586
2836000,488.117,0.0,95597.8,1.13586
2840000,488.028,0.0,95598.9,1.13587
2844000,487.971,0.0,95599.5,1.13588
2848000,488.079,0.0,95598.3,1.13587
2856000,488.192,0.0,95597.0,1.13585
2860000,487.934,0.0,95599.9,1.13589
2864000,488.164,0.0,95597.3,1.13585
2872000,488.108,0.0,95597.9,1.13586
2876000,487.91,0.0,95600.2,1.13589
2880000,488.018,0.0,95599.0,1.13587
2888000,488.014,0.0,95599.1,1.13587
2892000,488.061,0.0,95598.5,1.13587
2904000,488.258,0.0,95596.2,1.13584
2908000,488.07,0.0,95598.4,1.13587
2912000,488.145,0.0,95597.5,1.13586
2920000,488.192,0.0,95597.0,1.13585
2924000,488.108,0.0,95598.0,1.13586
2932000,488.215,0.0,95596.7,1.13585
2940000,488.154,0.0,95597.4,1.13586
2944000,488.032,0.0,95598.8,1.13587
2948000,488.108,0.0,95598.0,1.13586
2952000,488.084,0.0,95598.2,1.13587
2956000,488.131,0.0,95597.7,1.13586
2960000,488.004,0.0,95599.2,1.13588
2964000,488.098,0.0,95598.1,1.13586
2968000,488.037,0.0,95598.8,1.13587
2972000,488.056,0.0,95598.5,1.13587
2976000,487.896,0.0,95600.4,1.13589
2984000,488.169,0.0,95597.2,1.13585
2988000,488.192,0.0,95597.0,1.13585
2992000,488.239,0.0,95596.5,1.13584
2996000,488.079,0.0,95598.3,1.13587
3000000,488.14,0.0,95597.6,1.13586
3004000,488.131,0.0,95597.7,1.13586
3008000,488.061,0.0,95598.5,1.13587
3012000,488.145,0.0,95597.5,1.13586
3020000,488.032,0.0,95598.8,1.13587
3024000,488.014,0.0,95599.0,1.13587
3032000,488.117,0.0,95597.9,1.13586
3036000,487.99,0.0,95599.3,1.13588
3040000,487.943,0.0,95599.8,1.13588
3044000,488.089,0.0,95598.2,1.13586
3052000,488.032,0.0,95598.9,1.13587
3056000,488.075,0.0,95598.3,1.13587
3060000,487.901,0.0,95600.3,1.13589
3068000,488.051,0.0,95598.6,1.13587
3076000,488.0,0.0,95599.2,1.13588
3080000,487.985,0.0,95599.4,1.13588
3084000,488.108,0.0,95597.9,1.13586
3088000,487.981,0.0,95599.4,1.13588
3092000,488.225,0.0,95596.6,1.13585
3100000,488.014,0.0,95599.0,1.13587
3104000,488.112,0.0,95597.9,1.13586
3108000,487.901,0.0,95600.3,1.13589
3116000,488.023,0.0,95598.9,1.13587
3120000,488.244,0.0,95596.4,1.13584
3128000,487.953,0.0,95599.7,1.13588
3132000,488.131,0.0,95597.7,1.13586
3136000,488.136,0.0,95597.7,1.13586
3140000,488.079,0.0,95598.3,1.13587
3144000,488.239,0.0,95596.5,1.13584
3148000,488.103,0.0,95598.0,1.13586
3152000,488.093,0.0,95598.1,1.13586
3156000,488.061,0.0,95598.5,1.13587
3164000,488.032,0.0,95598.8,1.13587
3168000,488.032,0.0,95598.8,1.13587
3176000,487.981,0.0,95599.4,1.13588
3180000,488.032,0.0,95598.8,1.13587
3184000,488.234,0.0,95596.5,1.13584
3192000,488.234,0.0,95596.5,1.13584
3200000,488.15,0.0,95597.5,1.13586
3204000,488.032,0.0,95598.9,1.13587
3208000,488.07,0.0,95598.4,1.13587
3216000,487.967,0.0,95599.6,1.13588
3220000,488.164,0.0,95597.3,1.13585
3224000,487.877,0.0,95600.6,1.13589
3228000,488.197,0.0,95597.0,1.13585
3236000,488.183,0.0,95597.1,1.13585
3240000,487.967,0.0,95599.6,1.13588
3244000,488.197,0.0,95596.9,1.13585
3248000,488.197,0.0,95597.0,1.13585
3252000,488.0,0.0,95599.2,1.13588
3256000,488.014,0.0,95599.0,1.13587
3260000,487.948,0.0,95599.8,1.13588
3268000,488.028,0.0,95598.9,1.13587
3272000,488.117,0.0,95597.9,1.13586
3276000,488.169,0.0,95597.3,1.13585
3280000,488.131,0.0,95597.7,1.13586
3288000,488.169,0.0,95597.2,1.13585
3292000,488.211,0.0,95596.8,1.13585
3304000,488.117,0.0,95597.9,1.13586
3308000,488.046,0.0,95598.7,1.13587
3312000,487.99,0.0,95599.3,1.13588
3316000,488.089,0.0,95598.2,1.13586
3324000,488.075,0.0,95598.3,1.13587
3328000,488.037,0.0,95598.8,1.13587
3332000,488.079,0.0,95598.3,1.13587
3336000,487.995,0.0,95599.3,1.13588
3340000,488.112,0.0,95597.9,1.13586
3344000,488.089,0.0,95598.2,1.13586
3348000,488.084,0.0,95598.2,1.13587
3356000,487.985,0.0,95599.4,1.13588
3360000,488.159,0.0,95597.3,1.13585
3368000,488.14,0.0,95597.6,1.13586
3372000,488.145,0.0,95597.5,1.13586
3380000,488.089,0.0,95598.2,1.13586
3388000,488.215,0.0,95596.7,1.13585
3392000,488.126,0.0,95597.7,1.13586
3396000,488.075,0.0,95598.3,1.13587
3400000,488.248,0.0,95596.4,1.13584
3408000,488.323,0.0,95595.5,1.13583
3416000,488.145,0.0,95597.5,1.13586
3424000,488.112,0.0,95597.9,1.13586
3428000,488.244,0.0,95596.4,1.13584
3432000,487.976,0.0,95599.5,1.13588
3440000,487.877,0.0,95600.6,1.13589
3444000,488.093,0.0,95598.1,1.13586
3452000,487.915,0.0,95600.2,1.13589
3460000,488.206,0.0,95596.8,1.13585
3464000,488.201,0.0,95596.9,1.13585
3468000,487.943,0.0,95599.9,1.13588
3472000,488.051,0.0,95598.6,1.13587
3476000,488.145,0.0,95597.5,1.13586
3484000,488.032,0.0,95598.8,1.13587
3488000,488.145,0.0,95597.5,1.13586
3492000,488.037,0.0,95598.7,1.13587
3496000,488.244,0.0,95596.4,1.13584
3500000,488.051,0.0,95598.6,1.13587
3504000,488.056,0.0,95598.5,1.13587
3508000,488.136,0.0,95597.6,1.13586
3512000,488.136,0.0,95597.6,1.13586
3520000,487.929,0.0,95600.0,1.13589
3524000,488.0,0.0,95599.2,1.13588
3528000,488.159,0.0,95597.4,1.13585
3532000,488.145,0.0,95597.5,1.13586
3540000,488.122,0.0,95597.8,1.13586
3544000,488.173,0.0,95597.2,1.13585
3552000,488.084,0.0,95598.2,1.13587
3556000,488.187,0.0,95597.1,1.13585
3564000,488.197,0.0,95596.9,1.13585
3572000,487.953,0.0,95599.7,1.13588
3576000,488.131,0.0,95597.7,1.13586
3584000,488.098,0.0,95598.1,1.13586
3588000,487.985,0.0,95599.3,1.13588
3592000,487.929,0.0,95600.0,1.13589
3596000,488.117,0.0,95597.9,1.13586
3600000,488.192,0.0,95597.0,1.13585
3608000,488.117,0.0,95597.9,1.13586
3612000,488.183,0.0,95597.1,1.13585
3620000,488.173,0.0,95597.2,1.13585
3624000,488.136,0.0,95597.6,1.13586
3632000,487.943,0.0,95599.8,1.13588
3640000,488.042,0.0,95598.7,1.13587
3648000,488.154,0.0,95597.4,1.13586
3652000,488.004,0.0,95599.1,1.13588
3656000,488.117,0.0,95597.9,1.13586
3660000,488.014,0.0,95599.1,1.13587
3664000,488.089,0.0,95598.2,1.13586
3668000,487.953,0.0,95599.7,1.13588
3672000,488.032,0.0,95598.8,1.13587
3676000,488.084,0.0,95598.2,1.13587
3684000,488.117,0.0,95597.9,1.13586
3688000,488.0,0.0,95599.2,1.13588
3692000,488.169,0.0,95597.2,1.13585
3696000,488.159,0.0,95597.4,1.13585
3700000,487.948,0.0,95599.8,1.13588
3704000,488.187,0.0,95597.0,1.13585
3712000,487.906,0.0,95600.3,1.13589
3716000,488.0,0.0,95599.2,1.13588
3720000,487.934,0.0,95600.0,1.13589
3724000,488.225,0.0,95596.6,1.13585
3732000,488.084,0.0,95598.2,1.13587
3736000,488.145,0.0,95597.5,1.13586
3740000,488.098,0.0,95598.1,1.13586
3748000,488.169,0.0,95597.3,1.13585
3752000,488.117,0.0,95597.8,1.13586
3756000,488.004,0.0,95599.2,1.13588
3760000,488.225,0.0,95596.6,1.13585
3764000,488.042,0.0,95598.7,1.13587
3768000,488.535,0.0,95593.1,1.1358
3772000,488.131,0.0,95597.7,1.13586
3780000,488.112,0.0,95597.9,1.13586
3784000,488.0,0.0,95599.2,1.13588
3788000,487.985,0.0,95599.4,1.13588
3792000,487.99,0.0,95599.3,1.13588
3796000,488.046,0.0,95598.6,1.13587
3804000,488.098,0.0,95598.0,1.13586
3808000,488.037,0.0,95598.7,1.13587
3816000,488.07,0.0,95598.4,1.13587
3824000,488.046,0.0,95598.6,1.13587
3832000,488.201,0.0,95596.9,1.13585
3836000,488.046,0.0,95598.6,1.13587
3840000,487.976,0.0,95599.5,1.13588
3848000,487.901,0.0,95600.3,1.13589
3852000,487.976,0.0,95599.5,1.13588
3856000,488.028,0.0,95598.9,1.13587
3860000,488.14,0.0,95597.6,1.13586
3868000,488.117,0.0,95597.8,1.13586
3876000,488.093,0.0,95598.1,1.13586
3884000,487.971,0.0,95599.5,1.13588
3892000,488.14,0.0,95597.6,1.13586
3900000,488.126,0.0,95597.7,1.13586
3904000,488.079,0.0,95598.3,1.13587
3908000,488.103,0.0,95598.0,1.13586
3912000,488.103,0.0,95598.0,1.13586
3916000,487.943,0.0,95599.8,1.13588
3920000,488.215,0.0,95596.7,1.13585
3928000,487.962,0.0,95599.6,1.13588
3932000,488.159,0.0,95597.3,1.13585
3940000,488.032,0.0,95598.8,1.13587
3944000,487.976,0.0,95599.5,1.13588
3948000,488.051,0.0,95598.6,1.13587
3952000,488.328,0.0,95595.4,1.13583
3956000,488.183,0.0,95597.1,1.13585
3960000,487.981,0.0,95599.4,1.13588
3964000,488.131,0.0,95597.7,1.13586
3968000,488.169,0.0,95597.3,1.13585
3972000,488.173,0.0,95597.2,1.13585
3980000,488.004,0.0,95599.2,1.13588
3988000,488.136,0.0,95597.6,1.13586
3992000,488.07,0.0,95598.4,1.13587
4004000,488.14,0.0,95597.6,1.13586
4008000,487.92,0.0,95600.1,1.13589
4016000,487.971,0.0,95599.5,1.13588
4024000,488.173,0.0,95597.2,1.13585
4028000,488.018,0.0,95599.0,1.13587
4032000,488.173,0.0,95597.2,1.13585
4040000,487.92,0.0,95600.1,1.13589
4044000,488.253,0.0,95596.3,1.13584
4048000,488.178,0.0,95597.1,1.13585
4052000,488.183,0.0,95597.1,1.13585
4060000,488.014,0.0,95599.0,1.13587
4064000,488.122,0.0,95597.8,1.13586
4068000,488.145,0.0,95597.5,1.13586
4072000,488.122,0.0,95597.8,1.13586
4076000,488.277,0.0,95596.0,1.13584
4084000,488.023,0.0,95598.9,1.13587
4088000,487.99,0.0,95599.3,1.13588
4096000,488.023,0.0,95598.9,1.13587
4100000,488.032,0.0,95598.8,1.13587
4108000,488.112,0.0,95597.9,1.13586
4116000,488.089,0.0,95598.2,1.13586
4120000,488.018,0.0,95599.0,1.13587
4124000,488.037,0.0,95598.8,1.13587
4132000,488.239,0.0,95596.5,1.13584
4136000,488.183,0.0,95597.1,1.13585
4144000,488.075,0.0,95598.4,1.13587
4148000,488.014,0.0,95599.1,1.13587
4152000,488.234,0.0,95596.5,1.13584
4160000,488.037,0.0,95598.7,1.13587
4164000,488.117,0.0,95597.8,1.13586
4168000,488.032,0.0,95598.8,1.13587
4172000,488.126,0.0,95597.7,1.13586
4176000,488.159,0.0,95597.4,1.13585
4180000,488.07,0.0,95598.4,1.13587
4188000,488.14,0.0,95597.6,1.13586
4196000,488.117,0.0,95597.8,1.13586
4200000,488.018,0.0,95599.0,1.13587
4208000,488.169,0.0,95597.2,1.13585
4212000,488.192,0.0,95597.0,1.13585
4220000,488.075,0.0,95598.3,1.13587
4224000,488.042,0.0,95598.7,1.13587
4228000,488.07,0.0,95598.4,1.13587
4232000,488.112,0.0,95597.9,1.13586
4236000,488.093,0.0,95598.1,1.13586
4240000,488.065,0.0,95598.5,1.13587
4244000,488.136,0.0,95597.7,1.13586
4248000,487.981,0.0,95599.4,1.13588
4252000,488.089,0.0,95598.2,1.13586
4256000,488.225,0.0,95596.6,1.13585
4260000,488.075,0.0,95598.3,1.13587
4264000,488.154,0.0,95597.4,1.13586
4272000,488.098,0.0,95598.1,1.13586
4276000,488.0,0.0,95599.2,1.13588
4284000,487.887,0.0,95600.5,1.13589
4292000,488.14,0.0,95597.6,1.13586
4300000,488.126,0.0,95597.7,1.13586
4304000,487.859,0.0,95600.9,1.1359
4308000,488.178,0.0,95597.2,1.13585
4312000,488.093,0.0,95598.1,1.13586
4316000,487.826,0.0,95601.2,1.1359
4320000,487.971,0.0,95599.5,1.13588
4324000,488.093,0.0,95598.1,1.13586
4328000,487.924,0.0,95600.1,1.13589
4336000,488.154,0.0,95597.4,1.13586
4340000,488.14,0.0,95597.6,1.13586
4344000,488.117,0.0,95597.9,1.13586
4348000,487.84,0.0,95601.0,1.1359
4352000,487.962,0.0,95599.7,1.13588
4356000,488.046,0.0,95598.7,1.13587
4360000,488.352,0.0,95595.1,1.13583
4364000,488.14,0.0,95597.6,1.13586
4368000,488.023,0.0,95598.9,1.13587
4372000,487.915,0.0,95600.2,1.13589
4376000,488.061,0.0,95598.5,1.13587
4380000,488.046,0.0,95598.6,1.13587
4388000,488.145,0.0,95597.5,1.13586
4392000,488.117,0.0,95597.9,1.13586
4396000,488.093,0.0,95598.1,1.13586
4404000,488.023,0.0,95598.9,1.13587
4408000,487.99,0.0,95599.3,1.13588
4416000,488.178,0.0,95597.2,1.13585
4420000,488.009,0.0,95599.1,1.13588
4424000,487.99,0.0,95599.3,1.13588
4428000,488.018,0.0,95599.0,1.13587
4436000,487.981,0.0,95599.4,1.13588
4440000,488.122,0.0,95597.8,1.13586
4444000,488.122,0.0,95597.8,1.13586
4452000,488.004,0.0,95599.1,1.13588
4456000,488.004,0.0,95599.2,1.13588
4460000,488.051,0.0,95598.6,1.13587
4468000,488.136,0.0,95597.6,1.13586
4472000,488.201,0.0,95596.9,1.13585
4476000,488.079,0.0,95598.2,1.13587
4480000,488.103,0.0,95598.0,1.13586
4484000,488.014,0.0,95599.0,1.13587
4492000,487.896,0.0,95600.4,1.13589
4496000,488.028,0.0,95598.9,1.13587
4504000,488.056,0.0,95598.5,1.13587
4508000,488.136,0.0,95597.6,1.13586
4516000,488.122,0.0,95597.8,1.13586
4520000,487.995,0.0,95599.3,1.13588
4528000,487.948,0.0,95599.8,1.13588
4532000,487.953,0.0,95599.7,1.13588
4540000,487.971,0.0,95599.5,1.13588
4548000,488.037,0.0,95598.8,1.13587
4552000,488.009,0.0,95599.1,1.13588
4556000,488.112,0.0,95597.9,1.13586
4560000,488.014,0.0,95599.0,1.13587
4564000,488.215,0.0,95596.7,1.13585
4572000,488.145,0.0,95597.5,1.13586
4580000,488.131,0.0,95597.7,1.13586
4584000,488.126,0.0,95597.7,1.13586
4588000,488.093,0.0,95598.1,1.13586
4592000,488.122,0.0,95597.8,1.13586
4596000,488.018,0.0,95599.0,1.13587
4604000,488.117,0.0,95597.8,1.13586
4608000,488.122,0.0,95597.8,1.13586
4612000,488.037,0.0,95598.7,1.13587
4616000,488.22,0.0,95596.7,1.13585
4620000,488.014,0.0,95599.0,1.13587
4624000,487.967,0.0,95599.6,1.13588
4628000,487.995,0.0,95599.2,1.13588
4632000,488.051,0.0,95598.6,1.13587
4636000,488.061,0.0,95598.5,1.13587
4640000,488.084,0.0,95598.2,1.13587
4644000,488.206,0.0,95596.8,1.13585
4648000,488.089,0.0,95598.2,1.13586
4656000,488.253,0.0,95596.3,1.13584
4660000,488.159,0.0,95597.4,1.13586
4664000,488.032,0.0,95598.8,1.13587
4672000,487.929,0.0,95600.0,1.13589
4676000,488.028,0.0,95598.9,1.13587
4680000,487.929,0.0,95600.0,1.13589
4688000,488.3,0.0,95595.8,1.13584
4692000,488.169,0.0,95597.3,1.13585
4696000,487.981,0.0,95599.4,1.13588
4700000,488.215,0.0,95596.7,1.13585
4704000,488.22,0.0,95596.7,1.13585
4708000,487.995,0.0,95599.2,1.13588
4712000,488.169,0.0,95597.3,1.13585
4720000,488.234,0.0,95596.5,1.13584
4724000,488.028,0.0,95598.9,1.13587
4732000,488.154,0.0,95597.4,1.13586
4736000,487.943,0.0,95599.8,1.13588
4740000,488.314,0.0,95595.6,1.13583
4748000,488.093,0.0,95598.1,1.13586
4752000,488.089,0.0,95598.2,1.13586
4756000,487.995,0.0,95599.2,1.13588
4760000,488.131,0.0,95597.7,1.13586
4768000,488.018,0.0,95599.0,1.13587
4772000,488.089,0.0,95598.2,1.13586
4776000,488.07,0.0,95598.4,1.13587
4784000,488.098,0.0,95598.1,1.13586
4788000,487.971,0.0,95599.5,1.13588
4796000,488.089,0.0,95598.2,1.13586
4800000,488.079,0.0,95598.3,1.13587
4804000,488.084,0.0,95598.2,1.13587
4808000,488.154,0.0,95597.4,1.13586
4812000,488.065,0.0,95598.5,1.13587
4816000,488.032,0.0,95598.9,1.13587
4820000,488.117,0.0,95597.9,1.13586
4824000,488.164,0.0,95597.3,1.13585
4828000,488.075,0.0,95598.4,1.13587
4836000,488.131,0.0,95597.7,1.13586
4840000,488.3,0.0,95595.8,1.13584
4848000,488.145,0.0,95597.5,1.13586
4852000,488.197,0.0,95597.0,1.13585
4856000,488.15,0.0,95597.5,1.13586
4864000,488.197,0.0,95597.0,1.13585
4868000,488.131,0.0,95597.7,1.13586
4872000,488.234,0.0,95596.5,1.13585
4880000,488.051,0.0,95598.6,1.13587
4884000,487.971,0.0,95599.5,1.13588
4888000,488.234,0.0,95596.5,1.13584
4892000,488.103,0.0,95598.0,1.13586
4900000,488.093,0.0,95598.1,1.13586
4908000,488.075,0.0,95598.3,1.13587
4916000,488.0,0.0,95599.2,1.13588
4920000,488.309,0.0,95595.6,1.13583
4928000,487.948,0.0,95599.8,1.13588
4932000,487.962,0.0,95599.6,1.13588
4936000,488.061,0.0,95598.5,1.13587
4940000,488.169,0.0,95597.3,1.13585
4948000,488.051,0.0,95598.6,1.13587
4952000,488.356,0.0,95595.1,1.13583
4956000,488.258,0.0,95596.3,1.13584
4964000,488.098,0.0,95598.1,1.13586
4968000,487.835,0.0,95601.1,1.1359
4972000,488.108,0.0,95598.0,1.13586
4980000,488.108,0.0,95598.0,1.13586
4984000,488.037,0.0,95598.8,1.13587
4988000,488.173,0.0,95597.2,1.13585
4992000,488.075,0.0,95598.4,1.13587
4996000,488.093,0.0,95598.1,1.13586
5000000,487.995,0.0,95599.2,1.13588
5004000,488.154,0.0,95597.5,1.13586
5012000,488.112,0.0,95597.9,1.13586
5016000,487.943,0.0,95599.8,1.13588
5020000,488.046,0.0,95598.7,1.13587
5028000,487.868,0.0,95600.7,1.13589
5036000,488.089,0.0,95598.2,1.13586
5040000,487.863,0.0,95600.8,1.1359
5048000,488.122,0.0,95597.8,1.13586
5052000,487.981,0.0,95599.4,1.13588
5056000,488.075,0.0,95598.3,1.13587
5060000,488.352,0.0,95595.1,1.13583
5064000,487.962,0.0,95599.6,1.13588
5068000,488.145,0.0,95597.5,1.13586
5072000,488.089,0.0,95598.2,1.13586
5076000,487.962,0.0,95599.6,1.13588
5080000,487.981,0.0,95599.4,1.13588
5084000,488.046,0.0,95598.6,1.13587
5088000,487.892,0.0,95600.4,1.13589
5092000,488.122,0.0,95597.8,1.13586
5096000,487.882,0.0,95600.5,1.13589
5104000,488.089,0.0,95598.2,1.13586
5112000,488.032,0.0,95598.8,1.13587
5116000,488.169,0.0,95597.2,1.13585
5120000,487.892,0.0,95600.4,1.13589
5124000,488.07,0.0,95598.4,1.13587
5128000,488.267,0.0,95596.1,1.13584
5132000,488.225,0.0,95596.6,1.13585
5136000,487.962,0.0,95599.6,1.13588
5144000,488.032,0.0,95598.9,1.13587
5148000,488.089,0.0,95598.2,1.13586
5152000,488.061,0.0,95598.5,1.13587
5156000,488.108,0.0,95597.9,1.13586
5164000,488.112,0.0,95597.9,1.13586
5172000,488.07,0.0,95598.4,1.13587
5176000,487.985,0.0,95599.4,1.13588
5188000,487.929,0.0,95600.0,1.13589
5192000,488.075,0.0,95598.4,1.13587
5200000,488.145,0.0,95597.5,1.13586
5204000,488.103,0.0,95598.0,1.13586
5208000,488.098,0.0,95598.0,1.13586
5212000,488.061,0.0,95598.5,1.13587
5220000,488.103,0.0,95598.0,1.13586
5224000,488.262,0.0,95596.2,1.13584
5232000,488.032,0.0,95598.8,1.13587
5236000,488.117,0.0,95597.9,1.13586
5240000,488.093,0.0,95598.1,1.13586
5248000,488.117,0.0,95597.8,1.13586
5252000,488.0,0.0,95599.2,1.13588
5260000,488.154,0.0,95597.4,1.13586
5264000,488.079,0.0,95598.3,1.13587
5268000,488.018,0.0,95599.0,1.13587
5272000,487.943,0.0,95599.8,1.13588
5276000,488.032,0.0,95598.8,1.13587
5284000,488.145,0.0,95597.5,1.13586
5292000,488.122,0.0,95597.8,1.13586
5296000,487.995,0.0,95599.2,1.13588
5300000,488.215,0.0,95596.7,1.13585
5304000,487.967,0.0,95599.6,1.13588
5308000,488.244,0.0,95596.4,1.13584
5316000,487.887,0.0,95600.5,1.13589
5320000,487.92,0.0,95600.1,1.13589
5328000,488.122,0.0,95597.8,1.13586
5332000,488.187,0.0,95597.1,1.13585
5336000,488.187,0.0,95597.0,1.13585
5340000,487.981,0.0,95599.4,1.13588
5344000,487.854,0.0,95600.9,1.1359
5348000,488.004,0.0,95599.1,1.13588
5352000,488.131,0.0,95597.7,1.13586
5356000,488.14,0.0,95597.6,1.13586
5360000,488.07,0.0,95598.4,1.13587
5364000,488.018,0.0,95598.9,1.13587
5368000,487.995,0.0,95599.2,1.13588
5372000,488.103,0.0,95598.0,1.13586
5380000,488.009,0.0,95599.1,1.13588
5384000,487.985,0.0,95599.3,1.13588
5388000,487.821,0.0,95601.2,1.1359
5392000,488.192,0.0,95597.0,1.13585
5400000,488.084,0.0,95598.2,1.13587
5404000,487.985,0.0,95599.4,1.13588
5412000,487.953,0.0,95599.7,1.13588
5416000,487.981,0.0,95599.4,1.13588
5420000,488.061,0.0,95598.5,1.13587
5424000,488.07,0.0,95598.4,1.13587
5432000,488.061,0.0,95598.5,1.13587
5436000,487.967,0.0,95599.6,1.13588
5440000,487.943,0.0,95599.9,1.13588
5444000,488.108,0.0,95598.0,1.13586
5448000,488.042,0.0,95598.7,1.13587
5452000,487.896,0.0,95600.4,1.13589
5456000,487.99,0.0,95599.3,1.13588
5460000,488.004,0.0,95599.2,1.13588
5468000,487.995,0.0,95599.2,1.13588
5472000,488.295,0.0,95595.8,1.13584
5476000,488.079,0.0,95598.3,1.13587
5480000,488.183,0.0,95597.1,1.13585
5488000,488.234,0.0,95596.5,1.13584
5492000,488.023,0.0,95598.9,1.13587
5496000,487.967,0.0,95599.6,1.13588
5504000,487.84,0.0,95601.0,1.1359
5508000,488.103,0.0,95598.0,1.13586
5516000,487.92,0.0,95600.1,1.13589
5520000,488.154,0.0,95597.4,1.13586
5524000,488.056,0.0,95598.5,1.13587
5528000,488.159,0.0,95597.4,1.13585
5532000,488.018,0.0,95599.0,1.13587
5536000,487.882,0.0,95600.5,1.13589
5540000,487.99,0.0,95599.3,1.13588
5548000,488.14,0.0,95597.6,1.13586
5552000,488.046,0.0,95598.7,1.13587
5556000,488.07,0.0,95598.4,1.13587
5564000,488.014,0.0,95599.0,1.13587
5568000,488.192,0.0,95597.0,1.13585
5572000,488.07,0.0,95598.4,1.13587
5576000,488.093,0.0,95598.1,1.13586
5584000,487.995,0.0,95599.2,1.13588
5592000,488.183,0.0,95597.1,1.13585
5596000,488.159,0.0,95597.4,1.13585
5600000,488.014,0.0,95599.0,1.13587
5604000,488.122,0.0,95597.8,1.13586
5608000,487.934,0.0,95599.9,1.13589
5612000,487.976,0.0,95599.4,1.13588
5616000,488.061,0.0,95598.5,1.13587
5620000,488.046,0.0,95598.7,1.13587
5624000,487.967,0.0,95599.6,1.13588
5628000,488.201,0.0,95596.9,1.13585
5632000,488.075,0.0,95598.4,1.13587
5636000,488.042,0.0,95598.7,1.13587
5640000,488.089,0.0,95598.2,1.13586
5648000,488.145,0.0,95597.5,1.13586
5652000,488.028,0.0,95598.9,1.13587
5656000,488.051,0.0,95598.6,1.13587
5660000,488.056,0.0,95598.5,1.13587
5668000,487.934,0.0,95600.0,1.13589
5672000,488.004,0.0,95599.2,1.13588
5676000,488.15,0.0,95597.5,1.13586
5684000,488.042,0.0,95598.7,1.13587
5688000,488.089,0.0,95598.2,1.13586
5692000,488.154,0.0,95597.4,1.13586
5696000,487.953,0.0,95599.7,1.13588
5704000,488.07,0.0,95598.4,1.13587
5712000,488.154,0.0,95597.4,1.13586
5720000,487.99,0.0,95599.3,1.13588
5724000,487.849,0.0,95600.9,1.1359
5728000,487.934,0.0,95600.0,1.13589
5732000,488.075,0.0,95598.3,1.13587
5740000,487.91,0.0,95600.2,1.13589
5744000,488.183,0.0,95597.1,1.13585
5748000,488.089,0.0,95598.2,1.13586
5752000,487.957,0.0,95599.7,1.13588
5760000,488.201,0.0,95596.9,1.13585
5768000,488.197,0.0,95596.9,1.13585
5772000,488.103,0.0,95598.0,1.13586
5776000,488.046,0.0,95598.6,1.13587
5780000,487.981,0.0,95599.4,1.13588
5788000,488.018,0.0,95599.0,1.13587
5792000,488.164,0.0,95597.3,1.13585
5796000,488.14,0.0,95597.6,1.13586
5800000,488.075,0.0,95598.4,1.13587
5804000,487.92,0.0,95600.1,1.13589
5812000,488.183,0.0,95597.1,1.13585
5816000,488.126,0.0,95597.7,1.13586
5820000,488.004,0.0,95599.2,1.13588
5828000,488.164,0.0,95597.3,1.13585
5832000,488.15,0.0,95597.5,1.13586
5836000,488.173,0.0,95597.2,1.13585
5840000,488.061,0.0,95598.5,1.13587
5848000,488.075,0.0,95598.3,1.13587
5852000,487.967,0.0,95599.6,1.13588
5860000,487.99,0.0,95599.3,1.13588
5864000,488.037,0.0,95598.8,1.13587
5868000,488.117,0.0,95597.8,1.13586
5872000,488.079,0.0,95598.3,1.13587
5876000,488.187,0.0,95597.0,1.13585
5880000,488.225,0.0,95596.6,1.13585
5884000,488.154,0.0,95597.4,1.13586
5888000,488.244,0.0,95596.4,1.13584
5896000,488.056,0.0,95598.6,1.13587
5900000,488.164,0.0,95597.3,1.13585
5904000,487.976,0.0,95599.5,1.13588
5908000,487.976,0.0,95599.5,1.13588
5912000,488.22,0.0,95596.7,1.13585
5916000,488.032,0.0,95598.8,1.13587
5924000,488.093,0.0,95598.1,1.13586
5928000,488.084,0.0,95598.2,1.13587
5932000,488.037,0.0,95598.8,1.13587
5936000,487.981,0.0,95599.4,1.13588
5940000,488.093,0.0,95598.1,1.13586
5944000,488.14,0.0,95597.6,1.13586
5948000,488.328,0.0,95595.4,1.13583
5952000,488.122,0.0,95597.8,1.13586
5956000,488.103,0.0,95598.0,1.13586
5964000,488.244,0.0,95596.4,1.13584
5968000,488.117,0.0,95597.8,1.13586
5972000,488.032,0.0,95598.8,1.13587
5980000,488.032,0.0,95598.9,1.13587
5984000,488.15,0.0,95597.5,1.13586
5988000,488.173,0.0,95597.2,1.13585
5992000,487.981,0.0,95599.4,1.13588
5996000,488.183,0.0,95597.1,1.13585
6000000,488.145,0.0,95597.5,1.13586
6008000,488.075,0.0,95598.3,1.13587
6012000,487.962,0.0,95599.6,1.13588
6016000,488.131,0.0,95597.7,1.13586
6020000,487.915,0.0,95600.2,1.13589
6028000,488.117,0.0,95597.9,1.13586
6032000,488.15,0.0,95597.5,1.13586
6040000,488.173,0.0,95597.2,1.13585
6044000,487.99,0.0,95599.3,1.13588
6048000,488.046,0.0,95598.6,1.13587
6052000,487.934,0.0,95599.9,1.13589
6060000,488.032,0.0,95598.8,1.13587
6064000,488.178,0.0,95597.2,1.13585
6068000,488.173,0.0,95597.2,1.13585
6076000,488.286,0.0,95595.9,1.13584
6080000,488.004,0.0,95599.1,1.13588
6084000,488.126,0.0,95597.7,1.13586
6088000,488.136,0.0,95597.6,1.13586
6092000,488.079,0.0,95598.3,1.13587
6100000,488.037,0.0,95598.8,1.13587
6104000,488.098,0.0,95598.0,1.13586
6112000,488.164,0.0,95597.3,1.13585
6116000,488.093,0.0,95598.1,1.13586
6120000,487.99,0.0,95599.3,1.13588
6124000,488.248,0.0,95596.3,1.13584
6128000,488.197,0.0,95596.9,1.13585
6132000,488.075,0.0,95598.4,1.13587
6136000,488.281,0.0,95596.0,1.13584
6140000,488.108,0.0,95597.9,1.13586
6144000,487.971,0.0,95599.5,1.13588
6148000,487.976,0.0,95599.4,1.13588
6156000,488.046,0.0,95598.7,1.13587
6160000,488.258,0.0,95596.2,1.13584
6168000,488.004,0.0,95599.1,1.13588
6172000,488.037,0.0,95598.8,1.13587
6176000,488.056,0.0,95598.6,1.13587
6180000,488.164,0.0,95597.3,1.13585
6184000,488.201,0.0,95596.9,1.13585
6188000,488.093,0.0,95598.1,1.13586
6192000,487.737,0.0,95602.2,1.13591
6200000,487.99,0.0,95599.3,1.13588
6208000,487.929,0.0,95600.0,1.13589
6212000,488.173,0.0,95597.2,1.13585
6216000,488.206,0.0,95596.8,1.13585
6220000,488.173,0.0,95597.2,1.13585
6224000,487.985,0.0,95599.4,1.13588
6228000,488.347,0.0,95595.2,1.13583
6232000,488.23,0.0,95596.6,1.13585
6236000,488.323,0.0,95595.5,1.13583
6240000,487.929,0.0,95600.0,1.13589
6244000,488.009,0.0,95599.1,1.13588
6248000,488.197,0.0,95596.9,1.13585
6252000,488.061,0.0,95598.5,1.13587
6260000,488.197,0.0,95597.0,1.13585
6268000,488.075,0.0,95598.3,1.13587
6272000,488.103,0.0,95598.0,1.13586
6276000,488.084,0.0,95598.2,1.13587
6280000,488.122,0.0,95597.8,1.13586
6288000,488.098,0.0,95598.0,1.13586
6292000,488.112,0.0,95597.9,1.13586
6296000,488.07,0.0,95598.4,1.13587
6300000,488.009,0.0,95599.1,1.13588
6304000,488.009,0.0,95599.1,1.13588
6308000,488.07,0.0,95598.4,1.13587
6316000,488.0,0.0,95599.2,1.13588
6320000,488.046,0.0,95598.6,1.13587
6328000,488.103,0.0,95598.0,1.13586
6336000,487.985,0.0,95599.3,1.13588
6340000,488.108,0.0,95598.0,1.13586
6344000,487.831,0.0,95601.1,1.1359
6348000,488.234,0.0,95596.5,1.13584
6352000,488.089,0.0,95598.2,1.13586
6356000,488.206,0.0,95596.8,1.13585
6364000,488.079,0.0,95598.3,1.13587
6372000,488.056,0.0,95598.5,1.13587
6380000,487.976,0.0,95599.4,1.13588
6384000,488.07,0.0,95598.4,1.13587
6388000,488.234,0.0,95596.5,1.13584
6392000,488.046,0.0,95598.6,1.13587
6400000,488.215,0.0,95596.7,1.13585
6408000,488.028,0.0,95598.9,1.13587
6412000,487.953,0.0,95599.8,1.13588
6416000,488.046,0.0,95598.6,1.13587
6420000,488.032,0.0,95598.8,1.13587
6424000,488.126,0.0,95597.8,1.13586
6428000,488.014,0.0,95599.0,1.13587
6436000,487.985,0.0,95599.4,1.13588
6448000,488.215,0.0,95596.7,1.13585
6452000,487.92,0.0,95600.1,1.13589
6456000,488.004,0.0,95599.1,1.13588
6460000,488.164,0.0,95597.3,1.13585
6468000,488.065,0.0,95598.5,1.13587
6476000,488.178,0.0,95597.2,1.13585
6480000,488.093,0.0,95598.1,1.13586
6488000,487.821,0.0,95601.2,1.1359
6492000,488.098,0.0,95598.0,1.13586
6496000,487.943,0.0,95599.9,1.13588
6504000,488.028,0.0,95598.9,1.13587
6512000,487.962,0.0,95599.6,1.13588
6516000,488.117,0.0,95597.8,1.13586
6520000,488.046,0.0,95598.7,1.13587
6524000,488.215,0.0,95596.7,1.13585
6528000,488.122,0.0,95597.8,1.13586
6532000,488.103,0.0,95598.0,1.13586
6536000,488.267,0.0,95596.1,1.13584
6544000,488.178,0.0,95597.2,1.13585
6548000,488.051,0.0,95598.6,1.13587
6552000,488.136,0.0,95597.6,1.13586
6556000,488.117,0.0,95597.8,1.13586
6564000,488.192,0.0,95597.0,1.13585
6568000,488.286,0.0,95595.9,1.13584
6572000,487.877,0.0,95600.6,1.13589
6580000,488.267,0.0,95596.1,1.13584
6584000,488.122,0.0,95597.8,1.13586
6592000,488.309,0.0,95595.6,1.13583
6596000,488.004,0.0,95599.1,1.13588
6600000,487.92,0.0,95600.1,1.13589
6604000,488.032,0.0,95598.8,1.13587
6612000,488.056,0.0,95598.5,1.13587
6616000,488.22,0.0,95596.7,1.13585
6620000,488.183,0.0,95597.1,1.13585
6628000,488.014,0.0,95599.0,1.13587
6632000,487.901,0.0,95600.4,1.13589
6636000,488.032,0.0,95598.8,1.13587
6640000,488.028,0.0,95598.9,1.13587
6644000,488.22,0.0,95596.7,1.13585
6648000,488.098,0.0,95598.1,1.13586
6652000,488.201,0.0,95596.9,1.13585
6660000,488.14,0.0,95597.6,1.13586
6664000,487.995,0.0,95599.2,1.13588
6668000,488.0,0.0,95599.2,1.13588
6676000,488.004,0.0,95599.1,1.13588
6684000,488.136,0.0,95597.7,1.13586
6688000,488.225,0.0,95596.6,1.13585
6692000,487.953,0.0,95599.7,1.13588
6696000,488.244,0.0,95596.4,1.13584
6704000,488.028,0.0,95598.9,1.13587
6708000,488.234,0.0,95596.5,1.13584
6716000,488.075,0.0,95598.3,1.13587
6720000,488.22,0.0,95596.7,1.13585
6724000,488.169,0.0,95597.2,1.13585
6732000,488.206,0.0,95596.8,1.13585
6736000,487.976,0.0,95599.5,1.13588
6740000,488.164,0.0,95597.3,1.13585
6744000,488.07,0.0,95598.4,1.13587
6748000,488.093,0.0,95598.1,1.13586
6752000,488.112,0.0,95597.9,1.13586
6756000,488.051,0.0,95598.6,1.13587
6764000,488.098,0.0,95598.0,1.13586
6768000,488.051,0.0,95598.6,1.13587
6772000,488.046,0.0,95598.7,1.13587
6780000,488.051,0.0,95598.6,1.13587
6788000,488.14,0.0,95597.6,1.13586
6792000,488.014,0.0,95599.0,1.13587
6796000,488.197,0.0,95596.9,1.13585
6800000,488.075,0.0,95598.3,1.13587
6804000,488.046,0.0,95598.6,1.13587
6808000,488.056,0.0,95598.6,1.13587
6812000,487.873,0.0,95600.6,1.13589
6816000,488.028,0.0,95598.9,1.13587
6820000,488.136,0.0,95597.6,1.13586
6828000,488.051,0.0,95598.6,1.13587
6832000,488.056,0.0,95598.6,1.13587
6836000,488.093,0.0,95598.1,1.13586
6840000,488.056,0.0,95598.5,1.13587
6844000,488.056,0.0,95598.6,1.13587
6852000,488.014,0.0,95599.0,1.13587
6860000,488.112,0.0,95597.9,1.13586
6864000,488.187,0.0,95597.0,1.13585
6868000,488.028,0.0,95598.9,1.13587
6872000,487.985,0.0,95599.4,1.13588
6880000,488.046,0.0,95598.7,1.13587
6884000,488.239,0.0,95596.4,1.13584
6892000,488.018,0.0,95599.0,1.13587
6896000,488.009,0.0,95599.1,1.13588
6900000,487.985,0.0,95599.4,1.13588
6904000,488.089,0.0,95598.2,1.13586
6908000,488.018,0.0,95599.0,1.13587
6916000,488.075,0.0,95598.3,1.13587
6920000,487.929,0.0,95600.0,1.13589
6924000,488.079,0.0,95598.3,1.13587
6928000,487.976,0.0,95599.5,1.13588
6932000,488.225,0.0,95596.6,1.13585
6936000,488.018,0.0,95599.0,1.13587
6944000,488.018,0.0,95599.0,1.13587
6948000,488.056,0.0,95598.5,1.13587
6952000,487.943,0.0,95599.8,1.13588
6960000,488.009,0.0,95599.1,1.13588
6964000,488.046,0.0,95598.6,1.13587
6968000,487.976,0.0,95599.4,1.13588
6972000,488.206,0.0,95596.8,1.13585
6980000,488.333,0.0,95595.4,1.13583
6984000,488.075,0.0,95598.3,1.13587
6988000,488.159,0.0,95597.4,1.13586
6992000,488.215,0.0,95596.8,1.13585
7000000,488.103,0.0,95598.0,1.13586
7004000,488.093,0.0,95598.1,1.13586
7012000,488.098,0.0,95598.1,1.13586
7016000,488.15,0.0,95597.5,1.13586
7020000,488.206,0.0,95596.9,1.13585
7024000,488.018,0.0,95599.0,1.13587
7028000,487.995,0.0,95599.2,1.13588
7032000,488.07,0.0,95598.4,1.13587
7036000,488.169,0.0,95597.2,1.13585
7040000,488.061,0.0,95598.5,1.13587
7048000,488.14,0.0,95597.6,1.13586
7052000,487.99,0.0,95599.3,1.13588
7060000,487.976,0.0,95599.5,1.13588
7064000,488.028,0.0,95598.9,1.13587
7068000,488.098,0.0,95598.1,1.13586
7076000,488.15,0.0,95597.5,1.13586
7080000,488.159,0.0,95597.4,1.13585
7084000,488.042,0.0,95598.7,1.13587
7088000,488.014,0.0,95599.0,1.13587
7092000,488.018,0.0,95599.0,1.13587
7100000,488.046,0.0,95598.6,1.13587
7104000,488.028,0.0,95598.9,1.13587
7112000,488.0,0.0,95599.2,1.13588
7116000,488.093,0.0,95598.1,1.13586
7120000,487.967,0.0,95599.6,1.13588
7124000,487.99,0.0,95599.3,1.13588
7132000,488.145,0.0,95597.5,1.13586
7140000,488.009,0.0,95599.1,1.13588
7144000,488.014,0.0,95599.1,1.13587
7152000,488.056,0.0,95598.5,1.13587
7156000,488.042,0.0,95598.7,1.13587
7160000,488.061,0.0,95598.5,1.13587
7164000,488.075,0.0,95598.3,1.13587
7168000,488.291,0.0,95595.8,1.13584
7172000,488.117,0.0,95597.8,1.13586
7180000,488.225,0.0,95596.6,1.13585
7184000,488.028,0.0,95598.9,1.13587
7196000,488.244,0.0,95596.4,1.13584
7204000,488.032,0.0,95598.8,1.13587
7208000,488.028,0.0,95598.9,1.13587
7216000,488.248,0.0,95596.3,1.13584
7220000,488.206,0.0,95596.8,1.13585
7224000,487.976,0.0,95599.4,1.13588
7228000,488.028,0.0,95598.9,1.13587
7232000,488.023,0.0,95598.9,1.13587
7236000,488.051,0.0,95598.6,1.13587
7240000,488.009,0.0,95599.1,1.13588
7244000,488.028,0.0,95598.9,1.13587
7248000,487.971,0.0,95599.5,1.13588
7252000,488.056,0.0,95598.6,1.13587
7256000,487.859,0.0,95600.8,1.1359
7260000,488.046,0.0,95598.7,1.13587
7264000,488.018,0.0,95599.0,1.13587
7268000,487.962,0.0,95599.6,1.13588
7276000,488.103,0.0,95598.0,1.13586
7280000,488.164,0.0,95597.3,1.13585
7288000,488.014,0.0,95599.1,1.13587
7296000,488.051,0.0,95598.6,1.13587
7300000,488.014,0.0,95599.1,1.13587
7308000,488.056,0.0,95598.6,1.13587
7312000,488.159,0.0,95597.4,1.13586
7316000,488.004,0.0,95599.2,1.13588
7320000,488.122,0.0,95597.8,1.13586
7324000,488.089,0.0,95598.2,1.13586
7328000,488.248,0.0,95596.4,1.13584
7332000,488.201,0.0,95596.9,1.13585
7336000,488.164,0.0,95597.3,1.13585
7344000,487.901,0.0,95600.4,1.13589
7348000,488.075,0.0,95598.3,1.13587
7352000,488.122,0.0,95597.8,1.13586
7356000,487.929,0.0,95600.0,1.13589
7360000,487.863,0.0,95600.7,1.1359
7364000,488.018,0.0,95599.0,1.13587
7368000,488.051,0.0,95598.6,1.13587
7372000,488.201,0.0,95596.9,1.13585
7376000,487.887,0.0,95600.5,1.13589
7384000,488.244,0.0,95596.4,1.13584
7388000,488.028,0.0,95598.9,1.13587
7392000,488.042,0.0,95598.7,1.13587
7400000,488.112,0.0,95597.9,1.13586
7404000,488.225,0.0,95596.6,1.13585
7408000,488.014,0.0,95599.0,1.13587
7412000,488.079,0.0,95598.3,1.13587
7420000,488.056,0.0,95598.6,1.13587
7424000,488.253,0.0,95596.3,1.13584
7428000,488.018,0.0,95599.0,1.13587
7432000,488.136,0.0,95597.6,1.13586
7436000,488.014,0.0,95599.0,1.13587
7440000,488.14,0.0,95597.6,1.13586
7444000,488.093,0.0,95598.1,1.13586
7448000,487.906,0.0,95600.3,1.13589
7452000,488.065,0.0,95598.5,1.13587
7456000,487.976,0.0,95599.5,1.13588
7460000,488.258,0.0,95596.3,1.13584
7468000,487.995,0.0,95599.2,1.13588
7472000,488.215,0.0,95596.7,1.13585
7476000,487.943,0.0,95599.8,1.13588
7484000,488.098,0.0,95598.0,1.13586
7488000,488.192,0.0,95597.0,1.13585
7492000,488.093,0.0,95598.1,1.13586
7500000,488.103,0.0,95598.0,1.13586
7504000,488.075,0.0,95598.3,1.13587
7508000,488.009,0.0,95599.1,1.13588
7512000,488.028,0.0,95598.9,1.13587
7516000,487.971,0.0,95599.5,1.13588
7520000,488.042,0.0,95598.7,1.13587
7524000,488.018,0.0,95599.0,1.13587
7528000,487.962,0.0,95599.6,1.13588
7532000,488.178,0.0,95597.2,1.13585
7540000,488.075,0.0,95598.4,1.13587
7544000,488.173,0.0,95597.2,1.13585
7548000,488.061,0.0,95598.5,1.13587
7552000,488.112,0.0,95597.9,1.13586
7560000,487.943,0.0,95599.8,1.13588
7564000,488.028,0.0,95598.9,1.13587
7568000,488.225,0.0,95596.6,1.13585
7572000,488.277,0.0,95596.0,1.13584
7576000,487.92,0.0,95600.1,1.13589
7580000,487.831,0.0,95601.1,1.1359
7584000,488.103,0.0,95598.0,1.13586
7588000,488.075,0.0,95598.3,1.13587
7596000,488.244,0.0,95596.4,1.13584
7600000,487.981,0.0,95599.4,1.13588
7604000,488.032,0.0,95598.8,1.13587
7608000,487.967,0.0,95599.6,1.13588
7612000,487.934,0.0,95600.0,1.13589
7616000,488.084,0.0,95598.2,1.13587
7620000,488.037,0.0,95598.8,1.13587
7628000,488.136,0.0,95597.6,1.13586
7632000,488.136,0.0,95597.7,1.13586
7636000,488.075,0.0,95598.3,1.13587
7644000,488.093,0.0,95598.1,1.13586
7648000,488.187,0.0,95597.0,1.13585
7652000,488.061,0.0,95598.5,1.13587
7660000,488.122,0.0,95597.8,1.13586
7664000,488.093,0.0,95598.1,1.13586
7668000,487.962,0.0,95599.6,1.13588
7672000,488.061,0.0,95598.5,1.13587
7676000,488.046,0.0,95598.7,1.13587
7684000,487.929,0.0,95600.0,1.13589
7688000,487.957,0.0,95599.7,1.13588
7700000,487.892,0.0,95600.4,1.13589
7708000,487.845,0.0,95600.9,1.1359
7716000,488.159,0.0,95597.4,1.13585
7724000,488.018,0.0,95599.0,1.13587
7728000,488.028,0.0,95598.9,1.13587
7732000,488.201,0.0,95596.9,1.13585
7736000,488.051,0.0,95598.6,1.13587
7740000,488.169,0.0,95597.2,1.13585
7744000,488.014,0.0,95599.0,1.13587
7748000,488.014,0.0,95599.0,1.13587
7752000,488.225,0.0,95596.6,1.13585
7760000,488.122,0.0,95597.8,1.13586
7768000,488.093,0.0,95598.1,1.13586
7776000,488.173,0.0,95597.2,1.13585
7780000,488.183,0.0,95597.1,1.13585
7784000,488.028,0.0,95598.9,1.13587
7788000,488.0,0.0,95599.2,1.13588
7796000,488.244,0.0,95596.4,1.13584
7800000,488.201,0.0,95596.9,1.13585
7808000,488.028,0.0,95598.9,1.13587
7812000,488.215,0.0,95596.7,1.13585
7816000,488.206,0.0,95596.8,1.13585
7820000,487.854,0.0,95600.9,1.1359
7828000,488.07,0.0,95598.4,1.13587
7836000,487.948,0.0,95599.8,1.13588
7840000,488.046,0.0,95598.6,1.13587
7844000,488.23,0.0,95596.6,1.13585
7848000,488.075,0.0,95598.4,1.13587
7852000,487.934,0.0,95599.9,1.13589
7856000,488.075,0.0,95598.3,1.13587
7860000,488.075,0.0,95598.4,1.13587
7868000,488.065,0.0,95598.4,1.13587
7872000,488.061,0.0,95598.5,1.13587
7876000,488.028,0.0,95598.9,1.13587
7880000,487.896,0.0,95600.4,1.13589
7884000,488.056,0.0,95598.5,1.13587
7892000,488.136,0.0,95597.6,1.13586
7896000,488.051,0.0,95598.6,1.13587
7904000,488.178,0.0,95597.1,1.13585
7908000,488.215,0.0,95596.7,1.13585
7912000,488.056,0.0,95598.6,1.13587
7920000,487.934,0.0,95599.9,1.13589
7924000,488.098,0.0,95598.1,1.13586
7928000,488.122,0.0,95597.8,1.13586
7932000,488.004,0.0,95599.2,1.13588
7940000,488.004,0.0,95599.1,1.13588
7944000,487.943,0.0,95599.9,1.13588
7948000,488.098,0.0,95598.1,1.13586
7952000,488.014,0.0,95599.0,1.13587
7956000,488.014,0.0,95599.0,1.13587
7964000,488.136,0.0,95597.6,1.13586
7968000,488.15,0.0,95597.5,1.13586
7976000,488.15,0.0,95597.5,1.13586
7980000,488.009,0.0,95599.1,1.13588
7984000,487.929,0.0,95600.0,1.13589
7988000,488.286,0.0,95595.9,1.13584
7992000,488.061,0.0,95598.5,1.13587
7996000,487.976,0.0,95599.5,1.13588
8000000,488.023,0.0,95598.9,1.13587
8008000,487.985,0.0,95599.4,1.13588
8012000,488.023,0.0,95598.9,1.13587
8020000,488.004,0.0,95599.2,1.13588
8024000,488.098,0.0,95598.0,1.13586
8028000,488.286,0.0,95595.9,1.13584
8032000,488.089,0.0,95598.2,1.13586
8036000,488.061,0.0,95598.5,1.13587
8040000,488.098,0.0,95598.0,1.13586
8044000,488.187,0.0,95597.0,1.13585
8048000,488.037,0.0,95598.8,1.13587
8056000,488.089,0.0,95598.2,1.13586
8060000,488.262,0.0,95596.2,1.13584
8064000,488.126,0.0,95597.8,1.13586
8068000,488.061,0.0,95598.5,1.13587
8076000,487.962,0.0,95599.6,1.13588
8080000,488.004,0.0,95599.1,1.13588
8088000,488.098,0.0,95598.0,1.13586
8092000,488.004,0.0,95599.2,1.13588
8096000,488.117,0.0,95597.9,1.13586
8100000,488.061,0.0,95598.5,1.13587
8104000,488.145,0.0,95597.5,1.13586
8112000,488.103,0.0,95598.0,1.13586
8116000,488.112,0.0,95597.9,1.13586
8120000,487.976,0.0,95599.5,1.13588
8124000,488.206,0.0,95596.9,1.13585
8128000,488.187,0.0,95597.1,1.13585
8132000,487.971,0.0,95599.5,1.13588
8140000,487.985,0.0,95599.4,1.13588
8148000,488.22,0.0,95596.7,1.13585
8152000,488.267,0.0,95596.1,1.13584
8156000,488.159,0.0,95597.3,1.13585
8160000,488.103,0.0,95598.0,1.13586
8168000,488.187,0.0,95597.1,1.13585
8176000,488.239,0.0,95596.4,1.13584
8180000,488.122,0.0,95597.8,1.13586
8184000,487.995,0.0,95599.2,1.13588
8188000,488.07,0.0,95598.4,1.13587
8192000,488.075,0.0,95598.3,1.13587
8196000,488.211,0.0,95596.8,1.13585
8200000,488.122,0.0,95597.8,1.13586
8204000,488.154,0.0,95597.4,1.13586
8212000,487.967,0.0,95599.6,1.13588
8216000,488.14,0.0,95597.6,1.13586
8224000,488.277,0.0,95596.1,1.13584
8228000,488.201,0.0,95596.9,1.13585
8232000,487.892,0.0,95600.4,1.13589
8236000,488.028,0.0,95598.9,1.13587
8244000,488.159,0.0,95597.4,1.13586
8248000,488.154,0.0,95597.4,1.13586
8252000,487.929,0.0,95600.0,1.13589
8260000,488.075,0.0,95598.3,1.13587
8268000,487.967,0.0,95599.6,1.13588
8272000,488.15,0.0,95597.5,1.13586
8276000,487.962,0.0,95599.7,1.13588
8284000,488.361,0.0,95595.1,1.13583
8288000,488.122,0.0,95597.8,1.13586
8296000,487.967,0.0,95599.6,1.13588
8300000,488.159,0.0,95597.3,1.13585
8308000,488.14,0.0,95597.6,1.13586
8312000,488.032,0.0,95598.8,1.13587
8316000,488.108,0.0,95597.9,1.13586
8320000,488.075,0.0,95598.4,1.13587
8324000,488.192,0.0,95597.0,1.13585
8328000,488.126,0.0,95597.8,1.13586
8332000,488.032,0.0,95598.8,1.13587
8336000,488.131,0.0,95597.7,1.13586
8344000,487.985,0.0,95599.4,1.13588
8348000,488.192,0.0,95597.0,1.13585
8356000,488.042,0.0,95598.7,1.13587
8360000,487.901,0.0,95600.3,1.13589
8364000,488.042,0.0,95598.7,1.13587
8368000,488.112,0.0,95597.9,1.13586
8372000,488.103,0.0,95598.0,1.13586
8376000,488.178,0.0,95597.2,1.13585
8384000,488.056,0.0,95598.5,1.13587
8388000,488.018,0.0,95599.0,1.13587
8392000,488.159,0.0,95597.4,1.13585
8396000,488.117,0.0,95597.9,1.13586
8400000,488.065,0.0,95598.4,1.13587
8404000,487.934,0.0,95600.0,1.13589
8412000,487.985,0.0,95599.4,1.13588
8416000,488.07,0.0,95598.4,1.13587
8420000,487.863,0.0,95600.8,1.1359
8428000,488.187,0.0,95597.1,1.13585
8432000,488.178,0.0,95597.2,1.13585
8436000,488.136,0.0,95597.6,1.13586
8440000,488.098,0.0,95598.1,1.13586
8444000,487.995,0.0,95599.2,1.13588
8452000,488.028,0.0,95598.9,1.13587
8456000,488.037,0.0,95598.7,1.13587
8460000,488.206,0.0,95596.8,1.13585
8468000,488.154,0.0,95597.4,1.13586
8476000,488.089,0.0,95598.2,1.13586
8480000,488.103,0.0,95598.0,1.13586
8488000,488.145,0.0,95597.5,1.13586
8496000,488.122,0.0,95597.8,1.13586
8500000,488.0,0.0,95599.2,1.13588
8508000,488.084,0.0,95598.2,1.13587
8512000,488.014,0.0,95599.0,1.13587
8520000,488.112,0.0,95597.9,1.13586
8524000,488.004,0.0,95599.1,1.13588
8528000,488.22,0.0,95596.7,1.13585
8536000,487.934,0.0,95599.9,1.13589
8540000,488.192,0.0,95597.0,1.13585
8544000,487.985,0.0,95599.3,1.13588
8548000,488.352,0.0,95595.2,1.13583
8556000,488.159,0.0,95597.4,1.13585
8560000,488.108,0.0,95598.0,1.13586
8564000,487.957,0.0,95599.7,1.13588
8568000,488.084,0.0,95598.2,1.13587
8572000,488.018,0.0,95598.9,1.13587
8576000,488.023,0.0,95598.9,1.13587
8584000,488.201,0.0,95596.9,1.13585
8588000,488.004,0.0,95599.2,1.13588
8596000,488.126,0.0,95597.7,1.13586
