timestamp,states[0],states[1],states[2],states[3],states[4],states[5],states[6],states[7],states[8],states[9],states[10],states[11],states[12],states[13],states[14],states[15],states[16],states[17],states[18],states[19],states[20],states[21],states[22],states[23],vibe[0],vibe[1],vibe[2],covariances[0],covariances[1],covariances[2],covariances[3],covariances[4],covariances[5],covariances[6],covariances[7],covariances[8],covariances[9],covariances[10],covariances[11],covariances[12],covariances[13],covariances[14],covariances[15],covariances[16],covariances[17],covariances[18],covariances[19],covariances[20],covariances[21],covariances[22],covariances[23],control_mode_flags,pos_horiz_accuracy,pos_vert_accuracy,mag_test_ratio,vel_test_ratio,pos_test_ratio,hgt_test_ratio,tas_test_ratio,hagl_test_ratio,beta_test_ratio,time_slip,gps_check_fail_flags,filter_fault_flags,innovation_check_flags,solution_status_flags,n_states,pre_flt_fail,health_flags,timeout_flags
1260000,0.999991,-0.000144226,-0.000211055,0.00431732,0.000429494,0.000634291,-0.00252138,0.00012735,3.34659e-05,0.0401221,1.25966e-11,-9.16584e-11,1.18732e-08,1.85247e-08,-1.32577e-10,3.26482e-07,0.896075,0.0401213,1.0,0.0,0.0,0.0,0.0,0.0,1.0991e-09,3.87644e-05,0.000227137,1.35754e-08,3.05891e-05,3.05891e-05,0.000780553,0.657626,0.657626,0.542921,0.0480874,0.0480874,0.220293,6.40022e-09,6.40022e-09,6.39543e-09,2.55928e-06,2.55928e-06,2.55951e-06,0.0,0.0,0.0,0.0,0.0,0.0,0.0,0.0,531,0.310121,0.469353,0.000561193,0.0,2.54277e-06,0.00101211,0.0,0.0,0.0,0.0,0,0,0,165,24,0,0,0
1452000,0.99999,-0.000234072,-0.00027937,0.00438602,-0.000304792,0.00246467,0.00514773,-1.07582e-05,0.00019497,0.0513422,3.35079e-10,-2.05931e-10,4.35439e-08,3.46032e-08,3.74818e-08,-1.59958e-06,0.896075,0.0401213,1.0,0.0,0.0,0.0,0.0,0.0,1.23873e-09,3.99964e-05,0.000223294,1.14619e-08,3.60414e-05,3.60414e-05,0.000597535,0.233792,0.233792,0.503165,0.0329117,0.0329117,0.186557,6.40012e-09,6.40012e-09,6.3878e-09,2.55638e-06,2.55638e-06,2.55727e-06,0.0,0.0,0.0,0.0,0.0,0.0,0.0,0.0,531,0.256561,0.431923,0.00551208,0.0,3.76308e-06,0.00873658,0.0,0.0,0.0,0.0,0,0,0,165,24,0,0,0
1644000,0.999992,-0.000339038,-0.000365827,0.00406673,0.000739941,-0.000140654,-0.0138777,-2.14483e-05,0.000232961,0.0327233,2.05235e-09,6.60207e-11,1.07387e-07,1.44836e-08,1.88004e-07,3.56206e-06,0.896075,0.0401213,1.0,0.0,0.0,0.0,0.0,0.0,1.19421e-09,4.08113e-05,0.000228882,8.7598e-09,4.33049e-05,4.33049e-05,0.000485829,0.113912,0.113912,0.443124,0.025025,0.025025,0.178657,6.39909e-09,6.39909e-09,6.37494e-09,2.54734e-06,2.54734e-06,2.55107e-06,0.0,0.0,0.0,0.0,0.0,0.0,0.0,0.0,531,0.223719,0.422679,0.0033776,0.0,4.91153e-06,0.00382398,0.0,0.0,0.0,0.0,0,0,0,165,24,0,0,0
1836000,0.999992,-0.000437309,-0.000378944,0.00406316,0.0039714,-0.00195167,-0.0102461,0.00024511,-5.16188e-06,0.0332311,3.35903e-09,-1.32493e-09,1.42548e-07,1.08032e-07,2.87312e-07,2.48389e-06,0.896075,0.0401213,1.0,0.0,0.0,0.0,0.0,0.0,1.29197e-09,4.32725e-05,0.00022469,7.67186e-09,5.23165e-05,5.23165e-05,0.000411195,0.0708152,0.0708153,0.374095,0.02039,0.02039,0.177231,6.39493e-09,6.39493e-09,6.35573e-09,2.52569e-06,2.52569e-06,2.53896e-06,0.0,0.0,0.0,0.0,0.0,0.0,0.0,0.0,531,0.20194,0.420988,0.00832251,0.0,5.11524e-06,0.00383365,0.0,0.0,0.0,0.0,0,0,0,165,24,0,0,0
2028000,0.999992,-0.000458556,-0.000256296,0.004016,0.00404937,-0.00101555,-0.0157655,0.000691726,-0.000164499,0.0283634,1.13872e-09,-1.08046e-08,2.66085e-07,6.66011e-07,1.56692e-07,3.56073e-06,0.896075,0.0401213,1.0,0.0,0.0,0.0,0.0,0.0,1.35179e-09,4.16649e-05,0.000225978,7.23086e-09,6.29801e-05,6.29801e-05,0.000364172,0.0569118,0.0569118,0.316298,0.0188162,0.0188162,0.183094,6.38446e-09,6.38446e-09,6.33237e-09,2.48812e-06,2.48812e-06,2.52222e-06,0.0,0.0,0.0,0.0,0.0,0.0,0.0,0.0,531,0.193991,0.427895,0.00974998,0.0,1.29981e-05,0.000799547,0.0,0.0,0.0,0.0,0,0,0,165,24,0,0,0
2220000,0.999993,-0.000474284,-0.000267595,0.00373905,0.00597202,-0.000965292,-0.0179489,0.00108004,-0.000265932,0.0241884,-5.97702e-09,-3.87031e-08,3.53881e-07,2.07889e-06,-2.02848e-07,3.52321e-06,0.896075,0.0401213,1.0,0.0,0.0,0.0,0.0,0.0,1.22042e-09,4.00611e-05,0.000230292,5.93016e-09,7.49558e-05,7.49558e-05,0.000324118,0.0510651,0.0510651,0.258985,0.0167512,0.0167512,0.178009,6.35664e-09,6.35664e-09,6.2981e-09,2.41588e-06,2.41588e-06,2.49632e-06,0.0,0.0,0.0,0.0,0.0,0.0,0.0,0.0,531,0.183036,0.421911,0.00301834,0.0,2.13645e-05,0.00243804,0.0,0.0,0.0,0.0,0,0,0,165,24,0,0,0
2412000,0.999993,-0.000607074,-0.000203094,0.0037178,0.00553646,-0.00176975,-0.0245306,0.00124057,-0.000318398,0.0168816,-2.0146e-08,-9.48851e-08,3.87538e-07,4.53756e-06,-8.23969e-07,6.10428e-06,0.896075,0.0401213,1.0,0.0,0.0,0.0,0.0,0.0,1.32606e-09,4.24831e-05,0.000231331,5.39392e-09,8.77386e-05,8.77387e-05,0.000293949,0.0505032,0.0505032,0.213416,0.0155115,0.0155115,0.170459,6.29717e-09,6.29717e-09,6.25412e-09,2.30204e-06,2.30204e-06,2.46216e-06,0.0,0.0,0.0,0.0,0.0,0.0,0.0,0.0,531,0.176134,0.412867,0.00472008,0.0,2.56189e-05,0.0034399,0.0,0.0,0.0,0.0,0,0,0,165,24,0,0,0
2604000,0.999994,-0.000705936,-0.000395217,0.00349542,0.00514695,-0.00324654,-0.013772,0.00148654,-0.000575201,0.0260357,-4.45768e-08,-1.70896e-07,4.84653e-07,7.44745e-06,-1.75154e-06,-3.46122e-06,0.896075,0.0401213,1.0,0.0,0.0,0.0,0.0,0.0,1.29668e-09,4.26358e-05,0.000239237,4.70411e-09,0.000101083,0.000101083,0.00027412,0.0539004,0.0539004,0.184606,0.0158642,0.0158642,0.16902,6.20615e-09,6.20615e-09,6.20644e-09,2.16827e-06,2.16827e-06,2.42493e-06,0.0,0.0,0.0,0.0,0.0,0.0,0.0,0.0,531,0.178125,0.41112,0.00361453,0.0,2.98798e-05,0.00374331,0.0,0.0,0.0,0.0,0,0,0,165,24,0,0,0
2796000,0.999994,-0.000435695,-0.000463589,0.00355956,0.00680138,-0.00465788,-0.00890233,0.00170671,-0.000916328,0.0260909,-1.03951e-07,-2.92324e-07,5.45459e-07,1.15251e-05,-3.7364e-06,-6.14662e-06,0.896075,0.0401213,1.0,0.0,0.0,0.0,0.0,0.0,1.26524e-09,4.27802e-05,0.000238605,4.55405e-09,0.000113643,0.000113644,0.000255736,0.0550908,0.0550907,0.159254,0.0155529,0.0155529,0.159867,6.05004e-09,6.05004e-09,6.14232e-09,1.99187e-06,1.99187e-06,2.3744e-06,0.0,0.0,0.0,0.0,0.0,0.0,0.0,0.0,531,0.176368,0.399834,0.00261057,0.0,3.5248e-05,0.00235026,0.0,0.0,0.0,0.0,0,0,0,165,24,0,0,0
2988000,0.999994,-0.000392788,-0.000665701,0.0033737,0.00700434,-0.00532443,-0.0113161,0.00196156,-0.00117616,0.0212161,-2.01508e-07,-4.58116e-07,5.04303e-07,1.63629e-05,-6.57898e-06,-3.2511e-06,0.896075,0.0401213,1.0,0.0,0.0,0.0,0.0,0.0,1.20865e-09,4.23841e-05,0.000222262,3.88868e-09,0.000125241,0.000125241,0.000241409,0.0551066,0.0551066,0.141672,0.0154565,0.0154565,0.15163,5.84116e-09,5.84116e-09,6.06719e-09,1.81344e-06,1.81344e-06,2.31477e-06,0.0,0.0,0.0,0.0,0.0,0.0,0.0,0.0,531,0.175821,0.389396,0.00332091,0.0,4.0503e-05,0.0020295,0.0,0.0,0.0,0.0,0,0,0,165,24,0,0,0
3180000,0.999993,-0.000370305,-0.00076979,0.00354661,0.00577353,-0.00436846,-0.0111988,0.00192611,-0.0013926,0.0167909,-3.33539e-07,-6.50139e-07,5.73826e-07,2.11997e-05,-9.89772e-06,-5.30847e-07,0.896075,0.0401213,1.0,0.0,0.0,0.0,0.0,0.0,1.23477e-09,4.35682e-05,0.000227581,4.09755e-09,0.000135775,0.000135775,0.000230228,0.0537296,0.0537296,0.129874,0.0154358,0.0154358,0.144671,5.59268e-09,5.59268e-09,5.98121e-09,1.65593e-06,1.65593e-06,2.24576e-06,0.0,0.0,0.0,0.0,0.0,0.0,0.0,0.0,531,0.175703,0.380357,0.00257935,0.0,3.97694e-05,0.00163285,0.0,0.0,0.0,0.0,0,0,0,165,24,0,0,0
3372000,0.999994,-0.000506827,-0.00053843,0.00338553,0.00672722,-0.00391757,-0.00572459,0.00217148,-0.00141198,0.0266599,-4.6294e-07,-8.35146e-07,6.2148e-07,2.51611e-05,-1.26669e-05,-1.4742e-05,0.896075,0.0401213,1.0,0.0,0.0,0.0,0.0,0.0,1.17002e-09,4.27499e-05,0.000229236,3.67189e-09,0.000146345,0.000146345,0.000223725,0.0533767,0.0533768,0.124817,0.0163546,0.0163546,0.143932,5.34718e-09,5.34718e-09,5.89552e-09,1.543e-06,1.543e-06,2.17543e-06,0.0,0.0,0.0,0.0,0.0,0.0,0.0,0.0,531,0.180857,0.379383,0.00636401,0.0,4.27271e-05,3.29742e-05,0.0,0.0,0.0,0.0,0,0,0,165,24,0,0,0
3564000,0.999994,-0.000380924,-0.00070083,0.00340956,0.00622794,-0.00345603,-0.00492702,0.00216089,-0.0013286,0.024406,-6.06171e-07,-1.05924e-06,6.39861e-07,2.91422e-05,-1.52129e-05,-1.28295e-05,0.896075,0.0401213,1.0,0.0,0.0,0.0,0.0,0.0,1.23664e-09,4.43569e-05,0.000225683,3.60804e-09,0.000154785,0.000154785,0.00021683,0.0496606,0.0496606,0.119333,0.0160571,0.0160571,0.138778,5.05395e-09,5.05395e-09,5.78852e-09,1.45016e-06,1.45016e-06,2.0852e-06,0.0,0.0,0.0,0.0,0.0,0.0,0.0,0.0,531,0.179205,0.372529,0.00925298,0.0,4.36732e-05,0.00403362,0.0,0.0,0.0,0.0,0,0,0,165,24,0,0,0
3756000,0.999994,-0.000435572,-0.000283415,0.00333172,0.00280076,-0.0030629,-0.00115433,0.00169847,-0.001316,0.0289271,-7.48198e-07,-1.26568e-06,7.88629e-07,3.20479e-05,-1.71972e-05,-2.04722e-05,0.896075,0.0401213,1.0,0.0,0.0,0.0,0.0,0.0,1.13033e-09,4.21078e-05,0.000225074,3.37467e-09,0.000162293,0.000162293,0.000211511,0.0456572,0.0456572,0.115532,0.0156044,0.0156044,0.134526,4.75458e-09,4.75458e-09,5.67053e-09,1.3911e-06,1.3911e-06,1.98335e-06,0.0,0.0,0.0,0.0,0.0,0.0,0.0,0.0,531,0.17666,0.366778,0.00176598,0.0,3.50816e-05,0.002568,0.0,0.0,0.0,0.0,0,0,0,165,24,0,0,0
3948000,0.999995,-0.000374687,-0.000210215,0.00321535,0.00321215,-0.00295984,-0.0031676,0.00146878,-0.00129357,0.0258325,-8.70111e-07,-1.40954e-06,7.49929e-07,3.35793e-05,-1.84893e-05,-1.61379e-05,0.896075,0.0401213,1.0,0.0,0.0,0.0,0.0,0.0,1.1891e-09,4.36277e-05,0.000225909,3.06505e-09,0.00017047,0.00017047,0.00020939,0.0438633,0.0438632,0.115148,0.0160875,0.0160875,0.13564,4.49006e-09,4.49006e-09,5.5572e-09,1.36128e-06,1.36128e-06,1.88439e-06,0.0,0.0,0.0,0.0,0.0,0.0,0.0,0.0,531,0.179374,0.368294,0.00325014,0.0,2.92503e-05,0.00683577,0.0,0.0,0.0,0.0,0,0,0,165,24,0,0,0
4140000,0.999995,-0.000330369,-0.000160476,0.00317766,0.00353352,-0.00412802,0.00409107,0.00127483,-0.00120329,0.032828,-9.96895e-07,-1.54815e-06,7.3898e-07,3.45919e-05,-1.94085e-05,-2.74409e-05,0.896075,0.0401213,1.0,0.0,0.0,0.0,0.0,0.0,1.08391e-09,4.05583e-05,0.000210927,2.89804e-09,0.000176257,0.000176257,0.000206274,0.0403643,0.0403642,0.112725,0.0154969,0.0154969,0.132771,4.1937e-09,4.1937e-09,5.42067e-09,1.34524e-06,1.34524e-06,1.76453e-06,0.0,0.0,0.0,0.0,0.0,0.0,0.0,0.0,531,0.17605,0.364378,0.00602516,0.0,2.57443e-05,0.00228097,0.0,0.0,0.0,0.0,0,0,0,165,24,0,0,0
4332000,0.999995,-0.000301708,-3.04366e-05,0.00313507,0.00273294,-0.00466006,0.000782639,0.00120623,-0.00134116,0.0249668,-1.1288e-06,-1.67673e-06,5.83145e-07,3.51246e-05,-1.99454e-05,-1.17356e-05,0.896075,0.0401213,1.0,0.0,0.0,0.0,0.0,0.0,1.03869e-09,3.9323e-05,0.00020758,2.66294e-09,0.000180979,0.000180979,0.000203957,0.0374618,0.0374618,0.110378,0.0149391,0.0149391,0.130481,3.90113e-09,3.90113e-09,5.27568e-09,1.34019e-06,1.34019e-06,1.63838e-06,0.0,0.0,0.0,0.0,0.0,0.0,0.0,0.0,531,0.172853,0.361222,0.00363083,0.0,2.68953e-05,0.000645464,0.0,0.0,0.0,0.0,0,0,0,165,24,0,0,0
4524000,0.999995,-8.64391e-05,-4.25273e-06,0.00329073,0.00244113,-0.00286658,0.00530991,0.0011088,-0.00125947,0.0306179,-1.26809e-06,-1.79686e-06,4.82692e-07,3.52537e-05,-2.00909e-05,-2.13091e-05,0.896075,0.0401213,1.0,0.0,0.0,0.0,0.0,0.0,1.23832e-09,4.16921e-05,0.000216214,2.74609e-09,0.00018437,0.00018437,0.000202261,0.0351308,0.0351307,0.107837,0.0144357,0.0144357,0.128619,3.61063e-09,3.61062e-09,5.12341e-09,1.33966e-06,1.33966e-06,1.50864e-06,0.0,0.0,0.0,0.0,0.0,0.0,0.0,0.0,531,0.169916,0.358635,0.0114102,0.0,2.59489e-05,0.00345564,0.0,0.0,0.0,0.0,0,0,0,165,24,0,0,0
4716000,0.999995,-8.89482e-05,0.000144463,0.00316647,0.00144443,-0.00316149,0.00907344,0.000973428,-0.001269,0.0348446,-1.38227e-06,-1.89189e-06,2.50715e-07,3.51157e-05,-1.99154e-05,-2.7048e-05,0.896075,0.0401213,1.0,0.0,0.0,0.0,0.0,0.0,1.17363e-09,4.15621e-05,0.000211807,2.41952e-09,0.000188002,0.000188002,0.000202839,0.0346003,0.0346003,0.107111,0.0148073,0.0148073,0.131142,3.35252e-09,3.35252e-09,4.98272e-09,1.33898e-06,1.33898e-06,1.39222e-06,0.0,0.0,0.0,0.0,0.0,0.0,0.0,0.0,531,0.172089,0.362136,0.00605239,0.0,2.50696e-05,0.0125834,0.0,0.0,0.0,0.0,0,0,0,165,24,0,0,0
4908000,0.999995,-7.45912e-06,0.000255686,0.00301574,-0.00148305,-0.00159285,0.0113341,0.000542963,-0.00105795,0.0385225,-1.50259e-06,-1.97203e-06,-4.56693e-08,3.48205e-05,-1.94581e-05,-3.0019e-05,0.896075,0.0401213,1.0,0.0,0.0,0.0,0.0,0.0,1.1952e-09,4.22798e-05,0.000222262,2.04221e-09,0.000188038,0.000188038,0.00020192,0.0329133,0.0329133,0.103607,0.0143382,0.0143382,0.129448,3.06288e-09,3.06288e-09,4.81948e-09,1.33467e-06,1.33467e-06,1.26254e-06,0.0,0.0,0.0,0.0,0.0,0.0,0.0,0.0,531,0.169341,0.359789,0.00125861,0.0,2.15332e-05,0.00795976,0.0,0.0,0.0,0.0,0,0,0,165,24,0,0,0
5100000,0.999995,1.16429e-05,0.000269299,0.00315603,-0.00425133,0.000223302,0.00808019,-3.08181e-06,-0.000660083,0.0370736,-1.59136e-06,-2.002e-06,-3.56122e-07,3.4656e-05,-1.89377e-05,-2.40107e-05,0.896075,0.0401213,1.0,0.0,0.0,0.0,0.0,0.0,1.24312e-09,4.38396e-05,0.000224915,2.0626e-09,0.000186376,0.000186376,0.000201246,0.0315883,0.0315883,0.099728,0.0139567,0.0139567,0.127847,2.77949e-09,2.77949e-09,4.65265e-09,1.32451e-06,1.32451e-06,1.13767e-06,0.0,0.0,0.0,0.0,0.0,0.0,0.0,0.0,531,0.167073,0.357556,0.000735766,0.0,1.36342e-05,0.011391,0.0,0.0,0.0,0.0,0,0,0,165,24,0,0,0
5292000,0.999995,2.45122e-05,0.000262994,0.00314606,-0.00692111,0.000537183,0.00859968,-0.000912624,-0.000378752,0.0417331,-1.64257e-06,-1.95224e-06,-7.56342e-07,3.50629e-05,-1.85322e-05,-2.96163e-05,0.896075,0.0401213,1.0,0.0,0.0,0.0,0.0,0.0,1.22611e-09,4.3677e-05,0.000229234,1.86963e-09,0.000182745,0.000182745,0.000200713,0.0303931,0.0303932,0.095415,0.0136013,0.0136013,0.126112,2.50051e-09,2.50051e-09,4.48305e-09,1.307e-06,1.307e-06,1.01873e-06,0.0,0.0,0.0,0.0,0.0,0.0,0.0,0.0,531,0.164932,0.355123,0.00376952,0.0,1.877e-05,0.000483526,0.0,0.0,0.0,0.0,0,0,0,165,24,0,0,0
5484000,0.999994,1.0189e-05,0.000226732,0.00336082,-0.0107528,0.000526604,0.00840571,-0.00192634,-0.000116302,0.0414709,-1.6637e-06,-1.82803e-06,-1.33571e-06,3.62615e-05,-1.83342e-05,-2.63575e-05,0.896075,0.0401213,1.0,0.0,0.0,0.0,0.0,0.0,1.2382e-09,4.38038e-05,0.000226262,1.91506e-09,0.000179546,0.000179546,0.000202046,0.0303816,0.0303817,0.0927559,0.0140125,0.0140125,0.128199,2.25909e-09,2.2591e-09,4.33092e-09,1.28493e-06,1.28493e-06,9.19233e-07,0.0,0.0,0.0,0.0,0.0,0.0,0.0,0.0,531,0.167407,0.358048,0.000583179,0.0,3.61439e-05,0.000931104,0.0,0.0,0.0,0.0,0,0,0,165,24,0,0,0
5676000,0.999994,5.9941e-05,0.000219839,0.00349215,-0.0109297,0.000874517,0.0202744,-0.002794,1.50399e-05,0.0591892,-1.66636e-06,-1.5928e-06,-1.53245e-06,3.8853e-05,-1.82928e-05,-5.20077e-05,0.896075,0.0401213,1.0,0.0,0.0,0.0,0.0,0.0,1.22066e-09,4.3524e-05,0.000238637,1.98974e-09,0.000172393,0.000172393,0.000201567,0.029119,0.0291191,0.0877237,0.0136269,0.0136269,0.125888,1.99755e-09,1.99755e-09,4.15904e-09,1.25303e-06,1.25303e-06,8.15058e-07,0.0,0.0,0.0,0.0,0.0,0.0,0.0,0.0,531,0.165087,0.354807,0.00595918,0.0,5.56655e-05,0.0215529,0.0,0.0,0.0,0.0,0,0,0,165,24,0,0,0
5868000,0.999993,-2.53314e-05,-1.20595e-05,0.003744,-0.00983843,3.64449e-05,0.0191825,-0.00329136,7.40962e-05,0.0586032,-1.65936e-06,-1.29939e-06,-1.75721e-06,4.25102e-05,-1.83848e-05,-4.496e-05,0.896075,0.0401213,1.0,0.0,0.0,0.0,0.0,0.0,1.25346e-09,4.35858e-05,0.000237121,2.2221e-09,0.000164165,0.000164165,0.000201055,0.027903,0.0279031,0.0826437,0.0132759,0.0132759,0.123457,1.75442e-09,1.75442e-09,3.98788e-09,1.21543e-06,1.21543e-06,7.20529e-07,0.0,0.0,0.0,0.0,0.0,0.0,0.0,0.0,531,0.162947,0.351364,0.00280036,0.0,6.76472e-05,0.00198283,0.0,0.0,0.0,0.0,0,0,0,165,24,0,0,0
6060000,0.999993,3.41163e-05,-0.000259644,0.00375383,-0.0122009,0.00118952,0.0117439,-0.00381875,0.00025599,0.0487411,-1.64509e-06,-1.0166e-06,-1.87632e-06,4.63824e-05,-1.85913e-05,-2.47619e-05,0.896075,0.0401213,1.0,0.0,0.0,0.0,0.0,0.0,1.30327e-09,4.33393e-05,0.000227247,2.20453e-09,0.00015741,0.00015741,0.000202283,0.027738,0.0277382,0.0793181,0.0136648,0.0136648,0.124727,1.55502e-09,1.55502e-09,3.83721e-09,1.17834e-06,1.17834e-06,6.4461e-07,0.0,0.0,0.0,0.0,0.0,0.0,0.0,0.0,531,0.165317,0.353168,0.00318365,0.0,7.4512e-05,0.00457334,0.0,0.0,0.0,0.0,0,0,0,165,24,0,0,0
6252000,0.999994,8.15346e-05,-0.000482804,0.00348457,-0.00806195,0.00321139,0.00344974,-0.00382721,0.000490772,0.0364764,-1.61289e-06,-6.8312e-07,-1.87536e-06,5.13136e-05,-1.90774e-05,-3.94542e-06,0.896075,0.0401213,1.0,0.0,0.0,0.0,0.0,0.0,1.27869e-09,4.43065e-05,0.000224994,1.86802e-09,0.000147806,0.000147805,0.000201606,0.0264662,0.0264662,0.0742798,0.0133195,0.0133195,0.121973,1.35019e-09,1.35019e-09,3.67009e-09,1.13382e-06,1.13382e-06,5.67936e-07,0.0,0.0,0.0,0.0,0.0,0.0,0.0,0.0,531,0.163215,0.349247,0.000906184,0.0,7.73044e-05,0.0152552,0.0,0.0,0.0,0.0,0,0,0,165,24,0,0,0
6444000,0.999993,0.000157636,-0.00066655,0.00356028,-0.00654274,0.00223349,-0.000488177,-0.00345231,0.000806471,0.0310235,-1.55536e-06,-3.85217e-07,-2.19375e-06,5.60288e-05,-1.99936e-05,4.39018e-06,0.896075,0.0401213,1.0,0.0,0.0,0.0,0.0,0.0,1.25369e-09,4.31509e-05,0.000218078,1.84618e-09,0.000138065,0.000138065,0.000200823,0.0252067,0.0252067,0.06944,0.0129922,0.0129922,0.119191,1.16737e-09,1.16737e-09,3.50637e-09,1.08806e-06,1.08806e-06,5.00137e-07,0.0,0.0,0.0,0.0,0.0,0.0,0.0,0.0,531,0.161197,0.345241,0.00234881,0.0,6.98164e-05,0.00162347,0.0,0.0,0.0,0.0,0,0,0,165,24,0,0,0
6636000,0.999993,0.000201992,-0.000828444,0.00370784,-0.00528213,0.00226067,0.00113464,-0.00293589,0.000919387,0.0328015,-1.48534e-06,-1.36406e-07,-2.27111e-06,6.02109e-05,-2.11707e-05,1.9696e-06,0.896075,0.0401213,1.0,0.0,0.0,0.0,0.0,0.0,1.24793e-09,4.32928e-05,0.000222592,2.00885e-09,0.000128333,0.000128332,0.000199912,0.0239069,0.0239069,0.0647988,0.012654,0.012654,0.116336,1.00504e-09,1.00504e-09,3.34651e-09,1.04208e-06,1.04208e-06,4.40286e-07,0.0,0.0,0.0,0.0,0.0,0.0,0.0,0.0,531,0.159085,0.341081,0.00157321,0.0,6.02631e-05,0.0027274,0.0,0.0,0.0,0.0,0,0,0,165,24,0,0,0
6828000,0.999993,3.58198e-05,-0.000774954,0.00362785,-0.0055424,0.00646359,-0.00292503,-0.00276739,0.00136235,0.0312116,-1.41424e-06,4.47793e-08,-2.40587e-06,6.34208e-05,-2.24319e-05,3.80362e-06,0.896075,0.0401213,1.0,0.0,0.0,0.0,0.0,0.0,1.36135e-09,4.53725e-05,0.000217474,1.86323e-09,0.000120797,0.000120797,0.00020066,0.0235088,0.0235088,0.0617043,0.0129833,0.0129833,0.116857,8.78495e-10,8.78493e-10,3.20829e-09,1.00235e-06,1.00236e-06,3.93369e-07,0.0,0.0,0.0,0.0,0.0,0.0,0.0,0.0,531,0.161141,0.341844,0.00639503,0.0,5.49742e-05,0.00804869,0.0,0.0,0.0,0.0,0,0,0,165,24,0,0,0
7020000,0.999992,3.95511e-05,-0.000743329,0.00385071,-0.00160903,0.0079712,-0.00421614,-0.00225188,0.00200337,0.027202,-1.30091e-06,2.15782e-07,-2.49328e-06,6.65954e-05,-2.45388e-05,7.75406e-06,0.896075,0.0401213,1.0,0.0,0.0,0.0,0.0,0.0,1.21809e-09,4.4787e-05,0.000214204,2.10019e-09,0.000111756,0.000111755,0.000199486,0.0221988,0.0221987,0.0574969,0.0126361,0.0126361,0.113903,7.53904e-10,7.53902e-10,3.05743e-09,9.59434e-07,9.59436e-07,3.4682e-07,0.0,0.0,0.0,0.0,0.0,0.0,0.0,0.0,531,0.158972,0.337496,0.00283437,0.0,4.59402e-05,0.00151624,0.0,0.0,0.0,0.0,0,0,0,165,24,0,0,0
7212000,0.999991,-8.84746e-05,-0.000845856,0.00404999,0.00432539,0.00699474,-0.00377583,-0.00117346,0.00244362,0.0252169,-1.15888e-06,3.24442e-07,-2.51537e-06,6.87017e-05,-2.72951e-05,9.42586e-06,0.896075,0.0401213,1.0,0.0,0.0,0.0,0.0,0.0,1.20797e-09,4.42322e-05,0.000221439,2.36314e-09,0.000103362,0.000103361,0.000198195,0.0209484,0.0209484,0.0535914,0.0123077,0.0123077,0.111037,6.47165e-10,6.47163e-10,2.91196e-09,9.19257e-07,9.19259e-07,3.06268e-07,0.0,0.0,0.0,0.0,0.0,0.0,0.0,0.0,531,0.156893,0.333222,0.00185601,0.0,4.89821e-05,0.00600998,0.0,0.0,0.0,0.0,0,0,0,165,24,0,0,0
7412000,0.999992,-4.20877e-06,-0.000788912,0.00401387,0.00597728,0.00789416,-0.00249543,8.36932e-05,0.00269699,0.0257809,-1.01031e-06,3.51401e-07,-2.37832e-06,6.92441e-05,-3.02944e-05,8.03131e-06,0.896075,0.0401213,1.0,0.0,0.0,0.0,0.0,0.0,1.09837e-09,4.21324e-05,0.000230995,2.37789e-09,9.58034e-05,9.58029e-05,0.000197377,0.0199589,0.0199589,0.0501884,0.0121924,0.0121924,0.109232,5.55771e-10,5.55769e-10,2.77202e-09,8.81938e-07,8.81941e-07,2.70892e-07,0.0,0.0,0.0,0.0,0.0,0.0,0.0,0.0,531,0.156156,0.330503,0.00648883,0.0,5.39793e-05,0.00679098,0.0,0.0,0.0,0.0,0,0,0,165,24,0,0,0
7604000,0.999992,2.18318e-05,-0.000825788,0.00386388,0.00601046,0.00669087,-0.00140684,0.000937794,0.00283254,0.0264985,-8.59873e-07,3.20311e-07,-2.29804e-06,6.85922e-05,-3.34488e-05,6.90334e-06,0.896075,0.0401213,1.0,0.0,0.0,0.0,0.0,0.0,1.10318e-09,4.19003e-05,0.000216262,2.21624e-09,8.8653e-05,8.86525e-05,0.000195843,0.0187817,0.0187817,0.0467962,0.0118563,0.0118563,0.106426,4.77734e-10,4.77734e-10,2.63768e-09,8.47595e-07,8.47598e-07,2.40005e-07,0.0,0.0,0.0,0.0,0.0,0.0,0.0,0.0,531,0.153989,0.32623,0.000749167,0.0,5.80439e-05,0.000439589,0.0,0.0,0.0,0.0,0,0,0,165,24,0,0,0
7796000,0.999992,-0.000220536,-0.000648013,0.00405103,0.00597934,0.00652206,0.000721708,0.00154274,0.00302528,0.0297763,-7.31975e-07,2.64686e-07,-2.31127e-06,6.73851e-05,-3.622e-05,3.43925e-06,0.896075,0.0401213,1.0,0.0,0.0,0.0,0.0,0.0,1.22446e-09,4.27404e-05,0.000207638,2.46808e-09,8.32905e-05,8.32901e-05,0.000195899,0.0182855,0.0182855,0.0445043,0.0120892,0.0120892,0.106467,4.18326e-10,4.18326e-10,2.52307e-09,8.19672e-07,8.19675e-07,2.15877e-07,0.0,0.0,0.0,0.0,0.0,0.0,0.0,0.0,531,0.155494,0.326293,1.54416e-05,0.0,5.98598e-05,0.0071465,0.0,0.0,0.0,0.0,0,0,0,165,24,0,0,0
7988000,0.999992,0.000134098,-0.00046309,0.00406326,0.00411682,0.00667798,0.00205581,0.00188664,0.00314045,0.0341281,-5.94111e-07,1.83956e-07,-2.36534e-06,6.55796e-05,-3.93011e-05,-6.25285e-07,0.896075,0.0401213,1.0,0.0,0.0,0.0,0.0,0.0,1.19764e-09,4.32781e-05,0.000209616,2.4538e-09,7.732e-05,7.73196e-05,0.000194139,0.0171909,0.0171909,0.0415353,0.0117384,0.0117384,0.103677,3.61093e-10,3.61094e-10,2.39952e-09,7.91082e-07,7.91084e-07,1.9199e-07,0.0,0.0,0.0,0.0,0.0,0.0,0.0,0.0,531,0.153221,0.32199,0.0007133,0.0,6.32261e-05,0.002205,0.0,0.0,0.0,0.0,0,0,0,165,24,0,0,0
8180000,0.999992,9.49837e-05,-0.000666623,0.00397749,0.00356913,0.00693753,0.00413319,0.00183422,0.0032413,0.0380878,-4.60367e-07,1.04792e-07,-2.32044e-06,6.37588e-05,-4.23803e-05,-3.64156e-06,0.896075,0.0401213,1.0,0.0,0.0,0.0,0.0,0.0,1.28323e-09,4.31589e-05,0.00021592,2.36149e-09,7.19884e-05,7.19881e-05,0.000192297,0.0161741,0.0161741,0.038807,0.0114044,0.0114044,0.100995,3.12777e-10,3.12779e-10,2.28171e-09,7.65443e-07,7.65444e-07,1.71153e-07,0.0,0.0,0.0,0.0,0.0,0.0,0.0,0.0,531,0.151026,0.317796,0.00743455,0.0,6.52442e-05,0.0033267,0.0,0.0,0.0,0.0,0,0,0,165,24,0,0,0
8372000,0.999991,0.000109617,-0.000585339,0.00417481,0.00335301,0.00574194,2.82634e-05,0.0018746,0.00311488,0.0348519,-3.36082e-07,3.06599e-08,-2.34594e-06,6.20127e-05,-4.53281e-05,-2.92723e-07,0.896075,0.0401213,1.0,0.0,0.0,0.0,0.0,0.0,1.15845e-09,4.11741e-05,0.000227731,2.60953e-09,6.72216e-05,6.72213e-05,0.000190379,0.0152339,0.0152339,0.0362943,0.0110805,0.0110805,0.0983991,2.71873e-10,2.71876e-10,2.16951e-09,7.42466e-07,7.42467e-07,1.52929e-07,0.0,0.0,0.0,0.0,0.0,0.0,0.0,0.0,531,0.148866,0.313686,0.0040327,0.0,6.37264e-05,0.00250764,0.0,0.0,0.0,0.0,0,0,0,165,24,0,0,0
8564000,0.999991,0.000230397,-0.000481805,0.00420606,0.000161758,0.00731002,-0.00101321,0.00157403,0.00328204,0.0348148,-2.36305e-07,-2.58524e-08,-2.36245e-06,6.06451e-05,-4.77534e-05,-4.51028e-07,0.896075,0.0401213,1.0,0.0,0.0,0.0,0.0,0.0,1.16099e-09,4.01735e-05,0.000229221,2.6597e-09,6.37102e-05,6.37099e-05,0.000189995,0.0148371,0.0148371,0.0345985,0.0112679,0.0112679,0.0982878,2.40903e-10,2.40906e-10,2.07446e-09,7.24158e-07,7.24159e-07,1.38664e-07,0.0,0.0,0.0,0.0,0.0,0.0,0.0,0.0,531,0.150119,0.313509,0.00100572,0.0,6.47394e-05,0.00242679,0.0,0.0,0.0,0.0,0,0,0,165,24,0,0,0
8756000,0.999991,0.000172495,-0.000269212,0.00417384,0.000399192,0.00825979,0.00114702,0.00112982,0.00354311,0.0389088,-1.25814e-07,-7.02892e-08,-2.43855e-06,5.954e-05,-5.05027e-05,-3.83853e-06,0.896075,0.0401213,1.0,0.0,0.0,0.0,0.0,0.0,1.14677e-09,3.85157e-05,0.000233195,2.55433e-09,5.98676e-05,5.98674e-05,0.000187934,0.0140029,0.0140029,0.0324334,0.0109567,0.0109567,0.095803,2.11078e-10,2.11081e-10,1.97261e-09,7.05669e-07,7.05669e-07,1.24496e-07,0.0,0.0,0.0,0.0,0.0,0.0,0.0,0.0,531,0.148032,0.309521,0.0049008,0.0,7.11098e-05,0.00354899,0.0,0.0,0.0,0.0,0,0,0,165,24,0,0,0
8948000,0.999991,8.09622e-05,-0.000376951,0.00415204,-0.00157595,0.0100023,-0.00137337,0.000585659,0.00393183,0.0357944,-1.22863e-08,-9.75004e-08,-2.4308e-06,5.88593e-05,-5.33966e-05,-1.31878e-06,0.896075,0.0401213,1.0,0.0,0.0,0.0,0.0,0.0,1.19968e-09,3.99487e-05,0.000222474,2.51464e-09,5.64544e-05,5.64543e-05,0.00018583,0.0132394,0.0132394,0.0304455,0.0106609,0.0106609,0.093424,1.85765e-10,1.85769e-10,1.87599e-09,6.89209e-07,6.89209e-07,1.12059e-07,0.0,0.0,0.0,0.0,0.0,0.0,0.0,0.0,531,0.14602,0.305653,0.000995128,0.0,7.87379e-05,0.00101344,0.0,0.0,0.0,0.0,0,0,0,165,24,0,0,0
9140000,0.999991,-0.000220928,-0.000354366,0.00420742,-0.00307404,0.00956897,0.00266652,4.48441e-05,0.00433344,0.0427106,1.05837e-07,-1.07107e-07,-2.22591e-06,5.86107e-05,-5.64627e-05,-6.45816e-06,0.896075,0.0401213,1.0,0.0,0.0,0.0,0.0,0.0,1.13776e-09,3.91735e-05,0.000232653,2.67437e-09,5.34246e-05,5.34246e-05,0.000183692,0.012536,0.0125359,0.0286196,0.0103809,0.0103809,0.0911476,1.6424e-10,1.64244e-10,1.78442e-09,6.74568e-07,6.74567e-07,1.01122e-07,0.0,0.0,0.0,0.0,0.0,0.0,0.0,0.0,531,0.14409,0.301907,0.00240973,0.0,8.85234e-05,0.00854656,0.0,0.0,0.0,0.0,0,0,0,165,24,0,0,0
9332000,0.999991,-0.000118615,-0.000540565,0.00427353,-0.00289913,0.010081,0.00404339,-0.000449511,0.00462944,0.0421541,2.09579e-07,-1.03216e-07,-2.13694e-06,5.87253e-05,-5.92152e-05,-5.56099e-06,0.896075,0.0401213,1.0,0.0,0.0,0.0,0.0,0.0,1.07907e-09,3.9669e-05,0.000242668,2.82786e-09,5.11987e-05,5.11986e-05,0.000183008,0.0122484,0.0122484,0.0273872,0.0105469,0.0105469,0.0910072,1.478e-10,1.47804e-10,1.70712e-09,6.6292e-07,6.62919e-07,9.24987e-08,0.0,0.0,0.0,0.0,0.0,0.0,0.0,0.0,531,0.145237,0.301674,0.0013468,0.0,9.13436e-05,0.00358161,0.0,0.0,0.0,0.0,0,0,0,165,24,0,0,0
9524000,0.999991,-0.00045789,-0.000436886,0.00418873,-0.00109817,0.0113923,0.00611752,-0.000584573,0.00494407,0.0437697,3.23301e-07,-9.11283e-08,-2.05768e-06,5.90614e-05,-6.22868e-05,-6.09117e-06,0.896075,0.0401213,1.0,0.0,0.0,0.0,0.0,0.0,1.1955e-09,4.10224e-05,0.000243403,2.71911e-09,4.87484e-05,4.87485e-05,0.000180791,0.0116259,0.0116259,0.0258064,0.0102714,0.0102714,0.0888251,1.31791e-10,1.31795e-10,1.62449e-09,6.51149e-07,6.51148e-07,8.38614e-08,0.0,0.0,0.0,0.0,0.0,0.0,0.0,0.0,531,0.143328,0.298035,0.00124802,0.0,9.90718e-05,0.00525724,0.0,0.0,0.0,0.0,0,0,0,165,24,0,0,0
9716000,0.999991,-0.000601651,-0.000661148,0.00404396,-0.0012324,0.0099608,0.00376663,-0.000496496,0.00520615,0.0421141,4.37493e-07,-8.01446e-08,-1.84832e-06,5.9382e-05,-6.54273e-05,-4.36195e-06,0.896075,0.0401213,1.0,0.0,0.0,0.0,0.0,0.0,1.26729e-09,4.26095e-05,0.000235904,2.61835e-09,4.65726e-05,4.65728e-05,0.000178563,0.0110631,0.0110631,0.0243525,0.0100116,0.0100116,0.08674,1.18079e-10,1.18083e-10,1.54631e-09,6.40683e-07,6.40682e-07,7.62223e-08,0.0,0.0,0.0,0.0,0.0,0.0,0.0,0.0,531,0.141504,0.294516,0.00600455,0.0,0.000104566,0.000887506,0.0,0.0,0.0,0.0,0,0,0,165,24,0,0,0
9908000,0.999992,-0.000609957,-0.000756413,0.00387048,0.00117835,0.00744379,0.000899179,-0.000278637,0.00492294,0.0391951,5.44875e-07,-7.24663e-08,-1.62007e-06,5.96173e-05,-6.84313e-05,-2.24458e-06,0.896075,0.0401213,1.0,0.0,0.0,0.0,0.0,0.0,1.34241e-09,4.44123e-05,0.000230974,2.48754e-09,4.46313e-05,4.46316e-05,0.000176327,0.0105446,0.0105446,0.0230112,0.00976237,0.00976236,0.0847351,1.06272e-10,1.06277e-10,1.47234e-09,6.31348e-07,6.31346e-07,6.94452e-08,0.0,0.0,0.0,0.0,0.0,0.0,0.0,0.0,531,0.139731,0.291093,0.00219782,0.0,0.000100439,0.00105372,0.0,0.0,0.0,0.0,0,0,0,165,24,0,0,0
10100000,0.999992,-0.000682759,-0.000644315,0.00375081,0.00268994,0.00860527,0.00143511,-6.98935e-05,0.00495375,0.0385494,6.30257e-07,-6.99037e-08,-1.4511e-06,5.97041e-05,-7.08565e-05,-1.67249e-06,0.896075,0.0401213,1.0,0.0,0.0,0.0,0.0,0.0,1.23958e-09,4.29135e-05,0.000222478,2.40635e-09,4.32082e-05,4.32085e-05,0.00017545,0.0103474,0.0103474,0.022106,0.0099062,0.00990619,0.0845721,9.71542e-11,9.71589e-11,1.40998e-09,6.23897e-07,6.23894e-07,6.40577e-08,0.0,0.0,0.0,0.0,0.0,0.0,0.0,0.0,531,0.140757,0.290813,0.0027986,0.0,9.83076e-05,0.00391061,0.0,0.0,0.0,0.0,0,0,0,165,24,0,0,0
10292000,0.999999,-0.000920747,-0.000712151,0.0010624,0.0027986,0.00547711,0.000969782,0.000466256,0.00457806,0.0364881,7.17575e-07,-7.4468e-08,-1.3623e-06,5.95863e-05,-7.33723e-05,-3.21127e-07,0.891731,0.0399268,1.0,0.0,0.0,0.0,0.0,0.0,1.23494e-09,4.27622e-05,0.000229371,6.62394e-09,4.24081e-05,4.2409e-05,0.00181285,0.00900045,0.00900044,0.020929,0.00962412,0.00962411,0.0826113,8.81311e-11,8.81359e-11,1.37253e-09,6.1633e-07,6.16328e-07,5.86045e-08,0.0,0.0,0.0,0.0,0.0,0.0,0.0,0.0,531,0.138738,0.287422,0.012536,0.0,9.24227e-05,0.000945353,0.0,0.0,0.0,0.0,0,0,0,165,24,0,0,0
10492000,0.999998,-0.000733604,-0.000827561,0.00140089,0.00526838,0.00356565,0.00208558,0.000879842,0.0040577,0.0364008,7.88955e-07,-8.585e-08,-1.36401e-06,5.92867e-05,-7.53094e-05,-2.26288e-07,0.891731,0.0399268,1.0,0.0,0.0,0.0,0.0,0.0,1.23313e-09,4.25955e-05,0.000219539,4.59894e-09,4.25056e-05,4.25056e-05,0.00105109,0.00820441,0.00820439,0.0199101,0.00926772,0.00926771,0.0812814,8.06632e-11,8.06682e-11,1.37257e-09,6.10751e-07,6.10748e-07,5.37472e-08,0.0,0.0,0.0,0.0,0.0,0.0,0.0,0.0,531,0.136145,0.285099,0.00201531,0.0,8.20749e-05,0.000806554,0.0,0.0,0.0,0.0,0,0,0,165,24,0,0,0
10684000,0.999998,-0.000999875,-0.000657525,0.00177434,0.00685399,-0.000486602,0.00648637,0.0016502,0.00316865,0.0415091,8.41904e-07,-1.04958e-07,-1.3743e-06,5.89078e-05,-7.63808e-05,-2.55917e-06,0.891731,0.0399268,1.0,0.0,0.0,0.0,0.0,0.0,1.30403e-09,4.30411e-05,0.000223662,3.29022e-09,4.25021e-05,4.25027e-05,0.00074041,0.00977215,0.0097721,0.0189057,0.00878666,0.00878665,0.0794714,7.49324e-11,7.49374e-11,1.37248e-09,6.08308e-07,6.08305e-07,5e-08,0.0,0.0,0.0,0.0,0.0,0.0,0.0,0.0,531,0.132564,0.281907,0.0047372,0.0,6.45237e-05,0.0147379,0.0,0.0,0.0,0.0,0,0,0,165,24,0,0,0
10876000,0.999997,-0.000970402,-0.000549986,0.00207154,0.00735662,-0.00476248,0.00948337,0.00243715,0.0019874,0.0468048,8.70636e-07,-1.27746e-07,-1.38352e-06,5.87375e-05,-7.66064e-05,-4.54918e-06,0.891731,0.0399268,1.0,0.0,0.0,0.0,0.0,0.0,1.23689e-09,4.18149e-05,0.000217567,2.99524e-09,4.22416e-05,4.22421e-05,0.00058677,0.0133213,0.0133211,0.0182346,0.0088268,0.00882679,0.0792927,7.12329e-11,7.1238e-11,1.37225e-09,6.08005e-07,6.08002e-07,5.00001e-08,0.0,0.0,0.0,0.0,0.0,0.0,0.0,0.0,531,0.132867,0.28159,0.00563161,0.0,4.72392e-05,0.00150483,0.0,0.0,0.0,0.0,0,0,0,165,24,0,0,0
11068000,0.999997,-0.000969098,-0.000483102,0.00196463,0.00643374,-0.00840469,0.00871823,0.00299967,0.000368378,0.0450845,8.83157e-07,-1.55409e-07,-1.39166e-06,5.91282e-05,-7.64857e-05,-2.82562e-06,0.891731,0.0399268,1.0,0.0,0.0,0.0,0.0,0.0,1.37663e-09,4.44589e-05,0.00022186,2.19981e-09,4.13332e-05,4.13336e-05,0.000476078,0.0178436,0.0178433,0.0173667,0.00892149,0.00892147,0.0775825,6.84537e-11,6.84589e-11,1.37175e-09,6.07339e-07,6.07336e-07,5e-08,0.0,0.0,0.0,0.0,0.0,0.0,0.0,0.0,531,0.133578,0.278536,0.000791711,0.0,6.00279e-05,0.00197955,0.0,0.0,0.0,0.0,0,0,0,165,24,0,0,0
11260000,0.999997,-0.0010085,-0.000398344,0.00204678,0.00577678,-0.0111203,0.00583217,0.00316227,-0.00132685,0.0400428,8.79589e-07,-1.7896e-07,-1.38796e-06,6.03663e-05,-7.67477e-05,3.18936e-07,0.891731,0.0399268,1.0,0.0,0.0,0.0,0.0,0.0,1.2863e-09,4.28901e-05,0.000226061,2.11414e-09,3.95223e-05,3.95227e-05,0.000400957,0.0225752,0.0225749,0.0165745,0.00942026,0.00942023,0.0759569,6.69437e-11,6.69489e-11,1.37094e-09,6.02917e-07,6.02914e-07,5e-08,0.0,0.0,0.0,0.0,0.0,0.0,0.0,0.0,531,0.137261,0.275603,0.00415168,0.0,6.35175e-05,0.000114867,0.0,0.0,0.0,0.0,0,0,0,165,24,0,0,0
11460000,0.999998,-0.000989615,-0.000268159,0.00190777,0.00259428,-0.0138546,0.00768475,0.00279312,-0.00308918,0.0413745,8.68996e-07,-1.93605e-07,-1.37112e-06,6.22844e-05,-7.82154e-05,3.41977e-07,0.891731,0.0399268,1.0,0.0,0.0,0.0,0.0,0.0,1.42072e-09,4.58646e-05,0.000215075,1.89358e-09,3.67476e-05,3.67479e-05,0.000346826,0.0267529,0.0267526,0.0159032,0.0103951,0.0103951,0.0748645,6.63899e-11,6.63952e-11,1.36978e-09,5.91734e-07,5.91731e-07,5e-08,0.0,0.0,0.0,0.0,0.0,0.0,0.0,0.0,531,0.144188,0.273614,0.00261208,0.0,6.07843e-05,0.000925112,0.0,0.0,0.0,0.0,0,0,0,165,24,0,0,0
11652000,0.999998,-0.000650651,-0.000143256,0.00193211,0.00141486,-0.0140147,0.00254613,0.00221631,-0.00437014,0.0379273,8.61523e-07,-1.98717e-07,-1.41033e-06,6.43421e-05,-8.14265e-05,2.44617e-06,0.891731,0.0399268,1.0,0.0,0.0,0.0,0.0,0.0,1.41123e-09,4.55364e-05,0.000216384,1.56482e-09,3.33107e-05,3.33109e-05,0.000306004,0.0287679,0.0287677,0.0152475,0.0112404,0.0112403,0.0733638,6.63597e-11,6.6365e-11,1.3682e-09,5.73181e-07,5.73179e-07,5e-08,0.0,0.0,0.0,0.0,0.0,0.0,0.0,0.0,531,0.149936,0.270857,0.00472262,0.0,8.94357e-05,0.00174464,0.0,0.0,0.0,0.0,0,0,0,165,24,0,0,0
11844000,0.999998,-0.000418928,-3.04225e-05,0.0019709,0.00138269,-0.011045,0.000802808,0.00180861,-0.00496624,0.0339485,8.63161e-07,-1.98092e-07,-1.452e-06,6.59678e-05,-8.53437e-05,4.34578e-06,0.891731,0.0399268,1.0,0.0,0.0,0.0,0.0,0.0,1.31066e-09,4.37786e-05,0.00022972,1.37457e-09,3.01637e-05,3.01639e-05,0.000277633,0.0296966,0.0296964,0.014845,0.0124849,0.0124848,0.0732567,6.64465e-11,6.64518e-11,1.36642e-09,5.52364e-07,5.52362e-07,5.00001e-08,0.0,0.0,0.0,0.0,0.0,0.0,0.0,0.0,531,0.158018,0.27066,0.0154638,0.0,9.81341e-05,0.00262183,0.0,0.0,0.0,0.0,0,0,0,165,24,0,0,0
12036000,0.999998,-0.000576222,-0.000135995,0.00190111,-0.000122641,-0.0055724,-0.00262515,0.00125233,-0.0044818,0.0337501,8.7385e-07,-1.94734e-07,-1.49199e-06,6.7404e-05,-8.98816e-05,4.33954e-06,0.891731,0.0399268,1.0,0.0,0.0,0.0,0.0,0.0,1.2129e-09,4.19401e-05,0.000226656,1.16903e-09,2.69694e-05,2.69696e-05,0.000251721,0.0280559,0.0280558,0.0143059,0.0128408,0.0128407,0.0718487,6.63975e-11,6.64028e-11,1.36391e-09,5.27391e-07,5.2739e-07,5e-08,0.0,0.0,0.0,0.0,0.0,0.0,0.0,0.0,531,0.160255,0.268046,0.00351823,0.0,9.10574e-05,0.00224107,0.0,0.0,0.0,0.0,0,0,0,165,24,0,0,0
12236000,0.999998,-0.000630259,-5.44502e-05,0.00190088,-0.00172922,-0.0029466,-0.00236501,0.000712692,-0.00348215,0.0303609,8.8833e-07,-1.91334e-07,-1.53122e-06,6.8281e-05,-9.35553e-05,5.49722e-06,0.891731,0.0399268,1.0,0.0,0.0,0.0,0.0,0.0,1.25055e-09,4.21649e-05,0.000221047,1.06879e-09,2.4439e-05,2.44392e-05,0.00023081,0.0256722,0.0256722,0.013872,0.0131023,0.0131023,0.0709318,6.61281e-11,6.61334e-11,1.36084e-09,5.03943e-07,5.03941e-07,5.00001e-08,0.0,0.0,0.0,0.0,0.0,0.0,0.0,0.0,531,0.161879,0.26633,0.00195823,0.0,7.05179e-05,0.0183369,0.0,0.0,0.0,0.0,0,0,0,165,24,0,0,0
12428000,0.999998,-0.000597073,-0.000230941,0.00187791,-0.00267827,-0.00242759,-0.00124273,7.88058e-05,-0.00259731,0.0301403,9.01826e-07,-1.89662e-07,-1.59068e-06,6.8612e-05,-9.61364e-05,5.43801e-06,0.891731,0.0399268,1.0,0.0,0.0,0.0,0.0,0.0,1.16993e-09,4.11967e-05,0.000223683,9.63844e-10,2.25964e-05,2.25966e-05,0.000213522,0.0226583,0.0226583,0.0134481,0.0128313,0.0128313,0.0696548,6.56649e-11,6.56701e-11,1.35715e-09,4.83668e-07,4.83667e-07,5e-08,0.0,0.0,0.0,0.0,0.0,0.0,0.0,0.0,531,0.160195,0.263922,0.00591921,0.0,5.29178e-05,0.00694592,0.0,0.0,0.0,0.0,0,0,0,165,24,0,0,0
12620000,0.999998,-0.000477365,-0.000145135,0.00217782,-0.0038348,-0.000524303,-0.00346131,-0.000487964,-0.00177828,0.0269445,9.1263e-07,-1.9088e-07,-1.66933e-06,6.84321e-05,-9.78526e-05,6.52909e-06,0.891731,0.0399268,1.0,0.0,0.0,0.0,0.0,0.0,1.32587e-09,4.35286e-05,0.000222634,1.02138e-09,2.13554e-05,2.13556e-05,0.000199117,0.0197314,0.0197314,0.0130759,0.0123907,0.0123907,0.0684449,6.5095e-11,6.51002e-11,1.35281e-09,4.67044e-07,4.67042e-07,5e-08,0.0,0.0,0.0,0.0,0.0,0.0,0.0,0.0,531,0.157421,0.26162,0.00797285,0.0,3.64852e-05,0.0067772,0.0,0.0,0.0,0.0,0,0,0,165,24,0,0,0
12812000,0.999998,-0.000419568,8.50322e-05,0.00210746,-0.00437256,0.00286312,-0.0047779,-0.000969585,-0.000908944,0.0277482,9.18652e-07,-1.94288e-07,-1.69127e-06,6.79612e-05,-9.86932e-05,5.88821e-06,0.891731,0.0399268,1.0,0.0,0.0,0.0,0.0,0.0,1.2495e-09,4.3429e-05,0.000225695,9.61839e-10,2.06815e-05,2.06817e-05,0.000188564,0.0177424,0.0177424,0.0128993,0.0124669,0.0124669,0.0684599,6.45752e-11,6.45804e-11,1.34837e-09,4.55148e-07,4.55146e-07,5.00001e-08,0.0,0.0,0.0,0.0,0.0,0.0,0.0,0.0,531,0.157904,0.261648,0.0054714,0.0,1.94806e-05,0.00718029,0.0,0.0,0.0,0.0,0,0,0,165,24,0,0,0
13004000,0.999998,-0.000311272,-0.000114463,0.0021967,-0.00585848,0.0008114,-0.00217982,-0.00139215,-0.000366317,0.031515,9.21431e-07,-1.99965e-07,-1.75192e-06,6.72429e-05,-9.90454e-05,4.11069e-06,0.891731,0.0399268,1.0,0.0,0.0,0.0,0.0,0.0,1.31015e-09,4.53966e-05,0.000219572,9.53631e-10,2.02236e-05,2.02238e-05,0.000178121,0.0153646,0.0153646,0.0126138,0.0118661,0.0118661,0.0673512,6.40032e-11,6.40084e-11,1.34266e-09,4.4451e-07,4.44508e-07,5e-08,0.0,0.0,0.0,0.0,0.0,0.0,0.0,0.0,531,0.154053,0.259521,0.000155478,0.0,2.75637e-05,0.00167949,0.0,0.0,0.0,0.0,0,0,0,165,24,0,0,0
13196000,0.999997,-0.000477697,-0.00019377,0.0023682,-0.00574177,0.00463681,-0.0023459,-0.00191277,0.000145942,0.0348064,9.22001e-07,-2.07737e-07,-1.83563e-06,6.63321e-05,-9.91151e-05,2.66048e-06,0.891731,0.0399268,1.0,0.0,0.0,0.0,0.0,0.0,1.19996e-09,4.26099e-05,0.000226016,9.76959e-10,2.0022e-05,2.00223e-05,0.000169224,0.0133726,0.0133725,0.0123707,0.0112802,0.0112802,0.0663154,6.34962e-11,6.35014e-11,1.33619e-09,4.36262e-07,4.3626e-07,5e-08,0.0,0.0,0.0,0.0,0.0,0.0,0.0,0.0,531,0.150201,0.257518,0.00349021,0.0,3.81649e-05,0.00568679,0.0,0.0,0.0,0.0,0,0,0,165,24,0,0,0
13388000,0.999997,-0.000392354,-0.000544437,0.00233287,-0.00327634,0.0068947,-0.00335607,-0.00188002,0.000932245,0.032798,9.19453e-07,-2.16237e-07,-1.86579e-06,6.5392e-05,-9.8842e-05,3.25566e-06,0.891731,0.0399268,1.0,0.0,0.0,0.0,0.0,0.0,1.14847e-09,4.31148e-05,0.000226255,9.51015e-10,2.00013e-05,2.00015e-05,0.000161606,0.0117159,0.0117158,0.0121651,0.0107206,0.0107206,0.0653447,6.30725e-11,6.30778e-11,1.32891e-09,4.2988e-07,4.29878e-07,5e-08,0.0,0.0,0.0,0.0,0.0,0.0,0.0,0.0,531,0.146428,0.255626,0.00135601,0.0,3.84333e-05,0.00471867,0.0,0.0,0.0,0.0,0,0,0,165,24,0,0,0
13580000,0.999997,-0.000517098,-0.000526525,0.00247905,-0.0044537,0.00916734,-0.00269422,-0.00193478,0.00211084,0.0305121,9.1408e-07,-2.22852e-07,-1.90528e-06,6.46812e-05,-9.82743e-05,3.87243e-06,0.891731,0.0399268,1.0,0.0,0.0,0.0,0.0,0.0,1.10512e-09,4.18471e-05,0.000225698,9.97826e-10,2.01375e-05,2.01378e-05,0.000156139,0.0106765,0.0106764,0.0121216,0.0106376,0.0106376,0.0654985,6.27845e-11,6.27898e-11,1.32176e-09,4.25447e-07,4.25445e-07,5.00001e-08,0.0,0.0,0.0,0.0,0.0,0.0,0.0,0.0,531,0.14586,0.255927,0.000659479,0.0,4.00217e-05,0.000829384,0.0,0.0,0.0,0.0,0,0,0,165,24,0,0,0
13772000,0.999996,-0.000478821,-0.000407151,0.00261437,-0.00262867,0.00876217,7.21514e-05,-0.00186633,0.00292759,0.0322306,9.0503e-07,-2.29547e-07,-1.94153e-06,6.39648e-05,-9.73175e-05,3.14942e-06,0.891731,0.0399268,1.0,0.0,0.0,0.0,0.0,0.0,1.02425e-09,4.01731e-05,0.000221341,1.04249e-09,2.0333e-05,2.03333e-05,0.00015043,0.00951464,0.00951454,0.0119779,0.0101246,0.0101246,0.0646366,6.25369e-11,6.25423e-11,1.31291e-09,4.21568e-07,4.21566e-07,5e-08,0.0,0.0,0.0,0.0,0.0,0.0,0.0,0.0,531,0.1423,0.254237,0.00141762,0.0,5.83317e-05,0.00373852,0.0,0.0,0.0,0.0,0,0,0,165,24,0,0,0
13964000,0.999996,-0.000531105,-0.000346896,0.00263753,-0.00151988,0.00743285,0.000442386,-0.00159941,0.00329122,0.0284833,8.95439e-07,-2.34738e-07,-1.99356e-06,6.34041e-05,-9.63012e-05,4.56326e-06,0.891731,0.0399268,1.0,0.0,0.0,0.0,0.0,0.0,1.16254e-09,4.02898e-05,0.00022312,1.03682e-09,2.05991e-05,2.05994e-05,0.000145511,0.00857528,0.0085752,0.0118635,0.00966435,0.00966432,0.0638465,6.23786e-11,6.2384e-11,1.30321e-09,4.18619e-07,4.18617e-07,5e-08,0.0,0.0,0.0,0.0,0.0,0.0,0.0,0.0,531,0.139028,0.252679,0.000630891,0.0,6.59194e-05,0.00101419,0.0,0.0,0.0,0.0,0,0,0,165,24,0,0,0
14156000,0.999997,-0.000424008,-0.000327436,0.00256735,-0.00128,0.00635383,0.00286683,-0.00141332,0.00346023,0.0320009,8.86649e-07,-2.38489e-07,-2.07172e-06,6.29707e-05,-9.53148e-05,3.36777e-06,0.891731,0.0399268,1.0,0.0,0.0,0.0,0.0,0.0,1.13417e-09,4.0653e-05,0.000223994,9.87518e-10,2.09168e-05,2.09171e-05,0.000141269,0.00781385,0.00781378,0.0117728,0.00924504,0.00924502,0.0631142,6.23e-11,6.23054e-11,1.29265e-09,4.16396e-07,4.16393e-07,5e-08,0.0,0.0,0.0,0.0,0.0,0.0,0.0,0.0,531,0.135978,0.251225,0.00798455,0.0,7.05219e-05,0.00754777,0.0,0.0,0.0,0.0,0,0,0,165,24,0,0,0
14348000,0.999996,-0.000477203,-0.000236199,0.00276508,-0.00133418,0.00812865,0.00280284,-0.00128251,0.00371048,0.0290092,8.80306e-07,-2.40791e-07,-2.09823e-06,6.26848e-05,-9.45476e-05,4.78046e-06,0.891731,0.0399268,1.0,0.0,0.0,0.0,0.0,0.0,1.09456e-09,4.0916e-05,0.000219454,1.07399e-09,2.12872e-05,2.12876e-05,0.000138459,0.00738943,0.00738934,0.0118209,0.00919615,0.00919613,0.0634329,6.2299e-11,6.23044e-11,1.28253e-09,4.14909e-07,4.14907e-07,5.00001e-08,0.0,0.0,0.0,0.0,0.0,0.0,0.0,0.0,531,0.135618,0.251859,0.00434598,0.0,7.2962e-05,0.00799926,0.0,0.0,0.0,0.0,0,0,0,165,24,0,0,0
14540000,0.999997,-0.000503786,-0.00031894,0.00256449,-0.00273081,0.00620668,0.00254663,-0.00114707,0.00380052,0.0263796,8.74808e-07,-2.42443e-07,-2.12049e-06,6.24411e-05,-9.37632e-05,6.04766e-06,0.891731,0.0399268,1.0,0.0,0.0,0.0,0.0,0.0,1.19494e-09,4.25637e-05,0.000223077,9.98091e-10,2.16719e-05,2.16723e-05,0.000135271,0.00688668,0.00688662,0.0117674,0.0088344,0.00883437,0.0627944,6.23376e-11,6.2343e-11,1.27031e-09,4.13681e-07,4.13678e-07,5e-08,0.0,0.0,0.0,0.0,0.0,0.0,0.0,0.0,531,0.132924,0.250588,0.00194807,0.0,7.63668e-05,0.00369397,0.0,0.0,0.0,0.0,0,0,0,165,24,0,0,0
14732000,0.999996,-0.00076175,-0.000390198,0.00275258,8.62412e-05,-0.000274484,-0.00153286,0.0222407,0.0150531,0.027184,8.72363e-07,-2.43173e-07,-2.07412e-06,6.23006e-05,-9.3299e-05,5.90149e-06,0.891731,0.0399268,1.0,0.0,0.0,0.0,0.0,0.0,1.19036e-09,4.2539e-05,0.00023641,1.11168e-09,2.21187e-05,2.21191e-05,0.000132529,0.0500594,0.0500594,0.0563037,0.180157,0.180157,0.0600976,6.24186e-11,6.24241e-11,1.25722e-09,4.13077e-07,4.13074e-07,5e-08,0.0,0.0,0.0,0.0,0.0,0.0,0.0,0.0,535,0.600261,0.245148,0.00217653,0.0,0.0,0.00400703,0.0,0.0,0.0,0.0,0,0,0,831,24,0,0,0
14932000,0.999995,-0.000851685,-0.000421357,0.0028849,-0.00223412,-0.00165419,-0.00132369,0.0191449,0.0108374,0.0266096,8.72318e-07,-2.43066e-07,-2.02203e-06,6.23031e-05,-9.32981e-05,6.03617e-06,0.891731,0.0399268,1.0,0.0,0.0,0.0,0.0,0.0,1.18432e-09,4.2549e-05,0.000230366,1.21277e-09,2.26861e-05,2.26866e-05,0.000130371,0.0358536,0.0358536,0.0469675,0.0872882,0.0872882,0.0555177,6.25179e-11,6.25233e-11,1.24329e-09,4.13077e-07,4.13074e-07,5e-08,0.0,0.0,0.0,0.0,0.0,0.0,0.0,0.0,535,0.417823,0.235622,0.00320713,0.000527078,0.00754932,0.000245477,0.0,0.0,0.0,0.0,0,0,0,831,24,0,0,0
15124000,0.999995,-0.000791924,-0.00013142,0.00293613,-0.000720596,-0.0027604,-0.00267808,0.0222808,0.00948199,0.0301382,8.71848e-07,-2.42684e-07,-1.95586e-06,6.231e-05,-9.32758e-05,4.66677e-06,0.891731,0.0399268,1.0,0.0,0.0,0.0,0.0,0.0,1.23014e-09,4.27576e-05,0.00022825,1.27526e-09,2.32446e-05,2.32451e-05,0.000128363,0.0278956,0.0278956,0.0400368,0.057284,0.057284,0.0535583,6.2602e-11,6.26075e-11,1.22853e-09,4.13073e-07,4.1307e-07,5e-08,0.0,0.0,0.0,0.0,0.0,0.0,0.0,0.0,535,0.338479,0.231427,0.00541868,0.000580279,0.00446398,0.00302823,0.0,0.0,0.0,0.0,0,0,0,831,24,0,0,0
15316000,0.999995,-0.000636965,0.000144553,0.00300222,-0.000399034,-0.00141472,-4.11868e-05,0.0221659,0.0087571,0.0311063,8.71092e-07,-2.42053e-07,-1.98702e-06,6.23208e-05,-9.3259e-05,4.31601e-06,0.891731,0.0399268,1.0,0.0,0.0,0.0,0.0,0.0,1.30279e-09,4.39264e-05,0.000228153,1.3191e-09,2.38129e-05,2.38135e-05,0.000127369,0.0227958,0.0227958,0.0346851,0.0427346,0.0427346,0.0536055,6.26671e-11,6.26725e-11,1.21474e-09,4.13062e-07,4.1306e-07,5.00001e-08,0.0,0.0,0.0,0.0,0.0,0.0,0.0,0.0,535,0.292351,0.231529,0.00541763,0.000591988,0.000503839,0.00656315,0.0,0.0,0.0,0.0,0,0,0,831,24,0,0,0
15508000,0.999994,-0.000514371,0.000134741,0.0034189,-0.00244628,-0.00202749,0.000644781,0.0206878,0.0064072,0.0325378,8.70818e-07,-2.41587e-07,-1.93549e-06,6.23306e-05,-9.32487e-05,3.88682e-06,0.891731,0.0399268,1.0,0.0,0.0,0.0,0.0,0.0,1.49102e-09,4.72113e-05,0.000231345,1.60744e-09,2.43867e-05,2.43873e-05,0.000125899,0.0192513,0.0192513,0.0302693,0.0342738,0.0342738,0.053549,6.27036e-11,6.2709e-11,1.19848e-09,4.1304e-07,4.13038e-07,5e-08,0.0,0.0,0.0,0.0,0.0,0.0,0.0,0.0,535,0.261816,0.231406,0.00521396,0.000951288,0.00269151,0.00163392,0.0,0.0,0.0,0.0,0,0,0,831,24,0,0,0
15700000,0.999994,-0.000522502,0.000226928,0.00336694,-0.00242057,-0.00220107,0.000213894,0.0233332,0.00732468,0.0315256,8.67922e-07,-2.3758e-07,-1.88669e-06,6.24078e-05,-9.31935e-05,4.15806e-06,0.891731,0.0399268,1.0,0.0,0.0,0.0,0.0,0.0,1.31878e-09,4.57245e-05,0.00022245,1.61685e-09,2.49608e-05,2.49615e-05,0.000124654,0.0166664,0.0166664,0.0265949,0.0289257,0.0289257,0.0537401,6.27004e-11,6.27058e-11,1.18148e-09,4.13002e-07,4.13e-07,5e-08,0.0,0.0,0.0,0.0,0.0,0.0,0.0,0.0,535,0.240523,0.231819,0.00107065,0.0010785,0.00427566,0.00167625,0.0,0.0,0.0,0.0,0,0,0,831,24,0,0,0
15892000,0.999994,-0.000636182,0.000189969,0.00345447,-0.00608325,-0.000424036,0.000978469,0.0216472,0.00722464,0.0345149,8.66725e-07,-2.33775e-07,-1.84173e-06,6.24853e-05,-9.3162e-05,3.47905e-06,0.891731,0.0399268,1.0,0.0,0.0,0.0,0.0,0.0,1.27797e-09,4.60367e-05,0.000231324,1.71965e-09,2.55287e-05,2.55294e-05,0.000123607,0.0147451,0.0147451,0.0235025,0.0255759,0.0255759,0.0539809,6.26449e-11,6.26503e-11,1.16379e-09,4.12942e-07,4.12939e-07,5e-08,0.0,0.0,0.0,0.0,0.0,0.0,0.0,0.0,535,0.226168,0.232338,0.000521232,0.00224859,0.00438905,0.00163073,0.0,0.0,0.0,0.0,0,0,0,831,24,0,0,0
16084000,0.999994,-0.00070431,0.000235549,0.00348539,-0.00747419,1.0458e-05,0.000934936,0.0200576,0.00794724,0.0327959,8.65724e-07,-2.26076e-07,-1.78252e-06,6.26447e-05,-9.31423e-05,3.87849e-06,0.891731,0.0399268,1.0,0.0,0.0,0.0,0.0,0.0,1.28603e-09,4.47367e-05,0.000214051,1.79797e-09,2.60829e-05,2.60837e-05,0.000123402,0.0132929,0.0132929,0.0210119,0.0233528,0.0233528,0.0549075,6.25227e-11,6.2528e-11,1.14752e-09,4.12851e-07,4.12848e-07,5e-08,0.0,0.0,0.0,0.0,0.0,0.0,0.0,0.0,535,0.216115,0.234323,0.0040032,0.00282279,0.00366361,0.00598555,0.0,0.0,0.0,0.0,0,0,0,831,24,0,0,0
16276000,0.999993,-0.0008193,1.11282e-05,0.00359404,-0.0110419,-0.00273833,-0.000341292,0.0179358,0.00639582,0.0319332,8.67802e-07,-2.20445e-07,-1.69861e-06,6.27653e-05,-9.3181e-05,4.07565e-06,0.891731,0.0399268,1.0,0.0,0.0,0.0,0.0,0.0,1.17819e-09,4.14018e-05,0.00021513,1.93634e-09,2.66568e-05,2.66576e-05,0.000122439,0.0131229,0.0131228,0.0194151,0.0241028,0.0241028,0.0555378,6.24759e-11,6.24812e-11,1.12862e-09,4.12791e-07,4.12788e-07,5e-08,0.0,0.0,0.0,0.0,0.0,0.0,0.0,0.0,535,0.219558,0.235665,0.00118337,0.0039775,0.00589637,0.00983093,0.0,0.0,0.0,0.008,0,0,0,831,24,0,0,0
16468000,0.999993,-0.000896087,0.000125966,0.00354001,-0.0113057,-0.00150536,-0.000634036,0.0164235,0.00698991,0.0305805,8.61421e-07,-2.03215e-07,-1.62507e-06,6.31284e-05,-9.3043e-05,4.29277e-06,0.891731,0.0399268,1.0,0.0,0.0,0.0,0.0,0.0,1.31788e-09,4.31249e-05,0.000227007,1.9557e-09,2.7181e-05,2.71818e-05,0.000121829,0.012221,0.0122209,0.0174017,0.0228146,0.0228146,0.0554744,6.22281e-11,6.22333e-11,1.10926e-09,4.12639e-07,4.12636e-07,5e-08,0.0,0.0,0.0,0.0,0.0,0.0,0.0,0.0,535,0.21361,0.23553,0.00373711,0.00438105,0.00332974,0.00808543,0.0,0.0,0.0,0.008,0,0,0,831,24,0,0,0
16660000,0.999994,-0.00101791,1.85629e-05,0.00341083,-0.00942274,-0.000901746,-0.000427086,0.0171565,0.00817481,0.0296544,8.55063e-07,-1.79032e-07,-1.4466e-06,6.36427e-05,-9.29001e-05,4.44744e-06,0.891731,0.0399268,1.0,0.0,0.0,0.0,0.0,0.0,1.2683e-09,4.32267e-05,0.000215577,1.96102e-09,2.76692e-05,2.767e-05,0.000121329,0.0115675,0.0115673,0.0157041,0.0218929,0.0218929,0.0552811,6.18786e-11,6.18837e-11,1.08942e-09,4.12435e-07,4.12432e-07,5e-08,0.0,0.0,0.0,0.0,0.0,0.0,0.0,0.0,535,0.209251,0.235119,0.00319892,0.00379954,0.00285779,0.00367914,0.0,0.0,0.0,0.008,0,0,0,831,24,0,0,0
16852000,0.999994,-0.00112468,0.00010895,0.00317914,-0.00990913,0.000204554,0.000398517,0.0177347,0.00987789,0.0326524,8.47873e-07,-1.50861e-07,-1.35129e-06,6.42497e-05,-9.27352e-05,3.98109e-06,0.891731,0.0399268,1.0,0.0,0.0,0.0,0.0,0.0,1.26337e-09,4.32629e-05,0.000212516,1.86335e-09,2.81091e-05,2.811e-05,0.000121572,0.0111058,0.0111056,0.0143852,0.0212096,0.0212096,0.0557264,6.14084e-11,6.14133e-11,1.07142e-09,4.12167e-07,4.12165e-07,5.00001e-08,0.0,0.0,0.0,0.0,0.0,0.0,0.0,0.0,535,0.205959,0.236064,0.0099542,0.00413907,0.00638135,0.00392777,0.0,0.0,0.0,0.008,0,0,0,831,24,0,0,0
17044000,0.999995,-0.00122949,0.000238162,0.00302466,-0.0124127,-0.00145415,-0.000417054,0.0156527,0.00938681,0.0302706,8.49269e-07,-1.34401e-07,-1.26799e-06,6.46217e-05,-9.276e-05,4.30228e-06,0.891731,0.0399268,1.0,0.0,0.0,0.0,0.0,0.0,1.21741e-09,4.32257e-05,0.00022323,1.81411e-09,2.84906e-05,2.84916e-05,0.000121231,0.0107977,0.0107976,0.0131741,0.0206932,0.0206932,0.0552806,6.08049e-11,6.08097e-11,1.05078e-09,4.11827e-07,4.11825e-07,5e-08,0.0,0.0,0.0,0.0,0.0,0.0,0.0,0.0,535,0.203436,0.235118,0.00339896,0.00403291,0.00393568,0.00393085,0.0,0.0,0.0,0.008,0,0,0,831,24,0,0,0
17236000,0.999995,-0.00118005,0.000186328,0.0029721,-0.0163213,-0.00307411,-0.0024214,0.0143699,0.00942387,0.0297903,8.4391e-07,-9.87406e-08,-1.22002e-06,6.5421e-05,-9.26299e-05,4.32942e-06,0.891731,0.0399268,1.0,0.0,0.0,0.0,0.0,0.0,1.22579e-09,4.40482e-05,0.000226677,1.81053e-09,2.88046e-05,2.88055e-05,0.000120947,0.0106138,0.0106136,0.01216,0.020297,0.020297,0.054736,6.00593e-11,6.00639e-11,1.02979e-09,4.11406e-07,4.11404e-07,5e-08,0.0,0.0,0.0,0.0,0.0,0.0,0.0,0.0,535,0.20148,0.233957,0.00206381,0.00590342,0.0031611,0.00240343,0.0,0.0,0.0,0.008,0,0,0,831,24,0,0,0
17428000,0.999995,-0.0010221,5.40226e-06,0.00286956,-0.0183279,-0.00601368,-0.000252183,0.0103794,0.00917989,0.0339475,8.27046e-07,-6.88082e-08,-1.12621e-06,6.61145e-05,-9.22346e-05,3.71061e-06,0.891731,0.0399268,1.0,0.0,0.0,0.0,0.0,0.0,1.38169e-09,4.64122e-05,0.000224987,1.77996e-09,2.9043e-05,2.90439e-05,0.00012071,0.0105221,0.0105219,0.0113178,0.0199898,0.0199897,0.054119,5.91665e-11,5.91709e-11,1.00852e-09,4.10899e-07,4.10897e-07,5e-08,0.0,0.0,0.0,0.0,0.0,0.0,0.0,0.0,535,0.199949,0.232635,0.00165347,0.00689465,0.00902521,0.00279765,0.0,0.0,0.0,0.008,0,0,0,831,24,0,0,0
17620000,0.999995,-0.00115419,-0.000269523,0.00302357,-0.0168542,-0.00645128,-0.000957504,0.00791118,0.00941853,0.0320864,8.02539e-07,-2.07272e-08,-1.01491e-06,6.72245e-05,-9.16641e-05,3.94617e-06,0.891731,0.0399268,1.0,0.0,0.0,0.0,0.0,0.0,1.20942e-09,4.43613e-05,0.00022259,1.96303e-09,2.92008e-05,2.92016e-05,0.000121158,0.0105003,0.0105001,0.0107111,0.0197496,0.0197495,0.0541817,5.81276e-11,5.81318e-11,9.89443e-10,4.10303e-07,4.10301e-07,5.00001e-08,0.0,0.0,0.0,0.0,0.0,0.0,0.0,0.0,535,0.198744,0.23277,0.000418155,0.00716532,0.0059721,0.00429224,0.0,0.0,0.0,0.008,0,0,0,831,24,0,0,0
17812000,0.999995,-0.00103278,-0.000230457,0.00302642,-0.0138783,-0.00752459,-0.000446819,0.00765705,0.00902599,0.0328981,7.80795e-07,3.63808e-08,-9.0258e-07,6.85417e-05,-9.1142e-05,3.8223e-06,0.891731,0.0399268,1.0,0.0,0.0,0.0,0.0,0.0,1.17805e-09,4.29656e-05,0.000221313,2.01728e-09,2.92752e-05,2.9276e-05,0.00012098,0.0105248,0.0105245,0.0101425,0.0195604,0.0195604,0.0534628,5.69494e-11,5.69532e-11,9.67799e-10,4.09619e-07,4.09617e-07,5e-08,0.0,0.0,0.0,0.0,0.0,0.0,0.0,0.0,535,0.19779,0.23122,0.00284463,0.00586315,0.00149722,0.00240693,0.0,0.0,0.0,0.008,0,0,0,831,24,0,0,0
18004000,0.999995,-0.00106877,-0.000160081,0.00290034,-0.0110839,-0.0112165,-0.00277696,0.00689877,0.00632956,0.0315565,7.66518e-07,7.82378e-08,-7.80694e-07,6.95256e-05,-9.07746e-05,3.91296e-06,0.891731,0.0399268,1.0,0.0,0.0,0.0,0.0,0.0,1.20404e-09,4.25397e-05,0.000233275,1.98467e-09,2.92662e-05,2.92669e-05,0.000120816,0.0105776,0.0105773,0.00968639,0.0194103,0.0194102,0.0527225,5.5643e-11,5.56466e-11,9.46027e-10,4.08848e-07,4.08845e-07,5e-08,0.0,0.0,0.0,0.0,0.0,0.0,0.0,0.0,535,0.197029,0.229614,0.00342292,0.0045162,0.0027869,0.00309221,0.0,0.0,0.0,0.008,0,0,0,831,24,0,0,0
18196000,0.999996,-0.00108952,-0.000101359,0.00280717,-0.0133071,-0.0108796,-0.00217641,0.00469366,0.00432287,0.0304318,7.4283e-07,1.07947e-07,-7.45701e-07,7.02428e-05,-9.01937e-05,3.92357e-06,0.891731,0.0399268,1.0,0.0,0.0,0.0,0.0,0.0,1.24587e-09,4.29862e-05,0.000224639,1.94169e-09,2.91774e-05,2.91781e-05,0.000120661,0.0106364,0.010636,0.00932845,0.0192893,0.0192892,0.0519798,5.42262e-11,5.42295e-11,9.24192e-10,4.07997e-07,4.07995e-07,5e-08,0.0,0.0,0.0,0.0,0.0,0.0,0.0,0.0,535,0.196414,0.227991,0.000518474,0.00515325,0.00795143,0.00506321,0.0,0.0,0.0,0.008,0,0,0,831,24,0,0,0
18388000,0.999996,-0.00121192,-0.000133226,0.00270845,-0.0139948,-0.0112511,-0.00281375,0.00356626,0.00325509,0.0292133,7.07477e-07,1.57666e-07,-6.6819e-07,7.14366e-05,-8.933e-05,3.97195e-06,0.891731,0.0399268,1.0,0.0,0.0,0.0,0.0,0.0,1.36968e-09,4.36642e-05,0.000224293,1.92332e-09,2.90157e-05,2.90164e-05,0.000121156,0.0106911,0.0106908,0.00912083,0.0191892,0.0191891,0.0519123,5.27205e-11,5.27235e-11,9.04775e-10,4.07079e-07,4.07077e-07,5e-08,0.0,0.0,0.0,0.0,0.0,0.0,0.0,0.0,535,0.195904,0.227843,0.0047466,0.00576364,0.00335041,0.00409308,0.0,0.0,0.0,0.008,0,0,0,831,24,0,0,0
18580000,0.999995,-0.00141322,-1.40993e-05,0.00273922,-0.0135054,-0.0115073,-0.00270658,0.00420145,0.00118984,0.0287938,6.80262e-07,2.3006e-07,-5.05643e-07,7.31786e-05,-8.86376e-05,3.88071e-06,0.891731,0.0399268,1.0,0.0,0.0,0.0,0.0,0.0,1.27134e-09,4.27129e-05,0.00021501,2.03594e-09,2.87894e-05,2.87901e-05,0.000120995,0.010729,0.0107287,0.00891608,0.0191029,0.0191028,0.0511792,5.11489e-11,5.11517e-11,8.82947e-10,4.06104e-07,4.06102e-07,5e-08,0.0,0.0,0.0,0.0,0.0,0.0,0.0,0.0,535,0.195463,0.226228,0.00793167,0.00585135,0.00776467,0.000324434,0.0,0.0,0.0,0.008,0,0,0,831,24,0,0,0
18772000,0.999995,-0.00162502,-0.000282845,0.00286132,-0.0165003,-0.015396,-0.00399245,0.00178536,0.000389993,0.0282514,6.47088e-07,2.51388e-07,-3.20416e-07,7.37069e-05,-8.78284e-05,3.80201e-06,0.891731,0.0399268,1.0,0.0,0.0,0.0,0.0,0.0,1.20226e-09,4.25363e-05,0.000207428,2.23277e-09,2.89847e-05,2.89853e-05,0.000120823,0.0117003,0.0117,0.00891291,0.0210837,0.0210836,0.0509065,5.03984e-11,5.0401e-11,8.61194e-10,4.05601e-07,4.05599e-07,5e-08,0.0,0.0,0.0,0.0,0.0,0.0,0.0,0.0,535,0.205347,0.225625,0.00506418,0.00591543,0.00577383,7.27746e-05,0.0,0.0,0.0,0.008,0,0,0,831,24,0,0,0
18964000,0.999995,-0.0014,-0.000189308,0.00292092,-0.0139259,-0.0179684,-0.000719644,0.000975274,0.000358571,0.0311745,5.7776e-07,3.09085e-07,-1.17369e-07,7.51262e-05,-8.61143e-05,3.07276e-06,0.891731,0.0399268,1.0,0.0,0.0,0.0,0.0,0.0,1.23359e-09,4.30226e-05,0.000216595,2.36543e-09,2.86725e-05,2.86731e-05,0.000121288,0.0116972,0.0116968,0.00888054,0.0210156,0.0210155,0.0508605,4.87734e-11,4.87757e-11,8.4197e-10,4.04564e-07,4.04562e-07,5.00001e-08,0.0,0.0,0.0,0.0,0.0,0.0,0.0,0.0,535,0.205015,0.225523,0.00643696,0.00646231,0.00398597,0.00374209,0.0,0.0,0.0,0.008,0,0,0,831,24,0,0,0
19156000,0.999995,-0.001111,2.54768e-05,0.00282548,-0.0140064,-0.0187825,0.000710286,-0.00137935,-0.00207504,0.0301934,5.23366e-07,3.41657e-07,3.8694e-08,7.59552e-05,-8.47373e-05,3.29132e-06,0.891731,0.0399268,1.0,0.0,0.0,0.0,0.0,0.0,1.28855e-09,4.26447e-05,0.000216423,2.33489e-09,2.83228e-05,2.83233e-05,0.000121083,0.0116598,0.0116594,0.00883108,0.0209446,0.0209445,0.0502041,4.71423e-11,4.71444e-11,8.2048e-10,4.03505e-07,4.03503e-07,5e-08,0.0,0.0,0.0,0.0,0.0,0.0,0.0,0.0,535,0.204668,0.224063,0.002392,0.0078775,0.0042688,0.000782421,0.0,0.0,0.0,0.008,0,0,0,831,24,0,0,0
19348000,0.999996,-0.000814281,-0.000119576,0.00284924,-0.012731,-0.0181622,0.000376008,0.000102361,-0.00121358,0.0292929,4.31179e-07,4.19134e-07,6.26468e-08,7.7864e-05,-8.2433e-05,3.53596e-06,0.891731,0.0399268,1.0,0.0,0.0,0.0,0.0,0.0,1.27001e-09,4.30683e-05,0.000225588,2.34492e-09,2.79461e-05,2.79466e-05,0.000120857,0.0115896,0.0115893,0.00881925,0.020867,0.0208668,0.0496002,4.55249e-11,4.55267e-11,7.99194e-10,4.02433e-07,4.02431e-07,5e-08,0.0,0.0,0.0,0.0,0.0,0.0,0.0,0.0,535,0.204289,0.222711,0.00162845,0.00758532,0.00971787,0.000130413,0.0,0.0,0.0,0.008,0,0,0,831,24,0,0,0
19540000,0.999996,-0.000825273,-7.15677e-05,0.00289313,-0.0113856,-0.0182134,-0.00107982,0.000731267,-0.00154611,0.0288469,3.56521e-07,4.77047e-07,1.08031e-07,7.93115e-05,-8.05372e-05,3.65239e-06,0.891731,0.0399268,1.0,0.0,0.0,0.0,0.0,0.0,1.17737e-09,4.25957e-05,0.000220556,2.40486e-09,2.75527e-05,2.75531e-05,0.000120608,0.0114879,0.0114876,0.00883705,0.02078,0.0207799,0.0490476,4.39384e-11,4.394e-11,7.78142e-10,4.01361e-07,4.01359e-07,5e-08,0.0,0.0,0.0,0.0,0.0,0.0,0.0,0.0,535,0.203863,0.221467,0.00244113,0.00743757,0.00425354,0.00160142,0.0,0.0,0.0,0.008,0,0,0,831,24,0,0,0
19732000,0.999996,-0.000778266,-5.00975e-05,0.00285389,-0.0116964,-0.0154079,0.00229713,0.00119797,-0.00223877,0.0310672,2.93843e-07,5.34473e-07,9.22283e-08,8.07617e-05,-7.89235e-05,3.18266e-06,0.891731,0.0399268,1.0,0.0,0.0,0.0,0.0,0.0,1.42715e-09,4.50906e-05,0.000223905,2.3668e-09,2.71514e-05,2.71517e-05,0.000120983,0.0113519,0.0113516,0.00893333,0.020682,0.0206818,0.0491468,4.23964e-11,4.23979e-11,7.59663e-10,4.00297e-07,4.00295e-07,5.00001e-08,0.0,0.0,0.0,0.0,0.0,0.0,0.0,0.0,535,0.203381,0.221691,0.00414448,0.00667935,0.00408669,0.0029846,0.0,0.0,0.0,0.008,0,0,0,831,24,0,0,0
19924000,0.999996,-0.000802188,0.00011369,0.00268066,-0.0127381,-0.0123805,0.000641137,0.00154,-0.000824589,0.0298031,2.18758e-07,5.91074e-07,1.46145e-07,8.22081e-05,-7.70016e-05,3.58689e-06,0.891731,0.0399268,1.0,0.0,0.0,0.0,0.0,0.0,1.26352e-09,4.24689e-05,0.000228301,2.2476e-09,2.675e-05,2.67503e-05,0.00012068,0.011195,0.0111947,0.00899076,0.020572,0.0205719,0.0486903,4.09094e-11,4.09107e-11,7.39139e-10,3.99248e-07,3.99246e-07,5e-08,0.0,0.0,0.0,0.0,0.0,0.0,0.0,0.0,535,0.202839,0.220659,0.00186907,0.00528966,0.00661818,0.00490775,0.0,0.0,0.0,0.008,0,0,0,831,24,0,0,0
20116000,0.999996,-0.000688007,1.25068e-05,0.00271328,-0.0131235,-0.0137427,0.000746297,0.00269223,-0.00300014,0.0321734,1.90359e-07,6.59447e-07,1.26927e-07,8.39692e-05,-7.62275e-05,3.03201e-06,0.891731,0.0399268,1.0,0.0,0.0,0.0,0.0,0.0,1.34281e-09,4.34911e-05,0.000225813,2.25106e-09,2.63547e-05,2.6355e-05,0.000120352,0.0110167,0.0110165,0.00905997,0.02045,0.0204498,0.0482855,3.94846e-11,3.94857e-11,7.18942e-10,3.9822e-07,3.98218e-07,5e-08,0.0,0.0,0.0,0.0,0.0,0.0,0.0,0.0,535,0.202237,0.21974,0.000713449,0.00545629,0.00354749,0.00263289,0.0,0.0,0.0,0.008,0,0,0,831,24,0,0,0
20308000,0.999996,-0.000398972,5.59493e-05,0.00276917,-0.0129236,-0.014262,-0.00149249,0.00373349,-0.00492524,0.0325941,1.56067e-07,7.22386e-07,8.55036e-08,8.56071e-05,-7.5296e-05,2.77775e-06,0.891731,0.0399268,1.0,0.0,0.0,0.0,0.0,0.0,1.37973e-09,4.57431e-05,0.000222881,2.26111e-09,2.59697e-05,2.59701e-05,0.000119997,0.0108242,0.010824,0.00913674,0.0203165,0.0203163,0.0479329,3.81259e-11,3.81269e-11,6.99101e-10,3.97216e-07,3.97214e-07,5e-08,0.0,0.0,0.0,0.0,0.0,0.0,0.0,0.0,535,0.201576,0.218936,0.00118878,0.00593489,0.0041235,0.00132864,0.0,0.0,0.0,0.008,0,0,0,831,24,0,0,0
20500000,0.999996,-0.000357146,2.72817e-05,0.00279658,-0.0144456,-0.0107392,-0.00119919,0.00280876,-0.00582815,0.0335416,1.18414e-07,7.66514e-07,1.51146e-08,8.67861e-05,-7.42833e-05,2.37516e-06,0.891731,0.0399268,1.0,0.0,0.0,0.0,0.0,0.0,1.33634e-09,4.42427e-05,0.000216401,2.2516e-09,2.55992e-05,2.55995e-05,0.000120256,0.0106176,0.0106174,0.009272,0.0201722,0.0201721,0.048203,3.68357e-11,3.68367e-11,6.8178e-10,3.9624e-07,3.96238e-07,5.00001e-08,0.0,0.0,0.0,0.0,0.0,0.0,0.0,0.0,535,0.200859,0.219552,0.000808204,0.00590246,0.00102945,0.0036766,0.0,0.0,0.0,0.008,0,0,0,831,24,0,0,0
20692000,0.999996,-0.000331222,-2.32631e-05,0.0028714,-0.0128857,-0.0106923,-0.000320345,0.00371454,-0.00691604,0.0341162,9.12277e-08,8.32393e-07,-1.00629e-07,8.85359e-05,-7.35373e-05,2.15075e-06,0.891731,0.0399268,1.0,0.0,0.0,0.0,0.0,0.0,1.40459e-09,4.48604e-05,0.000225496,2.25378e-09,2.52457e-05,2.52459e-05,0.000119842,0.0104031,0.010403,0.00935172,0.0200182,0.020018,0.0479349,3.56146e-11,3.56154e-11,6.62639e-10,3.95295e-07,3.95293e-07,5e-08,0.0,0.0,0.0,0.0,0.0,0.0,0.0,0.0,535,0.20009,0.21894,0.0061472,0.00548641,0.00789168,0.0028333,0.0,0.0,0.0,0.008,0,0,0,831,24,0,0,0
