timestamp,roll,pitch,yaw,thrust_body[0],thrust_body[1],thrust_body[2]
1344000,0.00254313,0.00454729,-0.0254224,0.0,0.0,0.0
1368000,0.00205316,0.00416258,-0.0250037,0.0,0.0,0.0
1396000,0.00222005,0.0050662,-0.0249314,0.0,0.0,0.0
1424000,0.00333779,0.00421273,-0.0249672,0.0,0.0,0.0
1452000,0.00308363,0.00376788,-0.024602,0.0,0.0,0.0
1480000,0.00404001,0.00456608,-0.0247998,0.0,0.0,0.0
1512000,0.0040851,0.005064,-0.0250359,0.0,0.0,0.0
1544000,0.00451411,0.00456725,-0.0246983,0.0,0.0,0.0
1572000,0.00427787,0.00588385,-0.0243288,0.0,0.0,0.0
1600000,0.00453566,0.00534906,-0.0244808,0.0,0.0,0.0
1628000,0.00550008,0.0055651,-0.0244584,0.0,0.0,0.0
1660000,0.00545534,0.00563396,-0.0243954,0.0,0.0,0.0
1692000,0.00452411,0.00464132,-0.0240404,0.0,0.0,0.0
1716000,0.00413161,0.00407081,-0.0241385,0.0,0.0,0.0
1744000,0.00451911,0.00308453,-0.0241202,0.0,0.0,0.0
1772000,0.004953,0.00276844,-0.0238982,0.0,0.0,0.0
1800000,0.00459272,0.00341143,-0.0238181,0.0,0.0,0.0
1828000,0.00476265,0.00285436,-0.0237914,0.0,0.0,0.0
1856000,0.00533873,0.00317718,-0.0241416,0.0,0.0,0.0
1888000,0.00638017,0.00436739,-0.0236334,0.0,0.0,0.0
1916000,0.00611619,0.00419994,-0.0233659,0.0,0.0,0.0
1948000,0.00725233,0.00570215,-0.0227973,0.0,0.0,0.0
1976000,0.00752947,0.00474754,-0.0225359,0.0,0.0,0.0
2004000,0.00701397,0.00428238,-0.0226195,0.0,0.0,0.0
2036000,0.00592196,0.0037446,-0.0223226,0.0,0.0,0.0
2064000,0.00556238,0.00284913,-0.021853,0.0,0.0,0.0
2096000,0.00517677,0.0034059,-0.0221067,0.0,0.0,0.0
2128000,0.00585884,0.00368885,-0.0217587,0.0,0.0,0.0
2156000,0.0066265,0.00311959,-0.0216593,0.0,0.0,0.0
2184000,0.00707017,0.00257577,-0.0213819,0.0,0.0,0.0
2208000,0.00681677,0.00264026,-0.0216676,0.0,0.0,0.0
2232000,0.00713924,0.00259922,-0.0215017,0.0,0.0,0.0
2260000,0.00737712,0.00277388,-0.0212292,0.0,0.0,0.0
2288000,0.00794939,0.00328251,-0.0207997,0.0,0.0,0.0
2320000,0.00814,0.00261417,-0.0206253,0.0,0.0,0.0
2352000,0.00874738,0.00344374,-0.0204741,0.0,0.0,0.0
2380000,0.00922514,0.00290527,-0.0203511,0.0,0.0,0.0
2412000,0.00824763,0.00380178,-0.0200393,0.0,0.0,0.0
2444000,0.00852963,0.0048176,-0.0200726,0.0,0.0,0.0
2468000,0.00780485,0.00513669,-0.019971,0.0,0.0,0.0
2492000,0.00795582,0.00571055,-0.0197945,0.0,0.0,0.0
2520000,0.00749427,0.0061706,-0.0198917,0.0,0.0,0.0
2552000,0.00762129,0.00552727,-0.0194836,0.0,0.0,0.0
2580000,0.00755566,0.00555244,-0.0198177,0.0,0.0,0.0
2608000,0.00632519,0.00556264,-0.0199709,0.0,0.0,0.0
2636000,0.00515395,0.00577507,-0.0202853,0.0,0.0,0.0
2668000,0.00578928,0.00682034,-0.0204439,0.0,0.0,0.0
2696000,0.00533489,0.00770687,-0.020177,0.0,0.0,0.0
2724000,0.00505962,0.00783165,-0.0200418,0.0,0.0,0.0
2756000,0.00571717,0.007255,-0.0194877,0.0,0.0,0.0
2788000,0.0051122,0.00759726,-0.0193059,0.0,0.0,0.0
2820000,0.00515188,0.00853802,-0.0189772,0.0,0.0,0.0
2848000,0.00470235,0.00889156,-0.0193656,0.0,0.0,0.0
2876000,0.00459723,0.00950853,-0.0191188,0.0,0.0,0.0
2904000,0.00492427,0.00988336,-0.019423,0.0,0.0,0.0
2932000,0.0045173,0.00997733,-0.0198179,0.0,0.0,0.0
2960000,0.00521128,0.0104913,-0.0199617,0.0,0.0,0.0
2988000,0.0055434,0.0107507,-0.0199247,0.0,0.0,0.0
3016000,0.0049391,0.00997299,-0.0200332,0.0,0.0,0.0
3044000,0.00487286,0.00933717,-0.020338,0.0,0.0,0.0
3076000,0.00428278,0.00831645,-0.0203555,0.0,0.0,0.0
3108000,0.00468248,0.00872305,-0.019917,0.0,0.0,0.0
3140000,0.00569224,0.0084066,-0.0196359,0.0,0.0,0.0
3168000,0.00562026,0.0075578,-0.019368,0.0,0.0,0.0
3200000,0.00638981,0.00759344,-0.0190363,0.0,0.0,0.0
3228000,0.00739167,0.00813237,-0.0194244,0.0,0.0,0.0
3260000,0.00694568,0.00847415,-0.0194995,0.0,0.0,0.0
3288000,0.00690926,0.00859936,-0.0191726,0.0,0.0,0.0
3316000,0.00712717,0.008602,-0.0191034,0.0,0.0,0.0
3344000,0.00649679,0.00843451,-0.0190767,0.0,0.0,0.0
3372000,0.0058677,0.00901848,-0.0195222,0.0,0.0,0.0
3396000,0.00519298,0.0093151,-0.019257,0.0,0.0,0.0
3424000,0.00590236,0.00923915,-0.019352,0.0,0.0,0.0
3452000,0.00526678,0.0084749,-0.0192424,0.0,0.0,0.0
3484000,0.00622697,0.00747263,-0.0189348,0.0,0.0,0.0
3516000,0.00621764,0.0065627,-0.01849,0.0,0.0,0.0
3544000,0.00642459,0.00549438,-0.0184829,0.0,0.0,0.0
3572000,0.00675558,0.00490645,-0.0187321,0.0,0.0,0.0
3600000,0.00573273,0.00466156,-0.0189736,0.0,0.0,0.0
3628000,0.0051771,0.00478915,-0.0190271,0.0,0.0,0.0
3660000,0.00470727,0.00432469,-0.018547,0.0,0.0,0.0
3692000,0.00427213,0.00495083,-0.018641,0.0,0.0,0.0
3724000,0.00468003,0.00418177,-0.0186223,0.0,0.0,0.0
3752000,0.00451537,0.00369671,-0.018422,0.0,0.0,0.0
3780000,0.0050729,0.00337883,-0.0182096,0.0,0.0,0.0
3808000,0.00414362,0.0028159,-0.0177216,0.0,0.0,0.0
3836000,0.00424236,0.0033858,-0.0175437,0.0,0.0,0.0
3868000,0.00428185,0.00363292,-0.0175813,0.0,0.0,0.0
3892000,0.00390028,0.00380769,-0.0175602,0.0,0.0,0.0
3920000,0.00429815,0.00291886,-0.0177364,0.0,0.0,0.0
3948000,0.00526059,0.00306218,-0.0179089,0.0,0.0,0.0
3976000,0.00455578,0.00259294,-0.0177884,0.0,0.0,0.0
4004000,0.00383853,0.0027347,-0.0173248,0.0,0.0,0.0
4032000,0.00436626,0.00271516,-0.0169712,0.0,0.0,0.0
4060000,0.0045967,0.00267041,-0.01732,0.0,0.0,0.0
4088000,0.00437211,0.00246897,-0.0171247,0.0,0.0,0.0
4116000,0.004387,0.00145437,-0.0170226,0.0,0.0,0.0
4144000,0.00434153,0.000945251,-0.0168931,0.0,0.0,0.0
4176000,0.00439154,0.00103658,-0.0174583,0.0,0.0,0.0
4208000,0.00311064,0.000693478,-0.0176947,0.0,0.0,0.0
4236000,0.00249824,0.00161353,-0.0176115,0.0,0.0,0.0
4264000,0.00261861,0.00131055,-0.0174895,0.0,0.0,0.0
4292000,0.00218747,0.000370638,-0.017957,0.0,0.0,0.0
4316000,0.00165706,0.000582731,-0.0176362,0.0,0.0,0.0
4348000,0.00105444,0.00073518,-0.0177609,0.0,0.0,0.0
4376000,0.00153169,0.000589694,-0.0178898,0.0,0.0,0.0
4404000,0.00195766,0.0011152,-0.0179804,0.0,0.0,0.0
4436000,0.00211075,-0.000135709,-0.0184274,0.0,0.0,0.0
4468000,0.00307736,-0.000580784,-0.0179506,0.0,0.0,0.0
4500000,0.00283115,-0.00171246,-0.0176618,0.0,0.0,0.0
4528000,0.00187395,-0.0014045,-0.0174425,0.0,0.0,0.0
4560000,0.00181627,-0.000952217,-0.0173019,0.0,0.0,0.0
4588000,0.00188938,-0.00100292,-0.017075,0.0,0.0,0.0
4616000,0.00175947,-0.00144978,-0.0166128,0.0,0.0,0.0
4644000,0.00146201,-0.00267766,-0.0167741,0.0,0.0,0.0
4676000,0.000633581,-0.00212983,-0.0163733,0.0,0.0,0.0
4704000,0.000477989,-0.00242105,-0.0162702,0.0,0.0,0.0
4732000,0.00106578,-0.00207389,-0.0158689,0.0,0.0,0.0
4760000,0.000441096,-0.00260517,-0.0161541,0.0,0.0,0.0
4788000,0.000608652,-0.00279843,-0.0159656,0.0,0.0,0.0
4816000,0.000319297,-0.00235539,-0.0159786,0.0,0.0,0.0
4848000,0.000352329,-0.00179198,-0.0162851,0.0,0.0,0.0
4880000,0.000170761,-0.001719,-0.0167698,0.0,0.0,0.0
4908000,0.000506829,-0.002448,-0.0167696,0.0,0.0,0.0
4936000,0.000350527,-0.00299564,-0.0165655,0.0,0.0,0.0
4964000,-3.40461e-05,-0.00312207,-0.0171162,0.0,0.0,0.0
4992000,-0.000239528,-0.00259861,-0.0174117,0.0,0.0,0.0
5024000,0.0012964,-0.00234637,-0.017894,0.0,0.0,0.0
5056000,8.80869e-05,-0.00289746,-0.0173368,0.0,0.0,0.0
5084000,-0.000376336,-0.00321873,-0.0169935,0.0,0.0,0.0
5116000,-0.000273148,-0.00343453,-0.0165225,0.0,0.0,0.0
5148000,0.000764684,-0.00260654,-0.016546,0.0,0.0,0.0
5176000,0.000175385,-0.00300901,-0.0163547,0.0,0.0,0.0
5200000,0.000171782,-0.00261084,-0.0168583,0.0,0.0,0.0
5232000,0.000279791,-0.00212029,-0.0171581,0.0,0.0,0.0
5260000,-0.000629616,-0.00215352,-0.0169207,0.0,0.0,0.0
5292000,0.0004455,-0.00223238,-0.0173906,0.0,0.0,0.0
5320000,7.03159e-05,-0.00327419,-0.0172332,0.0,0.0,0.0
5352000,-0.000769058,-0.00407305,-0.0178187,0.0,0.0,0.0
5380000,-0.00135842,-0.00363793,-0.0179126,0.0,0.0,0.0
5408000,-0.00159751,-0.00334048,-0.0179857,0.0,0.0,0.0
5436000,-0.00148107,-0.00409213,-0.0182458,0.0,0.0,0.0
5464000,-0.00133598,-0.00385134,-0.0181949,0.0,0.0,0.0
5488000,-0.00096927,-0.00344828,-0.0185564,0.0,0.0,0.0
5516000,-2.28999e-05,-0.00375796,-0.0183779,0.0,0.0,0.0
5548000,-0.000660517,-0.00306432,-0.0185924,0.0,0.0,0.0
5576000,-0.000684581,-0.002099,-0.018734,0.0,0.0,0.0
5600000,-0.000718044,-0.00164274,-0.0189314,0.0,0.0,0.0
5632000,-0.000532424,-0.00219905,-0.019369,0.0,0.0,0.0
5660000,0.000433735,-0.00202593,-0.0195542,0.0,0.0,0.0
5692000,-0.000368978,-0.00140531,-0.0200193,0.0,0.0,0.0
5720000,-0.000227727,-0.00122877,-0.0202862,0.0,0.0,0.0
5748000,0.000693919,-0.000428402,-0.0201793,0.0,0.0,0.0
5780000,-0.000512515,0.000422448,-0.0205068,0.0,0.0,0.0
5812000,-0.00133197,0.000298252,-0.0203195,0.0,0.0,0.0
5840000,-0.000501155,1.71671e-05,-0.0201537,0.0,0.0,0.0
5868000,0.00018506,0.000616706,-0.0207931,0.0,0.0,0.0
5900000,-0.000296616,0.00120016,-0.0205798,0.0,0.0,0.0
5932000,0.000388349,0.000739062,-0.0199479,0.0,0.0,0.0
5964000,-0.000620804,0.00215273,-0.0203596,0.0,0.0,0.0
5992000,-0.00079892,0.00221704,-0.0205698,0.0,0.0,0.0
6020000,-0.000909659,0.00323385,-0.0202977,0.0,0.0,0.0
6052000,-0.00144652,0.00342834,-0.0199318,0.0,0.0,0.0
6084000,-0.000961855,0.0032929,-0.0194344,0.0,0.0,0.0
6116000,-0.00154498,0.00420745,-0.0194675,0.0,0.0,0.0
6148000,-0.00180111,0.00425034,-0.0197873,0.0,0.0,0.0
6176000,-0.0020683,0.00453706,-0.0200692,0.0,0.0,0.0
6208000,-0.00174357,0.00499962,-0.0199224,0.0,0.0,0.0
6240000,-0.00220104,0.0056051,-0.0197779,0.0,0.0,0.0
6272000,-0.00225983,0.00548289,-0.0193201,0.0,0.0,0.0
6304000,-0.00237696,0.00568715,-0.0190188,0.0,0.0,0.0
6336000,-0.00257683,0.00599953,-0.0197504,0.0,0.0,0.0
6364000,-0.00255364,0.00643466,-0.0193699,0.0,0.0,0.0
6392000,-0.00185683,0.00639067,-0.0196575,0.0,0.0,0.0
6420000,-0.00252826,0.00717035,-0.01956,0.0,0.0,0.0
6452000,-0.00304022,0.0077486,-0.020137,0.0,0.0,0.0
6484000,-0.00304637,0.00836092,-0.0204566,0.0,0.0,0.0
6516000,-0.00306328,0.00900628,-0.0202927,0.0,0.0,0.0
6548000,-0.00366307,0.00954302,-0.0209505,0.0,0.0,0.0
6580000,-0.00320675,0.00984901,-0.0206362,0.0,0.0,0.0
6612000,-0.00309562,0.00944226,-0.0201349,0.0,0.0,0.0
6640000,-0.0021898,0.00857838,-0.0200253,0.0,0.0,0.0
6668000,-0.0005021,0.00796742,-0.0198972,0.0,0.0,0.0
6696000,-0.00144347,0.00882422,-0.0199581,0.0,0.0,0.0
6724000,-0.00147952,0.00812076,-0.0203992,0.0,0.0,0.0
6756000,-0.000758166,0.00787933,-0.020636,0.0,0.0,0.0
6788000,-0.00146269,0.00753483,-0.0210382,0.0,0.0,0.0
6816000,-0.00143637,0.0076254,-0.0210325,0.0,0.0,0.0
6844000,-0.00139603,0.00785718,-0.0212594,0.0,0.0,0.0
6872000,-0.00129086,0.00774422,-0.0214793,0.0,0.0,0.0
6900000,-0.00110614,0.00843263,-0.0214842,0.0,0.0,0.0
6928000,0.000297672,0.00783051,-0.0215571,0.0,0.0,0.0
6960000,0.00101079,0.00853843,-0.0220016,0.0,0.0,0.0
6988000,0.00079855,0.00956063,-0.022141,0.0,0.0,0.0
7020000,0.000692635,0.00902476,-0.0222397,0.0,0.0,0.0
7052000,-0.000149567,0.00947144,-0.0224947,0.0,0.0,0.0
7084000,-0.00099863,0.0107588,-0.0226401,0.0,0.0,0.0
7116000,-0.0013073,0.0105944,-0.0229257,0.0,0.0,0.0
7144000,-0.00125877,0.0106639,-0.0230183,0.0,0.0,0.0
7172000,-0.000777971,0.00944792,-0.0226138,0.0,0.0,0.0
7204000,-0.00103883,0.00921985,-0.0226655,0.0,0.0,0.0
7236000,-0.00135118,0.00906961,-0.0224184,0.0,0.0,0.0
7264000,-0.000776514,0.00927489,-0.0223807,0.0,0.0,0.0
7296000,-0.0011212,0.00933981,-0.0220912,0.0,0.0,0.0
7328000,-0.000635266,0.00972215,-0.0221398,0.0,0.0,0.0
7360000,-0.000725002,0.0102506,-0.0219304,0.0,0.0,0.0
7392000,-0.0014329,0.00984519,-0.0220858,0.0,0.0,0.0
7424000,-0.00161041,0.00940787,-0.0221718,0.0,0.0,0.0
7456000,-0.00187343,0.0100346,-0.0224458,0.0,0.0,0.0
7484000,-0.00136171,0.0101593,-0.0225005,0.0,0.0,0.0
7516000,-0.000669742,0.00974614,-0.0226766,0.0,0.0,0.0
7544000,-7.24632e-05,0.00859236,-0.022366,0.0,0.0,0.0
7576000,0.000682921,0.0082572,-0.0222349,0.0,0.0,0.0
7604000,0.00152203,0.00825277,-0.0224878,0.0,0.0,0.0
7632000,0.0014745,0.00819214,-0.0228584,0.0,0.0,0.0
7664000,0.000482603,0.0071147,-0.0228935,0.0,0.0,0.0
7692000,-0.000533117,0.00555114,-0.0230717,0.0,0.0,0.0
7724000,-0.000421598,0.00450213,-0.0230724,0.0,0.0,0.0
7752000,-0.000886412,0.00445511,-0.0231321,0.0,0.0,0.0
7780000,-0.00167789,0.00506352,-0.0227361,0.0,0.0,0.0
7812000,-0.00262567,0.0063476,-0.0229355,0.0,0.0,0.0
7844000,-0.00283867,0.00634321,-0.0224852,0.0,0.0,0.0
7872000,-0.00312473,0.006821,-0.0227096,0.0,0.0,0.0
7900000,-0.00297772,0.00670184,-0.02257,0.0,0.0,0.0
7932000,-0.00346551,0.00654825,-0.0229502,0.0,0.0,0.0
7964000,-0.00304346,0.00715476,-0.0229003,0.0,0.0,0.0
7996000,-0.00289915,0.0081417,-0.0225109,0.0,0.0,0.0
8028000,-0.00199473,0.00817901,-0.0225488,0.0,0.0,0.0
8060000,-0.00225643,0.00894438,-0.0224948,0.0,0.0,0.0
8092000,-0.00107716,0.00894296,-0.0223352,0.0,0.0,0.0
8124000,-0.0010475,0.00857755,-0.0222817,0.0,0.0,0.0
8152000,-0.00122085,0.00785193,-0.0228879,0.0,0.0,0.0
8180000,-0.00188591,0.00721641,-0.0232417,0.0,0.0,0.0
8212000,-0.00244526,0.00758894,-0.0234213,0.0,0.0,0.0
8244000,-0.0032576,0.00782083,-0.0231149,0.0,0.0,0.0
8276000,-0.00326276,0.00777798,-0.0233612,0.0,0.0,0.0
8308000,-0.00343717,0.00766302,-0.0232817,0.0,0.0,0.0
8340000,-0.00309499,0.00697351,-0.0232646,0.0,0.0,0.0
8368000,-0.00323352,0.007215,-0.0235406,0.0,0.0,0.0
8396000,-0.00406786,0.0064717,-0.023591,0.0,0.0,0.0
8428000,-0.00373548,0.00406697,-0.023476,0.0,0.0,0.0
8456000,-0.00324936,0.00287026,-0.0232066,0.0,0.0,0.0
8488000,-0.00397797,0.00252892,-0.0234049,0.0,0.0,0.0
8520000,-0.00348185,0.00237378,-0.0233421,0.0,0.0,0.0
8548000,-0.00316861,0.00258391,-0.0234753,0.0,0.0,0.0
8576000,-0.00352932,0.00331747,-0.0235454,0.0,0.0,0.0
8608000,-0.00333567,0.00329304,-0.0231182,0.0,0.0,0.0
8636000,-0.00275826,0.00282349,-0.0233434,0.0,0.0,0.0
8664000,-0.00224182,0.00222317,-0.022964,0.0,0.0,0.0
8696000,-0.00236176,0.00286429,-0.0231352,0.0,0.0,0.0
8724000,-0.00191012,0.00502734,-0.0229767,0.0,0.0,0.0
8756000,-0.00273866,0.00508369,-0.0228124,0.0,0.0,0.0
8784000,-0.00204048,0.00485098,-0.0230629,0.0,0.0,0.0
8816000,-0.00147646,0.00528656,-0.0232495,0.0,0.0,0.0
8844000,-0.00138077,0.00610733,-0.0229706,0.0,0.0,0.0
8872000,-2.32138e-05,0.00645083,-0.0227859,0.0,0.0,0.0
8904000,4.30731e-05,0.00485204,-0.0230344,0.0,0.0,0.0
8928000,0.00123541,0.00469032,-0.0233947,0.0,0.0,0.0
8960000,0.00166122,0.00457701,-0.0234006,0.0,0.0,0.0
8992000,0.00121167,0.00489207,-0.0242011,0.0,0.0,0.0
9016000,0.00144687,0.00479492,-0.0244183,0.0,0.0,0.0
9040000,0.00102216,0.00503758,-0.0245063,0.0,0.0,0.0
9072000,0.000861503,0.0060233,-0.0244859,0.0,0.0,0.0
9104000,-0.000157593,0.00609458,-0.024724,0.0,0.0,0.0
9136000,-1.1324e-05,0.00596679,-0.0244697,0.0,0.0,0.0
9168000,0.000289881,0.00648992,-0.0244302,0.0,0.0,0.0
9196000,0.00096622,0.00616615,-0.0243646,0.0,0.0,0.0
9224000,0.00110264,0.00601117,-0.0244058,0.0,0.0,0.0
9256000,0.00158976,0.00528166,-0.0242297,0.0,0.0,0.0
9284000,0.00211326,0.00473572,-0.0240636,0.0,0.0,0.0
9312000,0.00258951,0.00492279,-0.0239485,0.0,0.0,0.0
9344000,0.00355358,0.00591738,-0.0239552,0.0,0.0,0.0
9372000,0.00400716,0.00536483,-0.0239958,0.0,0.0,0.0
9400000,0.00473437,0.00565463,-0.0238401,0.0,0.0,0.0
9424000,0.00608436,0.00606747,-0.0234893,0.0,0.0,0.0
9456000,0.0057336,0.00611755,-0.0237114,0.0,0.0,0.0
9484000,0.00487869,0.00686633,-0.022862,0.0,0.0,0.0
9512000,0.00550774,0.00719632,-0.022782,0.0,0.0,0.0
9540000,0.00580497,0.00758681,-0.0231323,0.0,0.0,0.0
9568000,0.00607322,0.00715073,-0.0237864,0.0,0.0,0.0
9596000,0.00690583,0.00814375,-0.0235248,0.0,0.0,0.0
9628000,0.00677465,0.0088132,-0.0235639,0.0,0.0,0.0
9660000,0.00650173,0.00846411,-0.022947,0.0,0.0,0.0
9692000,0.00576119,0.00876041,-0.0233969,0.0,0.0,0.0
9724000,0.00638837,0.00912117,-0.0228753,0.0,0.0,0.0
9756000,0.00631013,0.00971001,-0.0222443,0.0,0.0,0.0
9788000,0.00596511,0.00931021,-0.0224077,0.0,0.0,0.0
9820000,0.00547109,0.00882976,-0.021859,0.0,0.0,0.0
9848000,0.0060206,0.00906683,-0.0214905,0.0,0.0,0.0
9876000,0.00518594,0.00788518,-0.0218713,0.0,0.0,0.0
9908000,0.00616722,0.00674391,-0.0220286,0.0,0.0,0.0
9940000,0.00737097,0.0074752,-0.0216994,0.0,0.0,0.0
9968000,0.00811621,0.00707602,-0.0213834,0.0,0.0,0.0
9996000,0.00906702,0.007937,-0.0212703,0.0,0.0,0.0
10028000,0.00927126,0.0082304,-0.0214618,0.0,0.0,0.0
10060000,0.00962067,0.00876443,-0.0215332,0.0,0.0,0.0
10092000,0.0109063,0.00898788,-0.0214128,0.0,0.0,0.0
10116000,0.0104491,0.00840262,-0.0213872,0.0,0.0,0.0
10148000,0.0113083,0.00876719,-0.0212818,0.0,0.0,0.0
10180000,0.0102899,0.00802256,-0.021649,0.0,0.0,0.0
10212000,0.00916972,0.00797231,-0.0219969,0.0,0.0,0.0
10240000,0.00906175,0.00807507,-0.0105723,0.0,0.0,0.0
10272000,0.00857418,0.00882999,-0.0103634,0.0,0.0,0.0
10304000,0.00891784,0.00964464,-0.0102014,0.0,0.0,0.0
10336000,0.00891481,0.00988276,-0.00961239,0.0,0.0,0.0
10364000,0.00969851,0.00934104,-0.00937845,0.0,0.0,0.0
10396000,0.00965264,0.00928012,-0.00880493,0.0,0.0,0.0
10428000,0.0103574,0.00968982,-0.0085993,0.0,0.0,0.0
10460000,0.0111393,0.00957038,-0.0088232,0.0,0.0,0.0
10492000,0.0118465,0.0082301,-0.00789817,0.0,0.0,0.0
10524000,0.0118176,0.00776206,-0.00797242,0.0,0.0,0.0
10552000,0.0109284,0.00839692,-0.00817224,0.0,0.0,0.0
10580000,0.0109609,0.00754459,-0.0083365,0.0,0.0,0.0
10612000,0.0102255,0.00715906,-0.00854623,0.0,0.0,0.0
10640000,0.010194,0.00671359,-0.00870895,0.0,0.0,0.0
10668000,0.010486,0.0062318,-0.00878043,0.0,0.0,0.0
10696000,0.0112472,0.00660106,-0.00885714,0.0,0.0,0.0
10720000,0.0119808,0.00590227,-0.00898039,0.0,0.0,0.0
10748000,0.0117809,0.00575285,-0.00921763,0.0,0.0,0.0
10780000,0.0112929,0.00574764,-0.0089613,0.0,0.0,0.0
10812000,0.0110272,0.00596609,-0.00902809,0.0,0.0,0.0
10844000,0.0107704,0.00657945,-0.0095157,0.0,0.0,0.0
10876000,0.0118162,0.00637463,-0.00959584,0.0,0.0,0.0
10900000,0.0115817,0.00605307,-0.00931842,0.0,0.0,0.0
10928000,0.0119004,0.00620926,-0.00935804,0.0,0.0,0.0
10956000,0.0115868,0.00634939,-0.00934637,0.0,0.0,0.0
10988000,0.0122014,0.00583794,-0.00930657,0.0,0.0,0.0
11012000,0.0123465,0.00458076,-0.00975954,0.0,0.0,0.0
11044000,0.0123742,0.00403776,-0.0102822,0.0,0.0,0.0
11076000,0.0127729,0.00423637,-0.0108498,0.0,0.0,0.0
11104000,0.0121313,0.00567525,-0.011276,0.0,0.0,0.0
11132000,0.0120943,0.00529573,-0.0120232,0.0,0.0,0.0
11160000,0.0123583,0.00425231,-0.0120215,0.0,0.0,0.0
11192000,0.0118255,0.00370096,-0.0121931,0.0,0.0,0.0
11224000,0.0114263,0.00341394,-0.011883,0.0,0.0,0.0
11252000,0.0118225,0.00322407,-0.0121554,0.0,0.0,0.0
11284000,0.012266,0.0037178,-0.0117701,0.0,0.0,0.0
11316000,0.0115669,0.00315141,-0.0114771,0.0,0.0,0.0
11340000,0.010947,0.00298566,-0.0111421,0.0,0.0,0.0
11372000,0.0105745,0.0030459,-0.010559,0.0,0.0,0.0
11404000,0.00995772,0.00328815,-0.0103195,0.0,0.0,0.0
11436000,0.00934738,0.00382835,-0.0101934,0.0,0.0,0.0
11468000,0.00856359,0.00360958,-0.0102796,0.0,0.0,0.0
11496000,0.00829419,0.00249827,-0.0104504,0.0,0.0,0.0
11528000,0.0084352,0.00183559,-0.0101264,0.0,0.0,0.0
11556000,0.0079605,0.00308758,-0.00987816,0.0,0.0,0.0
11580000,0.00733882,0.00264732,-0.00973155,0.0,0.0,0.0
11612000,0.00781644,0.00166783,-0.00967001,0.0,0.0,0.0
11644000,0.00738093,0.00157888,-0.00989615,0.0,0.0,0.0
11676000,0.00635268,0.000867559,-0.00971348,0.0,0.0,0.0
11708000,0.00621672,0.000601172,-0.00967722,0.0,0.0,0.0
11736000,0.0065271,0.0018082,-0.00956796,0.0,0.0,0.0
11768000,0.00640618,0.00174854,-0.0097751,0.0,0.0,0.0
11796000,0.0062159,0.00197387,-0.00936229,0.0,0.0,0.0
11828000,0.00676898,0.00194255,-0.00893017,0.0,0.0,0.0
11860000,0.00765502,0.00222404,-0.00924163,0.0,0.0,0.0
11892000,0.0082847,0.00214812,-0.00892855,0.0,0.0,0.0
11924000,0.00866143,0.00108991,-0.00876972,0.0,0.0,0.0
11956000,0.00962398,0.0016289,-0.00921721,0.0,0.0,0.0
11988000,0.00916903,0.00107193,-0.00925266,0.0,0.0,0.0
12016000,0.0087981,0.0010381,-0.00939189,0.0,0.0,0.0
12048000,0.00913716,4.81855e-05,-0.00940842,0.0,0.0,0.0
12072000,0.00840601,0.00103231,-0.00941903,0.0,0.0,0.0
12096000,0.00812178,0.000235306,-0.00948261,0.0,0.0,0.0
12128000,0.00759935,7.14628e-05,-0.00937547,0.0,0.0,0.0
12160000,0.0068282,0.000956702,-0.00938573,0.0,0.0,0.0
12188000,0.00671796,0.00176907,-0.00934801,0.0,0.0,0.0
12212000,0.00698135,0.00216676,-0.009561,0.0,0.0,0.0
12244000,0.0072848,0.00237096,-0.00937768,0.0,0.0,0.0
12276000,0.00721367,0.00294135,-0.00967667,0.0,0.0,0.0
12304000,0.00719842,0.00258711,-0.00996816,0.0,0.0,0.0
12332000,0.00577304,0.0023862,-0.0101911,0.0,0.0,0.0
12364000,0.00478775,0.0024968,-0.0105896,0.0,0.0,0.0
12396000,0.00528325,0.0022872,-0.0106861,0.0,0.0,0.0
12428000,0.00554269,0.00227121,-0.0108708,0.0,0.0,0.0
12460000,0.00659912,0.00179017,-0.0108979,0.0,0.0,0.0
12492000,0.00581189,0.00153672,-0.0112764,0.0,0.0,0.0
12520000,0.00643697,0.00137197,-0.0114002,0.0,0.0,0.0
12548000,0.00697063,-0.00011137,-0.0114567,0.0,0.0,0.0
12576000,0.00656996,-9.30135e-05,-0.010757,0.0,0.0,0.0
12608000,0.00574872,-0.000783707,-0.0108418,0.0,0.0,0.0
12640000,0.00535155,-0.0017487,-0.011034,0.0,0.0,0.0
12672000,0.00495558,-0.000359791,-0.0109213,0.0,0.0,0.0
12704000,0.0048266,0.00115071,-0.0108149,0.0,0.0,0.0
12732000,0.00426039,0.00105317,-0.0113445,0.0,0.0,0.0
12760000,0.00409019,0.00115018,-0.0110504,0.0,0.0,0.0
12792000,0.00340848,0.000946968,-0.0111837,0.0,0.0,0.0
12824000,0.00338759,0.00126105,-0.0116529,0.0,0.0,0.0
12852000,0.00447289,0.00155375,-0.0115843,0.0,0.0,0.0
12884000,0.00442131,0.00165305,-0.0118326,0.0,0.0,0.0
12916000,0.00433548,0.00165729,-0.0122735,0.0,0.0,0.0
12944000,0.00517493,0.00198702,-0.0122475,0.0,0.0,0.0
12976000,0.0061607,0.00193364,-0.0124099,0.0,0.0,0.0
13008000,0.00561171,0.00211963,-0.0122614,0.0,0.0,0.0
13040000,0.00614476,0.00192282,-0.0123848,0.0,0.0,0.0
13072000,0.00563503,0.00294978,-0.0128205,0.0,0.0,0.0
13104000,0.00644459,0.00364149,-0.0126373,0.0,0.0,0.0
13136000,0.00640401,0.00415418,-0.0122847,0.0,0.0,0.0
13168000,0.00605275,0.00463021,-0.0122405,0.0,0.0,0.0
13200000,0.00549811,0.00543029,-0.0122607,0.0,0.0,0.0
13228000,0.0051846,0.00642256,-0.0125786,0.0,0.0,0.0
13260000,0.00488277,0.00667008,-0.0126845,0.0,0.0,0.0
13292000,0.00446433,0.00624664,-0.0130523,0.0,0.0,0.0
13324000,0.00534199,0.00614887,-0.0132464,0.0,0.0,0.0
13356000,0.00626783,0.00631525,-0.0133108,0.0,0.0,0.0
13384000,0.00675047,0.00621754,-0.0132085,0.0,0.0,0.0
13412000,0.00625849,0.00607962,-0.0134382,0.0,0.0,0.0
13440000,0.00684795,0.00635245,-0.0133563,0.0,0.0,0.0
13472000,0.00741758,0.00560622,-0.0133572,0.0,0.0,0.0
13500000,0.00673849,0.00591432,-0.0132703,0.0,0.0,0.0
13528000,0.00615515,0.00586021,-0.0137049,0.0,0.0,0.0
13556000,0.00602615,0.00514626,-0.0137111,0.0,0.0,0.0
13584000,0.00523011,0.00498502,-0.0138702,0.0,0.0,0.0
13616000,0.00553685,0.00470309,-0.0143784,0.0,0.0,0.0
13648000,0.00638492,0.00509619,-0.0138492,0.0,0.0,0.0
13676000,0.00602,0.00524563,-0.0139439,0.0,0.0,0.0
13708000,0.00652393,0.00456848,-0.0141875,0.0,0.0,0.0
13740000,0.00574399,0.00416565,-0.0142975,0.0,0.0,0.0
13764000,0.00604161,0.00397853,-0.0146556,0.0,0.0,0.0
13796000,0.00632711,0.00408006,-0.0145721,0.0,0.0,0.0
13828000,0.00516405,0.00409645,-0.0143526,0.0,0.0,0.0
13860000,0.00643914,0.00279532,-0.0141459,0.0,0.0,0.0
13892000,0.00592556,0.00254786,-0.0139002,0.0,0.0,0.0
13924000,0.00577295,0.00203559,-0.0141804,0.0,0.0,0.0
13956000,0.0056178,0.00374356,-0.0140474,0.0,0.0,0.0
13988000,0.00481677,0.00383054,-0.0138428,0.0,0.0,0.0
14020000,0.00466492,0.0033653,-0.0140773,0.0,0.0,0.0
14048000,0.0043162,0.00412313,-0.0142973,0.0,0.0,0.0
14080000,0.00487182,0.00451014,-0.0146197,0.0,0.0,0.0
14112000,0.00477308,0.00284426,-0.0148324,0.0,0.0,0.0
14144000,0.0060684,0.00359154,-0.0149055,0.0,0.0,0.0
14176000,0.00604924,0.00272891,-0.0151307,0.0,0.0,0.0
14208000,0.0057647,0.0026578,-0.0152313,0.0,0.0,0.0
14240000,0.00528807,0.00251501,-0.0148495,0.0,0.0,0.0
14272000,0.00545868,0.00285243,-0.0146451,0.0,0.0,0.0
14300000,0.0057226,0.00284095,-0.0149032,0.0,0.0,0.0
14328000,0.00630094,0.00329884,-0.0145039,0.0,0.0,0.0
14360000,0.00637246,0.00326346,-0.0143338,0.0,0.0,0.0
14388000,0.00633527,0.00387564,-0.0142522,0.0,0.0,0.0
14420000,0.00687931,0.00347935,-0.014739,0.0,0.0,0.0
14452000,0.00700183,0.00383917,-0.0147703,0.0,0.0,0.0
14484000,0.0076652,0.00362305,-0.0150071,0.0,0.0,0.0
14516000,0.00869957,0.00413978,-0.0150014,0.0,0.0,0.0
14544000,0.00886711,0.00440275,-0.0152343,0.0,0.0,0.0
14576000,0.00920664,0.00425716,-0.015678,0.0,0.0,0.0
14608000,0.00868081,0.00472426,-0.0153863,0.0,0.0,0.0
14640000,0.00957172,0.00487982,-0.0155904,0.0,0.0,0.0
14672000,0.00984252,0.00528468,-0.0163902,0.0,0.0,0.0
14700000,0.0101147,0.00499621,-0.0163202,0.0,0.0,0.0
14728000,0.0105009,0.00449014,-0.0166186,0.0,0.0,0.0
14752000,0.0104228,0.00448844,-0.0165991,0.0,0.0,0.0
14780000,0.010839,0.00416295,-0.016542,0.0,0.0,0.0
14808000,0.0106059,0.00409984,-0.0166246,0.0,0.0,0.0
14836000,0.0105753,0.002477,-0.0167391,0.0,0.0,0.0
14868000,0.010714,0.00243889,-0.0162641,0.0,0.0,0.0
14900000,0.0108396,0.00262566,-0.0167123,0.0,0.0,0.0
14932000,0.0106425,0.00224767,-0.0169492,0.0,0.0,0.0
14960000,0.00961081,0.00155862,-0.016948,0.0,0.0,0.0
14992000,0.00986541,0.00127787,-0.0169775,0.0,0.0,0.0
15024000,0.00860649,0.00135507,-0.0169496,0.0,0.0,0.0
15056000,0.00811569,0.000785492,-0.0167443,0.0,0.0,0.0
15080000,0.00817403,0.000828697,-0.0167691,0.0,0.0,0.0
15108000,0.00799284,-0.000843895,-0.0168587,0.0,0.0,0.0
15140000,0.00776621,-0.00158259,-0.016908,0.0,0.0,0.0
15172000,0.00740611,-0.00245291,-0.0169825,0.0,0.0,0.0
15204000,0.0069342,-0.00170211,-0.0168288,0.0,0.0,0.0
15236000,0.00738815,-0.00203298,-0.0179518,0.0,0.0,0.0
15268000,0.0062705,-0.00224443,-0.018056,0.0,0.0,0.0
15300000,0.00584674,-0.00144775,-0.0188187,0.0,0.0,0.0
15328000,0.00621485,-0.00117617,-0.019002,0.0,0.0,0.0
15356000,0.00651408,-0.00212955,-0.0193222,0.0,0.0,0.0
15388000,0.00640135,-0.00125849,-0.019365,0.0,0.0,0.0
15416000,0.00713064,-0.00164668,-0.0195495,0.0,0.0,0.0
15448000,0.00686589,-0.00219225,-0.0192431,0.0,0.0,0.0
15476000,0.00704341,-0.00247284,-0.0191375,0.0,0.0,0.0
15508000,0.00637046,-0.00297111,-0.0191463,0.0,0.0,0.0
15540000,0.00641821,-0.00304904,-0.0192606,0.0,0.0,0.0
15572000,0.00791492,-0.00304013,-0.019763,0.0,0.0,0.0
15600000,0.00759868,-0.00252913,-0.0200583,0.0,0.0,0.0
15628000,0.00777603,-0.0029158,-0.019881,0.0,0.0,0.0
15660000,0.00815855,-0.00344769,-0.0202089,0.0,0.0,0.0
15692000,0.00841931,-0.00288597,-0.0199965,0.0,0.0,0.0
15724000,0.00768335,-0.00234896,-0.0198079,0.0,0.0,0.0
15756000,0.00801703,-0.00268587,-0.0194513,0.0,0.0,0.0
15784000,0.00848085,-0.0027234,-0.0195346,0.0,0.0,0.0
15812000,0.00926888,-0.00249545,-0.0196553,0.0,0.0,0.0
15840000,0.00889132,-0.00264176,-0.0199938,0.0,0.0,0.0
15872000,0.00831293,-0.00312383,-0.0199049,0.0,0.0,0.0
15904000,0.00866839,-0.00229554,-0.01977,0.0,0.0,0.0
15932000,0.00834055,-0.00274154,-0.0201753,0.0,0.0,0.0
15964000,0.00894999,-0.00292127,-0.0201168,0.0,0.0,0.0
15992000,0.00884871,-0.00216529,-0.0199716,0.0,0.0,0.0
16024000,0.0089307,-0.00251238,-0.0205066,0.0,0.0,0.0
16052000,0.00894807,-0.00101079,-0.0203811,0.0,0.0,0.0
16084000,0.00969866,-0.000144529,-0.0204585,0.0,0.0,0.0
16116000,0.0098642,-0.000189688,-0.0206053,0.0,0.0,0.0
16144000,0.00960971,-0.00111268,-0.0204853,0.0,0.0,0.0
16176000,0.00989671,-0.00106212,-0.0206543,0.0,0.0,0.0
16208000,0.010281,-0.00147732,-0.0204209,0.0,0.0,0.0
16236000,0.0105097,-0.00165162,-0.0202538,0.0,0.0,0.0
16264000,0.0105318,-0.00214078,-0.0203902,0.0,0.0,0.0
16296000,0.0114324,-0.00226536,-0.0202751,0.0,0.0,0.0
16328000,0.0109739,-0.00165638,-0.0205351,0.0,0.0,0.0
16356000,0.0118471,-0.000972043,-0.0203208,0.0,0.0,0.0
16384000,0.0114939,-0.000365745,-0.0204089,0.0,0.0,0.0
16416000,0.0113688,-0.000158133,-0.0199791,0.0,0.0,0.0
16444000,0.0116633,-0.000337724,-0.0199894,0.0,0.0,0.0
16476000,0.0117295,0.000143241,-0.0199564,0.0,0.0,0.0
16504000,0.0122387,-0.000593239,-0.0198623,0.0,0.0,0.0
16536000,0.0122087,-0.00167595,-0.0197989,0.0,0.0,0.0
16564000,0.0122238,-0.00123839,-0.0197346,0.0,0.0,0.0
16596000,0.0135224,-0.000493288,-0.0192368,0.0,0.0,0.0
16628000,0.0128764,-3.66563e-05,-0.0189225,0.0,0.0,0.0
16660000,0.0130003,-0.000540506,-0.0186026,0.0,0.0,0.0
16692000,0.0138089,-0.00171477,-0.0184889,0.0,0.0,0.0
16724000,0.0140884,-0.00248932,-0.0180595,0.0,0.0,0.0
16752000,0.0145355,-0.00270448,-0.0175163,0.0,0.0,0.0
16780000,0.0145619,-0.00239639,-0.0175555,0.0,0.0,0.0
16808000,0.0156555,-0.00311189,-0.0178415,0.0,0.0,0.0
16836000,0.0157892,-0.00353874,-0.0175464,0.0,0.0,0.0
16868000,0.0149988,-0.00361917,-0.0176776,0.0,0.0,0.0
16900000,0.0150598,-0.00350606,-0.0178816,0.0,0.0,0.0
16928000,0.0142335,-0.00396205,-0.0179972,0.0,0.0,0.0
16952000,0.0150636,-0.00405639,-0.0178063,0.0,0.0,0.0
16976000,0.0146205,-0.0034999,-0.0181258,0.0,0.0,0.0
17008000,0.0146279,-0.00397365,-0.01758,0.0,0.0,0.0
17040000,0.0143463,-0.00389074,-0.0174316,0.0,0.0,0.0
17072000,0.0141142,-0.00279597,-0.017072,0.0,0.0,0.0
17104000,0.014303,-0.00313009,-0.0170091,0.0,0.0,0.0
17132000,0.013975,-0.00247036,-0.0170565,0.0,0.0,0.0
17164000,0.013469,-0.0016402,-0.0166574,0.0,0.0,0.0
17192000,0.0129867,-0.00232461,-0.0166903,0.0,0.0,0.0
17224000,0.0131857,-0.00154904,-0.016463,0.0,0.0,0.0
17256000,0.0129988,-0.000606753,-0.0165664,0.0,0.0,0.0
17284000,0.0123802,1.81499e-05,-0.0162627,0.0,0.0,0.0
17316000,0.0121064,0.000273742,-0.0163297,0.0,0.0,0.0
17348000,0.0126016,0.000358203,-0.01662,0.0,0.0,0.0
17380000,0.0133599,0.000550934,-0.0165255,0.0,0.0,0.0
17408000,0.0138112,0.00103176,-0.0171206,0.0,0.0,0.0
17436000,0.0139489,0.00194514,-0.0169921,0.0,0.0,0.0
17468000,0.0141353,0.00238984,-0.0175604,0.0,0.0,0.0
17500000,0.0142197,0.00286265,-0.0176472,0.0,0.0,0.0
17532000,0.0131138,0.00293691,-0.0178729,0.0,0.0,0.0
17564000,0.0129677,0.003633,-0.0179705,0.0,0.0,0.0
17592000,0.0122326,0.00332604,-0.0182706,0.0,0.0,0.0
17620000,0.0122624,0.00307736,-0.0178751,0.0,0.0,0.0
17652000,0.0128572,0.00135684,-0.0175851,0.0,0.0,0.0
17684000,0.0126493,0.000815561,-0.0176146,0.0,0.0,0.0
17716000,0.012695,0.00122714,-0.0170747,0.0,0.0,0.0
17748000,0.0128768,0.000288765,-0.0172962,0.0,0.0,0.0
17776000,0.0129653,0.000839973,-0.0170755,0.0,0.0,0.0
17804000,0.0129522,0.00120466,-0.0170567,0.0,0.0,0.0
17836000,0.0128834,0.00115197,-0.0169804,0.0,0.0,0.0
17868000,0.0137503,0.000853761,-0.0168246,0.0,0.0,0.0
17900000,0.0135922,-0.000554087,-0.0170281,0.0,0.0,0.0
17928000,0.0135428,0.000561438,-0.0171041,0.0,0.0,0.0
17956000,0.0136074,0.000247377,-0.0166782,0.0,0.0,0.0
17984000,0.0137337,0.000819613,-0.0162056,0.0,0.0,0.0
18012000,0.0132382,0.000176782,-0.0164455,0.0,0.0,0.0
18036000,0.0136192,0.000923857,-0.0161731,0.0,0.0,0.0
18068000,0.0137755,0.000670073,-0.0157069,0.0,0.0,0.0
18096000,0.0137906,0.0008512,-0.0153698,0.0,0.0,0.0
18124000,0.0147461,0.00225668,-0.0155388,0.0,0.0,0.0
18152000,0.0149253,0.00182038,-0.0155694,0.0,0.0,0.0
18180000,0.0148298,0.00141422,-0.0156416,0.0,0.0,0.0
18212000,0.01579,0.000823493,-0.0156792,0.0,0.0,0.0
18244000,0.0149036,0.000825559,-0.0155579,0.0,0.0,0.0
18276000,0.0147176,-0.000545546,-0.0154542,0.0,0.0,0.0
18304000,0.0158917,-0.00163862,-0.01567,0.0,0.0,0.0
18328000,0.0167281,-0.000897243,-0.0155461,0.0,0.0,0.0
18356000,0.0158802,-0.00152351,-0.0154222,0.0,0.0,0.0
18388000,0.0172574,-0.00135819,-0.0156451,0.0,0.0,0.0
18420000,0.0176902,-0.00108116,-0.0160326,0.0,0.0,0.0
18448000,0.0183442,0.000108056,-0.0166018,0.0,0.0,0.0
18480000,0.0186017,0.000897326,-0.016106,0.0,0.0,0.0
18512000,0.0188972,0.00132298,-0.0160893,0.0,0.0,0.0
18544000,0.0187155,0.00229395,-0.016448,0.0,0.0,0.0
18576000,0.0196668,0.00199031,-0.016828,0.0,0.0,0.0
18608000,0.020134,0.0025727,-0.0169655,0.0,0.0,0.0
18640000,0.0205198,0.0024149,-0.0170599,0.0,0.0,0.0
18668000,0.019365,0.00219164,-0.0170238,0.0,0.0,0.0
18696000,0.0185881,0.00192452,-0.0171795,0.0,0.0,0.0
18724000,0.0181416,0.00147855,-0.0174316,0.0,0.0,0.0
18756000,0.0180928,0.00129264,-0.0175244,0.0,0.0,0.0
18788000,0.0174792,0.00133095,-0.0172726,0.0,0.0,0.0
18812000,0.017798,0.001451,-0.0174635,0.0,0.0,0.0
18844000,0.017112,0.00128724,-0.0176647,0.0,0.0,0.0
18872000,0.0164711,-0.000418746,-0.0174265,0.0,0.0,0.0
18900000,0.016695,-0.00012817,-0.0175156,0.0,0.0,0.0
18932000,0.0162601,-0.00022335,-0.0171588,0.0,0.0,0.0
18964000,0.0154241,-0.000960903,-0.0165062,0.0,0.0,0.0
18996000,0.0142866,-0.000923941,-0.0168325,0.0,0.0,0.0
19028000,0.0148356,-0.000134866,-0.0167085,0.0,0.0,0.0
19060000,0.0139917,-0.00052152,-0.0167462,0.0,0.0,0.0
19088000,0.0144722,-0.00109759,-0.016787,0.0,0.0,0.0
19120000,0.0127963,-0.00120159,-0.0166932,0.0,0.0,0.0
19148000,0.0125414,-0.000467609,-0.0165664,0.0,0.0,0.0
19176000,0.0109871,0.000374527,-0.0164467,0.0,0.0,0.0
19204000,0.0112373,-0.000205507,-0.0164644,0.0,0.0,0.0
19232000,0.0118965,-0.000352626,-0.0164623,0.0,0.0,0.0
19264000,0.0118047,0.000378976,-0.0167619,0.0,0.0,0.0
19296000,0.0118987,0.000628066,-0.0169668,0.0,0.0,0.0
19324000,0.0113134,0.00030771,-0.0168912,0.0,0.0,0.0
19352000,0.0109258,6.81572e-05,-0.0166144,0.0,0.0,0.0
19384000,0.0114208,-0.000283277,-0.0163976,0.0,0.0,0.0
19416000,0.0112168,0.000281268,-0.0170258,0.0,0.0,0.0
19448000,0.0100632,-0.000216465,-0.0169171,0.0,0.0,0.0
19476000,0.0103221,4.87054e-05,-0.0166282,0.0,0.0,0.0
19508000,0.0099629,0.000483088,-0.0165398,0.0,0.0,0.0
19540000,0.0104982,-1.0633e-05,-0.0163535,0.0,0.0,0.0
19572000,0.010324,-0.000440774,-0.0160508,0.0,0.0,0.0
19604000,0.00973277,-0.00012026,-0.0157954,0.0,0.0,0.0
19636000,0.0103796,-0.0017542,-0.0159308,0.0,0.0,0.0
19660000,0.0101716,-0.000899984,-0.0156851,0.0,0.0,0.0
19692000,0.0112867,-0.00212898,-0.0152995,0.0,0.0,0.0
19724000,0.0114238,-0.00263175,-0.0148184,0.0,0.0,0.0
19752000,0.0105026,-0.0023668,-0.0152572,0.0,0.0,0.0
19784000,0.0110516,-0.0022117,-0.0151404,0.0,0.0,0.0
19812000,0.00995314,-0.00190446,-0.0154106,0.0,0.0,0.0
19844000,0.010815,-0.00212548,-0.0152259,0.0,0.0,0.0
19872000,0.010162,-0.00140797,-0.0148437,0.0,0.0,0.0
19900000,0.00988176,-0.00178419,-0.0149904,0.0,0.0,0.0
19928000,0.00971893,-0.000481086,-0.0151754,0.0,0.0,0.0
19960000,0.00876055,-0.00104567,-0.0155757,0.0,0.0,0.0
19988000,0.00839682,-0.00025424,-0.0153645,0.0,0.0,0.0
20020000,0.00904112,-0.000181925,-0.01549,0.0,0.0,0.0
20044000,0.00856721,-0.0012954,-0.0152245,0.0,0.0,0.0
20072000,0.00702002,-0.0017086,-0.0149995,0.0,0.0,0.0
20100000,0.00608113,-0.00237685,-0.0154471,0.0,0.0,0.0
20132000,0.00565474,-0.00206862,-0.0154116,0.0,0.0,0.0
20160000,0.00512951,-0.00164792,-0.0153218,0.0,0.0,0.0
20192000,0.00507172,-0.00201919,-0.0153783,0.0,0.0,0.0
20216000,0.005235,-0.0022922,-0.0154999,0.0,0.0,0.0
20244000,0.00424807,-0.00227539,-0.0153043,0.0,0.0,0.0
20276000,0.00443782,-0.0017791,-0.0151734,0.0,0.0,0.0
20308000,0.004398,-0.00115228,-0.0157071,0.0,0.0,0.0
20336000,0.00494744,-0.00122783,-0.0153988,0.0,0.0,0.0
20364000,0.00391667,-0.000844259,-0.0152172,0.0,0.0,0.0
20396000,0.00363169,0.000514115,-0.0149954,0.0,0.0,0.0
20424000,0.00376867,0.00030428,-0.014978,0.0,0.0,0.0
20452000,0.00352642,-0.000333675,-0.0154808,0.0,0.0,0.0
20484000,0.00375924,-0.000279976,-0.0157616,0.0,0.0,0.0
20516000,0.00437126,-0.00130109,-0.0156413,0.0,0.0,0.0
20544000,0.00342062,-0.000809099,-0.0158468,0.0,0.0,0.0
20572000,0.00405762,-0.000417113,-0.0154651,0.0,0.0,0.0
20604000,0.00327224,0.000856056,-0.0158631,0.0,0.0,0.0
20636000,0.00337998,0.000476619,-0.0156757,0.0,0.0,0.0
20664000,0.00397005,0.00192563,-0.0157448,0.0,0.0,0.0
20696000,0.00440653,0.00146551,-0.0159744,0.0,0.0,0.0
20728000,0.00555125,0.00213139,-0.0158976,0.0,0.0,0.0
20760000,0.00702482,0.00273004,-0.0164137,0.0,0.0,0.0
20792000,0.00679318,0.00233224,-0.0165049,0.0,0.0,0.0
20824000,0.00608847,0.00311584,-0.0164879,0.0,0.0,0.0
20856000,0.00583662,0.00303132,-0.016485,0.0,0.0,0.0
20888000,0.00538255,0.00271494,-0.0162922,0.0,0.0,0.0
20920000,0.00459372,0.00382004,-0.0165139,0.0,0.0,0.0
20944000,0.00366201,0.00493776,-0.016631,0.0,0.0,0.0
20976000,0.00418641,0.00539142,-0.0167525,0.0,0.0,0.0
21008000,0.00437079,0.00600771,-0.0163859,0.0,0.0,0.0
21040000,0.00558175,0.00486477,-0.0158104,0.0,0.0,0.0
21068000,0.00614447,0.00448265,-0.0159791,0.0,0.0,0.0
21096000,0.00586637,0.00591881,-0.0161976,0.0,0.0,0.0
21128000,0.00591566,0.00588185,-0.0160424,0.0,0.0,0.0
21160000,0.00640396,0.00570329,-0.0163796,0.0,0.0,0.0
21188000,0.00529662,0.0068862,-0.0165585,0.0,0.0,0.0
21220000,0.00429164,0.00680215,-0.0167977,0.0,0.0,0.0
21252000,0.00335688,0.00641174,-0.0165425,0.0,0.0,0.0
21284000,0.00350116,0.00635102,-0.0168766,0.0,0.0,0.0
21312000,0.00371126,0.00685155,-0.0171341,0.0,0.0,0.0
21340000,0.00315926,0.00634884,-0.0171055,0.0,0.0,0.0
21372000,0.00284377,0.00637951,-0.0172664,0.0,0.0,0.0
21404000,0.00235686,0.00667236,-0.016968,0.0,0.0,0.0
21432000,0.00289939,0.00608154,-0.0163786,0.0,0.0,0.0
21464000,0.00238306,0.00580772,-0.0160302,0.0,0.0,0.0
21496000,0.00142516,0.00538287,-0.0161237,0.0,0.0,0.0
21524000,0.00132518,0.00633174,-0.0159764,0.0,0.0,0.0
21552000,0.00183022,0.00661655,-0.0159954,0.0,0.0,0.0
21580000,0.00200382,0.0064277,-0.0160042,0.0,0.0,0.0
21608000,0.00055804,0.00677482,-0.0154994,0.0,0.0,0.0
21640000,0.000659103,0.00649443,-0.0153206,0.0,0.0,0.0
21672000,0.000996388,0.00742262,-0.0150104,0.0,0.0,0.0
21704000,0.00118035,0.00761834,-0.0151468,0.0,0.0,0.0
21732000,0.00164539,0.00797651,-0.0149858,0.0,0.0,0.0
21764000,0.000403348,0.00868725,-0.0153078,0.0,0.0,0.0
21796000,-0.000468512,0.00854521,-0.0155819,0.0,0.0,0.0
21828000,-0.00107135,0.00857496,-0.0159951,0.0,0.0,0.0
21856000,-0.00165914,0.00851261,-0.0162873,0.0,0.0,0.0
21888000,-0.00246765,0.00816986,-0.0161853,0.0,0.0,0.0
21920000,-0.00263964,0.00819901,-0.0166198,0.0,0.0,0.0
21952000,-0.00193412,0.00840167,-0.0160816,0.0,0.0,0.0
21980000,-0.00220828,0.00953255,-0.0160946,0.0,0.0,0.0
22008000,-0.0026888,0.00974711,-0.0159158,0.0,0.0,0.0
22040000,-0.00288781,0.00968157,-0.0163412,0.0,0.0,0.0
22072000,-0.00287421,0.00923444,-0.0167312,0.0,0.0,0.0
22104000,-0.00281906,0.00983221,-0.0167223,0.0,0.0,0.0
22132000,-0.0026464,0.0102406,-0.0167089,0.0,0.0,0.0
22160000,-0.00260356,0.010777,-0.0164184,0.0,0.0,0.0
22188000,-0.00289983,0.0110538,-0.0165955,0.0,0.0,0.0
22220000,-0.00283104,0.0113871,-0.0165181,0.0,0.0,0.0
22252000,-0.00263326,0.0124567,-0.0167708,0.0,0.0,0.0
22276000,-0.00289474,0.0132647,-0.0163985,0.0,0.0,0.0
22308000,-0.00274669,0.0133168,-0.0159851,0.0,0.0,0.0
22340000,-0.00216562,0.012355,-0.0159854,0.0,0.0,0.0
22368000,-0.00172715,0.0126749,-0.0156949,0.0,0.0,0.0
22396000,-0.00104266,0.0127572,-0.0156263,0.0,0.0,0.0
22424000,-0.00135305,0.0128706,-0.0155723,0.0,0.0,0.0
22452000,-0.00133275,0.0129028,-0.0157843,0.0,0.0,0.0
22480000,-0.00233972,0.0129841,-0.01608,0.0,0.0,0.0
22508000,-0.00192354,0.0143527,-0.0161032,0.0,0.0,0.0
22540000,-0.00228279,0.0142809,-0.0161334,0.0,0.0,0.0
22572000,-0.00268927,0.014287,-0.0158149,0.0,0.0,0.0
22604000,-0.00194922,0.0140767,-0.0155381,0.0,0.0,0.0
22636000,-0.00191063,0.0130471,-0.0157654,0.0,0.0,0.0
22664000,-0.0022222,0.0132376,-0.0157857,0.0,0.0,0.0
22696000,-0.00157476,0.0140085,-0.0158062,0.0,0.0,0.0
22728000,-0.00131947,0.0139436,-0.0159273,0.0,0.0,0.0
22760000,-0.000981103,0.0132872,-0.0159712,0.0,0.0,0.0
22788000,-0.00103755,0.0123056,-0.0156368,0.0,0.0,0.0
22820000,-0.00236837,0.0128512,-0.0157417,0.0,0.0,0.0
22848000,-0.00161881,0.0132999,-0.0158906,0.0,0.0,0.0
22876000,-0.00164677,0.0138662,-0.0157639,0.0,0.0,0.0
22904000,-0.00206244,0.0137632,-0.015967,0.0,0.0,0.0
22936000,-0.0024602,0.013852,-0.0159444,0.0,0.0,0.0
22960000,-0.00325805,0.0130322,-0.0161811,0.0,0.0,0.0
22988000,-0.00403354,0.0132412,-0.0162267,0.0,0.0,0.0
23016000,-0.00472424,0.0133805,-0.0164969,0.0,0.0,0.0
23044000,-0.00452211,0.013289,-0.0161875,0.0,0.0,0.0
23072000,-0.00402907,0.0134871,-0.0165432,0.0,0.0,0.0
23104000,-0.00357913,0.0120319,-0.0167611,0.0,0.0,0.0
23136000,-0.00388885,0.0123115,-0.0167902,0.0,0.0,0.0
23168000,-0.00406009,0.0126369,-0.0164008,0.0,0.0,0.0
23200000,-0.00382766,0.0130066,-0.0163556,0.0,0.0,0.0
23228000,-0.00279008,0.0130589,-0.0162841,0.0,0.0,0.0
23260000,-0.0031773,0.0127266,-0.0163617,0.0,0.0,0.0
23292000,-0.00283015,0.0136528,-0.0169731,0.0,0.0,0.0
23324000,-0.00257524,0.0147899,-0.0168464,0.0,0.0,0.0
23356000,-0.0021756,0.0136838,-0.0172018,0.0,0.0,0.0
23384000,-0.00255872,0.0138715,-0.0167902,0.0,0.0,0.0
23412000,-0.00281037,0.0148481,-0.0163786,0.0,0.0,0.0
23444000,-0.00142972,0.0137213,-0.0160918,0.0,0.0,0.0
23476000,-0.000884617,0.0149895,-0.016264,0.0,0.0,0.0
23504000,8.10849e-05,0.0153985,-0.0161657,0.0,0.0,0.0
23532000,2.99047e-05,0.0158047,-0.0162996,0.0,0.0,0.0
23556000,0.00150699,0.0157307,-0.0167178,0.0,0.0,0.0
23584000,0.00277581,0.0151893,-0.0167828,0.0,0.0,0.0
23612000,0.00319976,0.0146665,-0.0168781,0.0,0.0,0.0
23640000,0.00257069,0.0145649,-0.0174062,0.0,0.0,0.0
23672000,0.00373396,0.0150188,-0.0176124,0.0,0.0,0.0
23700000,0.00373227,0.0151503,-0.0179165,0.0,0.0,0.0
23728000,0.00434757,0.0142243,-0.0182464,0.0,0.0,0.0
23760000,0.0040122,0.0135647,-0.0180555,0.0,0.0,0.0
23792000,0.00347793,0.0133464,-0.0182959,0.0,0.0,0.0
23820000,0.00383033,0.012283,-0.017661,0.0,0.0,0.0
23848000,0.00439772,0.0115915,-0.0180555,0.0,0.0,0.0
23876000,0.00459686,0.0104816,-0.0178965,0.0,0.0,0.0
23904000,0.00473101,0.0101131,-0.0181729,0.0,0.0,0.0
23936000,0.00555598,0.00914886,-0.0186705,0.0,0.0,0.0
23964000,0.00530606,0.00925117,-0.0187322,0.0,0.0,0.0
23988000,0.00557396,0.00919827,-0.0186209,0.0,0.0,0.0
24016000,0.00612316,0.00985388,-0.0184542,0.0,0.0,0.0
24048000,0.00677177,0.0108739,-0.0181998,0.0,0.0,0.0
24076000,0.00739361,0.0103937,-0.0182823,0.0,0.0,0.0
24104000,0.00689408,0.0112191,-0.0183415,0.0,0.0,0.0
24136000,0.0069668,0.0110116,-0.0187831,0.0,0.0,0.0
24168000,0.00687352,0.010387,-0.0185096,0.0,0.0,0.0
24200000,0.00787235,0.00928176,-0.0180317,0.0,0.0,0.0
24228000,0.00765852,0.00939487,-0.017948,0.0,0.0,0.0
24256000,0.00728746,0.0103744,-0.0178668,0.0,0.0,0.0
24284000,0.00695542,0.0104533,-0.0182656,0.0,0.0,0.0
24316000,0.00587349,0.0100644,-0.0187368,0.0,0.0,0.0
24344000,0.00550171,0.00978901,-0.0177853,0.0,0.0,0.0
24376000,0.00488027,0.00967039,-0.0177317,0.0,0.0,0.0
24408000,0.00542459,0.00996808,-0.0181133,0.0,0.0,0.0
24440000,0.00501646,0.0100531,-0.0182408,0.0,0.0,0.0
24468000,0.00521034,0.00988734,-0.0187088,0.0,0.0,0.0
24496000,0.00511785,0.00972951,-0.0186739,0.0,0.0,0.0
24524000,0.00561513,0.00977339,-0.0189821,0.0,0.0,0.0
24552000,0.00512216,0.00954308,-0.0182957,0.0,0.0,0.0
24580000,0.00513261,0.00924123,-0.0188877,0.0,0.0,0.0
24612000,0.00400639,0.0090807,-0.0186259,0.0,0.0,0.0
24640000,0.00381334,0.00930439,-0.0182998,0.0,0.0,0.0
24668000,0.00304722,0.00973234,-0.0182881,0.0,0.0,0.0
24700000,0.00354205,0.0103768,-0.0183102,0.0,0.0,0.0
24728000,0.00355523,0.0113805,-0.0183985,0.0,0.0,0.0
24760000,0.00403898,0.010958,-0.0180691,0.0,0.0,0.0
24784000,0.0038546,0.010262,-0.017938,0.0,0.0,0.0
24812000,0.0035677,0.0108482,-0.0180504,0.0,0.0,0.0
24844000,0.00348073,0.011425,-0.0179968,0.0,0.0,0.0
24876000,0.00267457,0.0108053,-0.0179653,0.0,0.0,0.0
24904000,0.00184141,0.0118186,-0.017683,0.0,0.0,0.0
24936000,0.00110709,0.0113215,-0.0175031,0.0,0.0,0.0
24968000,0.0010858,0.0119203,-0.0168471,0.0,0.0,0.0
24996000,0.00125246,0.0116404,-0.0170494,0.0,0.0,0.0
25028000,0.00179223,0.0112972,-0.0171767,0.0,0.0,0.0
25060000,0.00148142,0.0106664,-0.0173014,0.0,0.0,0.0
25088000,0.00160392,0.00992324,-0.0170112,0.0,0.0,0.0
25116000,0.00197653,0.00952123,-0.0169753,0.0,0.0,0.0
25148000,0.00192245,0.0101257,-0.0170972,0.0,0.0,0.0
25176000,0.00215523,0.00965219,-0.0170035,0.0,0.0,0.0
25208000,0.00305341,0.0107713,-0.0168704,0.0,0.0,0.0
25240000,0.00354683,0.0101812,-0.0165647,0.0,0.0,0.0
25272000,0.00394147,0.0101328,-0.0164814,0.0,0.0,0.0
25300000,0.00508072,0.0100047,-0.0166861,0.0,0.0,0.0
25328000,0.00598181,0.0107438,-0.0170161,0.0,0.0,0.0
25360000,0.00542591,0.0111643,-0.017376,0.0,0.0,0.0
25388000,0.00632068,0.012673,-0.0174799,0.0,0.0,0.0
25420000,0.0060988,0.0132746,-0.0177503,0.0,0.0,0.0
25448000,0.00553961,0.0133467,-0.0173537,0.0,0.0,0.0
25480000,0.00619271,0.013365,-0.0171983,0.0,0.0,0.0
25512000,0.00567704,0.0131599,-0.0170424,0.0,0.0,0.0
25544000,0.00573125,0.0125677,-0.0171517,0.0,0.0,0.0
25572000,0.00520961,0.0127241,-0.017379,0.0,0.0,0.0
25604000,0.00543609,0.0130717,-0.0172612,0.0,0.0,0.0
25632000,0.00474694,0.0126121,-0.017326,0.0,0.0,0.0
25664000,0.0056773,0.0120752,-0.0176022,0.0,0.0,0.0
25696000,0.00581157,0.0108172,-0.0174487,0.0,0.0,0.0
25728000,0.00502537,0.0107595,-0.0176989,0.0,0.0,0.0
25752000,0.0049405,0.0100739,-0.0177977,0.0,0.0,0.0
25784000,0.00505577,0.009741,-0.0174808,0.0,0.0,0.0
25812000,0.00494402,0.0103352,-0.0173868,0.0,0.0,0.0
25840000,0.00448346,0.0105015,-0.017342,0.0,0.0,0.0
25872000,0.00437295,0.00923258,-0.0171666,0.0,0.0,0.0
25900000,0.00359712,0.00857186,-0.0172387,0.0,0.0,0.0
25932000,0.00409192,0.00821476,-0.0176123,0.0,0.0,0.0
25960000,0.00415161,0.00808755,-0.0179719,0.0,0.0,0.0
25988000,0.00516276,0.00756757,-0.0180322,0.0,0.0,0.0
26020000,0.00522883,0.00734259,-0.0181662,0.0,0.0,0.0
26048000,0.00597741,0.00733538,-0.0181937,0.0,0.0,0.0
26076000,0.00573612,0.00785688,-0.0186711,0.0,0.0,0.0
26104000,0.00708563,0.00842255,-0.0183408,0.0,0.0,0.0
26136000,0.00591236,0.00887764,-0.0180335,0.0,0.0,0.0
26164000,0.00506262,0.00860152,-0.0182678,0.0,0.0,0.0
26196000,0.00525461,0.00836209,-0.01841,0.0,0.0,0.0
26228000,0.0058418,0.00823918,-0.0191572,0.0,0.0,0.0
26260000,0.0063879,0.00781929,-0.0189635,0.0,0.0,0.0
26292000,0.00699115,0.00811813,-0.019006,0.0,0.0,0.0
26320000,0.00716852,0.00776577,-0.0191575,0.0,0.0,0.0
26352000,0.00704179,0.00740218,-0.0192115,0.0,0.0,0.0
26384000,0.00673007,0.00774911,-0.0191599,0.0,0.0,0.0
26412000,0.00752713,0.00768213,-0.0195899,0.0,0.0,0.0
26440000,0.00749057,0.00790886,-0.0196577,0.0,0.0,0.0
26464000,0.00838286,0.00733141,-0.0202225,0.0,0.0,0.0
26492000,0.00893548,0.0075333,-0.020336,0.0,0.0,0.0
26524000,0.00920596,0.00762958,-0.0205699,0.0,0.0,0.0
26556000,0.0100601,0.00810058,-0.0210033,0.0,0.0,0.0
26584000,0.0106913,0.00660879,-0.0212303,0.0,0.0,0.0
26616000,0.0104776,0.00610897,-0.0212744,0.0,0.0,0.0
26648000,0.0106186,0.00641671,-0.0215672,0.0,0.0,0.0
26676000,0.0100192,0.00611682,-0.021646,0.0,0.0,0.0
26704000,0.00953797,0.00554058,-0.0213196,0.0,0.0,0.0
26732000,0.00968633,0.00420095,-0.0213488,0.0,0.0,0.0
26760000,0.0102709,0.00543244,-0.0216245,0.0,0.0,0.0
26788000,0.0102628,0.00495113,-0.0213379,0.0,0.0,0.0
26816000,0.0103427,0.00521354,-0.0213026,0.0,0.0,0.0
26844000,0.0105886,0.00478325,-0.0211484,0.0,0.0,0.0
26876000,0.0101981,0.00518175,-0.021418,0.0,0.0,0.0
26908000,0.0110066,0.00546346,-0.0216908,0.0,0.0,0.0
26940000,0.0112362,0.00535104,-0.021805,0.0,0.0,0.0
26972000,0.0117147,0.00485854,-0.021612,0.0,0.0,0.0
27000000,0.0117655,0.0030895,-0.0214621,0.0,0.0,0.0
27032000,0.012096,0.00215802,-0.0217331,0.0,0.0,0.0
27064000,0.0117263,0.00197044,-0.0218824,0.0,0.0,0.0
27092000,0.0106496,0.00359721,-0.0221011,0.0,0.0,0.0
27124000,0.0101175,0.00295114,-0.0224471,0.0,0.0,0.0
27152000,0.0112292,0.00265545,-0.0226172,0.0,0.0,0.0
27184000,0.0113514,0.00168016,-0.0225584,0.0,0.0,0.0
27212000,0.0109374,0.00235379,-0.02234,0.0,0.0,0.0
27240000,0.0101944,0.0027797,-0.0224568,0.0,0.0,0.0
27272000,0.00999541,0.00260575,-0.0223438,0.0,0.0,0.0
27304000,0.0100086,0.00302374,-0.0221141,0.0,0.0,0.0
27336000,0.0100004,0.00319978,-0.0227556,0.0,0.0,0.0
27368000,0.0105814,0.00347504,-0.0227379,0.0,0.0,0.0
27400000,0.010323,0.0039404,-0.02291,0.0,0.0,0.0
27432000,0.00998436,0.00288165,-0.0231043,0.0,0.0,0.0
27460000,0.00977754,0.00315468,-0.0234949,0.0,0.0,0.0
27492000,0.00978665,0.00362834,-0.0234321,0.0,0.0,0.0
27524000,0.00927668,0.00348733,-0.0236023,0.0,0.0,0.0
27552000,0.00897263,0.0031317,-0.0233644,0.0,0.0,0.0
27584000,0.00923611,0.00260799,-0.0227669,0.0,0.0,0.0
27616000,0.00967885,0.00214057,-0.0228822,0.0,0.0,0.0
27648000,0.00959434,0.00198473,-0.022731,0.0,0.0,0.0
27676000,0.0110375,0.00216677,-0.0224612,0.0,0.0,0.0
27708000,0.0104405,0.00245386,-0.0219069,0.0,0.0,0.0
27740000,0.0111049,0.00227398,-0.0218579,0.0,0.0,0.0
27768000,0.0114252,0.00275331,-0.0215694,0.0,0.0,0.0
27800000,0.013192,0.00256819,-0.021339,0.0,0.0,0.0
27828000,0.0135659,0.00372679,-0.0208996,0.0,0.0,0.0
27860000,0.0138449,0.00302731,-0.0207683,0.0,0.0,0.0
27892000,0.013871,0.00336466,-0.0207594,0.0,0.0,0.0
27924000,0.0140529,0.00371098,-0.0208362,0.0,0.0,0.0
27956000,0.014529,0.00217489,-0.0208785,0.0,0.0,0.0
27988000,0.014382,0.00243767,-0.021051,0.0,0.0,0.0
28020000,0.0138384,0.00158474,-0.0207916,0.0,0.0,0.0
28048000,0.0146905,0.00132933,-0.0206988,0.0,0.0,0.0
28080000,0.0144529,0.000499205,-0.0208286,0.0,0.0,0.0
28112000,0.0142598,0.000776239,-0.0202931,0.0,0.0,0.0
28140000,0.0151254,0.0011384,-0.0196095,0.0,0.0,0.0
28168000,0.0151673,0.0014956,-0.0197227,0.0,0.0,0.0
28200000,0.0140544,0.00174632,-0.0193293,0.0,0.0,0.0
28232000,0.0140579,0.00126609,-0.0196016,0.0,0.0,0.0
28260000,0.0149137,0.0011354,-0.019484,0.0,0.0,0.0
28292000,0.0147151,5.01305e-05,-0.0193639,0.0,0.0,0.0
28324000,0.0147637,-0.000222341,-0.0191934,0.0,0.0,0.0
28352000,0.0148965,-0.000115087,-0.019569,0.0,0.0,0.0
28380000,0.0154527,-0.000151432,-0.0196058,0.0,0.0,0.0
28412000,0.0166515,-0.00109977,-0.0194955,0.0,0.0,0.0
28444000,0.0167509,-0.00171651,-0.019495,0.0,0.0,0.0
28476000,0.0171845,-0.00254358,-0.0192367,0.0,0.0,0.0
28508000,0.0174477,-0.00255206,-0.019222,0.0,0.0,0.0
28536000,0.0168823,-0.00283952,-0.0192223,0.0,0.0,0.0
28568000,0.0159857,-0.00260713,-0.0191197,0.0,0.0,0.0
28592000,0.0160354,-0.00281718,-0.0191839,0.0,0.0,0.0
28624000,0.0150502,-0.00333718,-0.0188429,0.0,0.0,0.0
28656000,0.014709,-0.00367406,-0.0189399,0.0,0.0,0.0
28688000,0.0148903,-0.00410993,-0.0191215,0.0,0.0,0.0
28716000,0.0147295,-0.00364029,-0.0192545,0.0,0.0,0.0
28748000,0.0145289,-0.00270001,-0.019959,0.0,0.0,0.0
28780000,0.0136503,-0.00256231,-0.0194408,0.0,0.0,0.0
28808000,0.0138406,-0.00205284,-0.0192062,0.0,0.0,0.0
28832000,0.0135943,-0.00152963,-0.0191282,0.0,0.0,0.0
28860000,0.01317,-0.000936421,-0.0191629,0.0,0.0,0.0
28892000,0.0131703,-0.000266432,-0.01892,0.0,0.0,0.0
28916000,0.0121212,-0.00066053,-0.0192896,0.0,0.0,0.0
28944000,0.0116181,-0.00065361,-0.0192206,0.0,0.0,0.0
28972000,0.0117019,-0.000785221,-0.0193441,0.0,0.0,0.0
29004000,0.0111877,-0.000991682,-0.0197006,0.0,0.0,0.0
29036000,0.0119856,-0.000465452,-0.0193619,0.0,0.0,0.0
29064000,0.012405,-0.000938667,-0.0196474,0.0,0.0,0.0
29096000,0.0115844,-0.000974145,-0.0191992,0.0,0.0,0.0
29128000,0.0114044,-0.000779696,-0.0192953,0.0,0.0,0.0
29156000,0.0115929,-0.000943972,-0.0196852,0.0,0.0,0.0
29184000,0.011117,-0.00119682,-0.0192827,0.0,0.0,0.0
29216000,0.0115861,-0.00182105,-0.0190349,0.0,0.0,0.0
29248000,0.0111791,-0.00137854,-0.0190655,0.0,0.0,0.0
29276000,0.0106145,-0.00126183,-0.0189004,0.0,0.0,0.0
29304000,0.011094,-0.00247901,-0.0187635,0.0,0.0,0.0
29332000,0.010583,-0.00302914,-0.018755,0.0,0.0,0.0
29364000,0.0105431,-0.00300572,-0.0187185,0.0,0.0,0.0
29392000,0.0110135,-0.00279207,-0.0182765,0.0,0.0,0.0
29420000,0.0111696,-0.00280182,-0.0188594,0.0,0.0,0.0
29452000,0.0111256,-0.0025716,-0.0184454,0.0,0.0,0.0
29484000,0.00973495,-0.00293636,-0.0184464,0.0,0.0,0.0
29516000,0.0100199,-0.00332636,-0.0181533,0.0,0.0,0.0
29548000,0.0100921,-0.00307457,-0.0183675,0.0,0.0,0.0
29576000,0.0102462,-0.00304088,-0.0185457,0.0,0.0,0.0
29608000,0.00961835,-0.00268038,-0.0183875,0.0,0.0,0.0
29632000,0.00857749,-0.00266844,-0.0181354,0.0,0.0,0.0
29660000,0.0081568,-0.00216525,-0.0178778,0.0,0.0,0.0
29692000,0.00841779,-0.00186722,-0.0179743,0.0,0.0,0.0
29724000,0.00855398,-0.00236524,-0.0178009,0.0,0.0,0.0
29752000,0.00884274,-0.00181095,-0.0177705,0.0,0.0,0.0
29780000,0.00848758,-0.00177699,-0.0174308,0.0,0.0,0.0
29812000,0.00923848,-0.00264776,-0.0170439,0.0,0.0,0.0
29844000,0.00856547,-0.00318751,-0.0174115,0.0,0.0,0.0
29876000,0.00884861,-0.00301125,-0.0174345,0.0,0.0,0.0
29908000,0.00833225,-0.00325395,-0.0173488,0.0,0.0,0.0
29940000,0.00791819,-0.00257651,-0.0174368,0.0,0.0,0.0
29968000,0.00832818,-0.00306545,-0.0176031,0.0,0.0,0.0
29996000,0.00881326,-0.0031783,-0.0178164,0.0,0.0,0.0
30020000,0.00919072,-0.00265292,-0.0180599,0.0,0.0,0.0
30048000,0.00879231,-0.00239642,-0.0181673,0.0,0.0,0.0
30080000,0.00836083,-0.00177329,-0.0186722,0.0,0.0,0.0
30108000,0.0081363,-0.00181739,-0.0186793,0.0,0.0,0.0
30136000,0.00755398,-0.000942867,-0.0188466,0.0,0.0,0.0
30168000,0.00704377,-0.000996227,-0.0183759,0.0,0.0,0.0
30196000,0.00693345,-0.00139558,-0.0180781,0.0,0.0,0.0
30228000,0.00729249,-0.00173273,-0.0186641,0.0,0.0,0.0
30260000,0.00610923,-0.0026291,-0.018861,0.0,0.0,0.0
30288000,0.00635695,-0.00216691,-0.0188063,0.0,0.0,0.0
30316000,0.0063213,-0.00147133,-0.0185688,0.0,0.0,0.0
30344000,0.00617502,-0.00128601,-0.0185261,0.0,0.0,0.0
30376000,0.0067896,-0.00188514,-0.0183044,0.0,0.0,0.0
30404000,0.00630105,-0.000504068,-0.0183106,0.0,0.0,0.0
30436000,0.00670119,-0.000610652,-0.0185461,0.0,0.0,0.0
30468000,0.0065525,-0.00039901,-0.0183586,0.0,0.0,0.0
30500000,0.0063807,-0.000734654,-0.0180578,0.0,0.0,0.0
30532000,0.00653379,-0.000589512,-0.0178912,0.0,0.0,0.0
30556000,0.00696035,-0.000460675,-0.017908,0.0,0.0,0.0
30588000,0.00677344,-0.00081483,-0.0187229,0.0,0.0,0.0
30620000,0.00658782,5.57935e-05,-0.0185397,0.0,0.0,0.0
30648000,0.00587538,0.000835019,-0.0189645,0.0,0.0,0.0
30680000,0.00582046,-0.000176879,-0.0188494,0.0,0.0,0.0
30712000,0.00569621,6.934e-05,-0.018836,0.0,0.0,0.0
30740000,0.00668052,-3.63158e-05,-0.0185903,0.0,0.0,0.0
30772000,0.00715179,0.000247338,-0.0183981,0.0,0.0,0.0
30804000,0.00584889,-0.000642274,-0.0183449,0.0,0.0,0.0
30832000,0.00701243,-0.0011217,-0.0185532,0.0,0.0,0.0
30860000,0.00579406,-0.00117758,-0.0187172,0.0,0.0,0.0
30888000,0.00570798,-0.00102755,-0.0187193,0.0,0.0,0.0
30920000,0.00532256,-0.000373668,-0.0189718,0.0,0.0,0.0
30952000,0.00642826,-2.22349e-05,-0.0184953,0.0,0.0,0.0
30984000,0.00519767,-0.000401228,-0.0185422,0.0,0.0,0.0
31012000,0.0057702,-1.07152e-07,-0.0185603,0.0,0.0,0.0
31044000,0.00609336,0.000503061,-0.0184415,0.0,0.0,0.0
31072000,0.00674037,0.000262677,-0.0182441,0.0,0.0,0.0
31104000,0.00716891,0.000199417,-0.0182232,0.0,0.0,0.0
31132000,0.00733384,-0.000215856,-0.0186336,0.0,0.0,0.0
31164000,0.00645956,0.000758454,-0.0186536,0.0,0.0,0.0
31196000,0.00595013,0.00159976,-0.0188336,0.0,0.0,0.0
31228000,0.00538701,0.00227807,-0.0193495,0.0,0.0,0.0
31260000,0.00514885,0.00374506,-0.0193489,0.0,0.0,0.0
31288000,0.00467909,0.0042069,-0.0194469,0.0,0.0,0.0
31316000,0.00417326,0.00386089,-0.0191416,0.0,0.0,0.0
31344000,0.00486383,0.0042913,-0.0191776,0.0,0.0,0.0
31372000,0.0048352,0.00419379,-0.019086,0.0,0.0,0.0
31396000,0.00460686,0.00467612,-0.0188399,0.0,0.0,0.0
31424000,0.00435448,0.00492181,-0.0187322,0.0,0.0,0.0
31456000,0.0036252,0.00497153,-0.0188265,0.0,0.0,0.0
31488000,0.00321504,0.00462323,-0.0190491,0.0,0.0,0.0
31520000,0.00339658,0.00352524,-0.0189598,0.0,0.0,0.0
31548000,0.00326586,0.00445024,-0.018849,0.0,0.0,0.0
31580000,0.00276129,0.00412409,-0.018785,0.0,0.0,0.0
31612000,0.00289562,0.00464394,-0.0189668,0.0,0.0,0.0
31640000,0.00344685,0.00431053,-0.0193908,0.0,0.0,0.0
31668000,0.00348336,0.00442863,-0.0196351,0.0,0.0,0.0
31700000,0.00340471,0.00378819,-0.0197461,0.0,0.0,0.0
31732000,0.0040066,0.00476197,-0.0194793,0.0,0.0,0.0
31764000,0.00334089,0.00548853,-0.0196916,0.0,0.0,0.0
31792000,0.00335573,0.00548424,-0.019768,0.0,0.0,0.0
31824000,0.00396314,0.00596516,-0.0198546,0.0,0.0,0.0
31856000,0.00383739,0.0066213,-0.0196718,0.0,0.0,0.0
31884000,0.00384621,0.00652073,-0.019175,0.0,0.0,0.0
31916000,0.00410195,0.00698724,-0.0190981,0.0,0.0,0.0
31944000,0.00517661,0.00744961,-0.018897,0.0,0.0,0.0
31972000,0.00388436,0.00783162,-0.018706,0.0,0.0,0.0
32004000,0.00361174,0.00815425,-0.0186711,0.0,0.0,0.0
32036000,0.00327501,0.0084878,-0.0190478,0.0,0.0,0.0
32068000,0.00394349,0.00847207,-0.0187051,0.0,0.0,0.0
32100000,0.00350162,0.00811651,-0.019428,0.0,0.0,0.0
32132000,0.00335951,0.00888185,-0.0198669,0.0,0.0,0.0
32164000,0.00245024,0.00894479,-0.0194633,0.0,0.0,0.0
32192000,0.00312414,0.00931079,-0.0193248,0.0,0.0,0.0
32224000,0.00296004,0.00879038,-0.0193711,0.0,0.0,0.0
32256000,0.0025192,0.00833807,-0.019722,0.0,0.0,0.0
32288000,0.00320618,0.00868725,-0.0201051,0.0,0.0,0.0
32316000,0.00274389,0.00808714,-0.0198279,0.0,0.0,0.0
32344000,0.00353984,0.00780783,-0.0197721,0.0,0.0,0.0
32376000,0.00377607,0.00694495,-0.0196072,0.0,0.0,0.0
32408000,0.00504004,0.00792867,-0.0199031,0.0,0.0,0.0
32440000,0.00564427,0.00836644,-0.019451,0.0,0.0,0.0
32472000,0.00574674,0.00880774,-0.0194664,0.0,0.0,0.0
32504000,0.00549931,0.00939453,-0.0196302,0.0,0.0,0.0
32536000,0.00510836,0.00986957,-0.0198844,0.0,0.0,0.0
32568000,0.00480329,0.00947522,-0.0199118,0.0,0.0,0.0
32600000,0.00596998,0.00993551,-0.0198247,0.0,0.0,0.0
32632000,0.00563509,0.0101654,-0.0199604,0.0,0.0,0.0
32664000,0.00538295,0.0113993,-0.0199931,0.0,0.0,0.0
32696000,0.00591099,0.0109668,-0.0203267,0.0,0.0,0.0
32728000,0.00503918,0.0109258,-0.0206405,0.0,0.0,0.0
32760000,0.00489285,0.0116336,-0.0205498,0.0,0.0,0.0
32792000,0.00350969,0.0117465,-0.0207202,0.0,0.0,0.0
32824000,0.00266526,0.0121288,-0.0204677,0.0,0.0,0.0
32856000,0.00358282,0.0120754,-0.0199557,0.0,0.0,0.0
32888000,0.00341948,0.0105518,-0.0196762,0.0,0.0,0.0
32920000,0.00337354,0.0102564,-0.0195955,0.0,0.0,0.0
32948000,0.00289807,0.00993292,-0.0197265,0.0,0.0,0.0
32976000,0.00235613,0.00948134,-0.0195119,0.0,0.0,0.0
33004000,0.000985829,0.00984347,-0.0191119,0.0,0.0,0.0
33036000,0.00194619,0.00989347,-0.0192622,0.0,0.0,0.0
33068000,0.00186223,0.00962346,-0.0190185,0.0,0.0,0.0
33100000,0.00241952,0.00945821,-0.0185952,0.0,0.0,0.0
33132000,0.00216226,0.0103187,-0.0189132,0.0,0.0,0.0
33164000,0.00140112,0.0106474,-0.0186299,0.0,0.0,0.0
33192000,0.00134975,0.011278,-0.0184504,0.0,0.0,0.0
33220000,0.00179444,0.0107289,-0.0181873,0.0,0.0,0.0
33248000,0.00167515,0.01048,-0.0180815,0.0,0.0,0.0
33280000,0.00320059,0.0102358,-0.0181782,0.0,0.0,0.0
33312000,0.00309493,0.0103348,-0.0186691,0.0,0.0,0.0
33344000,0.00315285,0.0105952,-0.0188448,0.0,0.0,0.0
33372000,0.00332843,0.0116218,-0.0188033,0.0,0.0,0.0
33400000,0.00294955,0.0115788,-0.0187772,0.0,0.0,0.0
33428000,0.00296492,0.011389,-0.0186381,0.0,0.0,0.0
33456000,0.00374996,0.0118306,-0.0187172,0.0,0.0,0.0
33488000,0.00389094,0.0119064,-0.0191882,0.0,0.0,0.0
33520000,0.00498959,0.0118329,-0.018527,0.0,0.0,0.0
33552000,0.00444458,0.0117176,-0.0185149,0.0,0.0,0.0
33584000,0.00584206,0.0104512,-0.0181462,0.0,0.0,0.0
33616000,0.00671242,0.00991449,-0.0178303,0.0,0.0,0.0
33644000,0.00669183,0.00934011,-0.0180702,0.0,0.0,0.0
33676000,0.00698061,0.00962522,-0.0179821,0.0,0.0,0.0
33708000,0.00823428,0.00994433,-0.018132,0.0,0.0,0.0
33740000,0.00848989,0.0104275,-0.0182109,0.0,0.0,0.0
33768000,0.00774693,0.00990324,-0.0182162,0.0,0.0,0.0
33796000,0.00711203,0.00959709,-0.0180071,0.0,0.0,0.0
33824000,0.00752999,0.0100892,-0.0184375,0.0,0.0,0.0
33856000,0.00725236,0.00976337,-0.018057,0.0,0.0,0.0
33884000,0.00759785,0.00952556,-0.018441,0.0,0.0,0.0
33916000,0.00801735,0.00891166,-0.0185706,0.0,0.0,0.0
33948000,0.00821623,0.00947169,-0.0184397,0.0,0.0,0.0
33980000,0.00776519,0.00977716,-0.0181907,0.0,0.0,0.0
34012000,0.00750146,0.00876527,-0.0182035,0.0,0.0,0.0
34044000,0.00765578,0.00809028,-0.0179608,0.0,0.0,0.0
34072000,0.00750654,0.00837457,-0.0175079,0.0,0.0,0.0
34104000,0.00717523,0.00742307,-0.0169849,0.0,0.0,0.0
34132000,0.00644579,0.00813817,-0.0172008,0.0,0.0,0.0
34160000,0.00638779,0.00775084,-0.016919,0.0,0.0,0.0
34192000,0.00758708,0.00835399,-0.0172959,0.0,0.0,0.0
34224000,0.008143,0.00870539,-0.0169327,0.0,0.0,0.0
34256000,0.00885217,0.010208,-0.0167741,0.0,0.0,0.0
34288000,0.00797763,0.0107238,-0.0165461,0.0,0.0,0.0
34316000,0.00770829,0.00887444,-0.0168959,0.0,0.0,0.0
34348000,0.00736184,0.00944361,-0.0164689,0.0,0.0,0.0
34376000,0.00728016,0.00945979,-0.0162559,0.0,0.0,0.0
34408000,0.00597134,0.00953467,-0.0162069,0.0,0.0,0.0
34440000,0.00487764,0.00924776,-0.0158913,0.0,0.0,0.0
34472000,0.0049956,0.00963315,-0.0157261,0.0,0.0,0.0
34500000,0.00504118,0.00925278,-0.0159087,0.0,0.0,0.0
34524000,0.00513194,0.00956656,-0.0159273,0.0,0.0,0.0
34556000,0.00560618,0.0103363,-0.0159073,0.0,0.0,0.0
34584000,0.00478591,0.0106237,-0.0160925,0.0,0.0,0.0
34612000,0.00614439,0.011187,-0.015882,0.0,0.0,0.0
34644000,0.00598386,0.0104856,-0.0158127,0.0,0.0,0.0
34676000,0.00592999,0.00991877,-0.0159952,0.0,0.0,0.0
34704000,0.00582765,0.0095897,-0.0161612,0.0,0.0,0.0
34732000,0.00556853,0.00978925,-0.016205,0.0,0.0,0.0
34760000,0.0054792,0.00941349,-0.0163486,0.0,0.0,0.0
34792000,0.00643337,0.00840954,-0.0157481,0.0,0.0,0.0
