timestamp,rollspeed,pitchspeed,yawspeed,q[0],q[1],q[2],q[3],delta_q_reset[0],delta_q_reset[1],delta_q_reset[2],delta_q_reset[3],quat_reset_counter
1312000,0.0110001,0.000499942,-0.0195017,0.99999,-0.000196711,-0.000403356,0.0045443,0.999993,-1.06685e-08,-6.53426e-07,0.00363403,1
1344000,0.0105,0.00200008,0.000997822,0.99999,-0.000190189,-0.000376601,0.00454167,0.999993,-1.06685e-08,-6.53426e-07,0.00363403,1
1372000,-0.00100004,-0.00549997,-0.000502349,0.99999,-0.000172374,-0.000359312,0.0044634,0.999993,-1.06685e-08,-6.53426e-07,0.00363403,1
1400000,-0.0115,0.00600003,0.0089966,0.99999,-0.000207204,-0.000411467,0.0044686,0.999993,-1.06685e-08,-6.53426e-07,0.00363403,1
1428000,0.00599997,0.00550002,-0.00250357,0.99999,-0.000265493,-0.00034124,0.00445174,0.999993,-1.06685e-08,-6.53426e-07,0.00363403,1
1456000,-0.00300004,-0.00299996,0.00749456,0.99999,-0.000269468,-0.000316434,0.00439212,0.999993,-1.06685e-08,-6.53426e-07,0.00363403,1
1484000,-0.00400004,-0.00300002,0.0129951,0.99999,-0.000326987,-0.000383736,0.00446461,0.999993,-1.06685e-08,-6.53426e-07,0.00363403,1
1512000,-0.00250009,0.00350002,-0.000508086,0.99999,-0.00034454,-0.000415939,0.00446611,0.999993,-1.06685e-08,-6.53426e-07,0.00363403,1
1540000,-0.00200013,0.00650002,0.00999228,0.99999,-0.000375279,-0.000381488,0.00441041,0.999993,-1.06685e-08,-6.53426e-07,0.00363403,1
1568000,-0.00450006,-0.0175,-0.0120085,0.99999,-0.000349348,-0.000479176,0.00436899,0.999993,-1.06685e-08,-6.53426e-07,0.00363403,1
1596000,-0.0105002,0.00250001,-9.00205e-06,0.99999,-0.000376931,-0.000446635,0.00437156,0.999993,-1.06685e-08,-6.53426e-07,0.00363403,1
1628000,-0.00450022,0.005,0.00498803,0.99999,-0.000457258,-0.000464825,0.00436756,0.999993,-1.06685e-08,-6.53426e-07,0.00363403,1
1656000,-0.00100025,-0.00500002,0.00798657,0.99999,-0.00045352,-0.000470551,0.00435631,0.999993,-1.06685e-08,-6.53426e-07,0.00363403,1
1684000,-0.00350028,0.0055,-0.00151593,0.999991,-0.000367056,-0.000396805,0.00430078,0.999993,-1.06685e-08,-6.53426e-07,0.00363403,1
1716000,0.00299964,0.0045,-0.00451615,0.999991,-0.00034352,-0.000340025,0.00431043,0.999993,-1.06685e-08,-6.53426e-07,0.00363403,1
1744000,0.0119996,0.00400001,-0.000516361,0.999991,-0.000352054,-0.0002496,0.00430211,0.999993,-1.06685e-08,-6.53426e-07,0.00363403,1
1772000,0.00349961,-0.00949996,0.00698373,0.999991,-0.00040516,-0.000250408,0.00427774,0.999993,-1.06685e-08,-6.53426e-07,0.00363403,1
1800000,0.00549957,-0.000499993,0.0104851,0.999991,-0.000371093,-0.000285912,0.00427106,0.999993,-1.06685e-08,-6.53426e-07,0.00363403,1
1828000,-0.00300043,0.00350011,-0.00151356,0.999991,-0.000396347,-0.000238762,0.00424845,0.999993,-1.06685e-08,-6.53426e-07,0.00363403,1
1860000,-0.00750041,0.00150016,-0.0115178,0.999991,-0.000459295,-0.000262705,0.00428505,0.999993,-1.06685e-08,-6.53426e-07,0.00363403,1
1888000,-0.0105004,-0.00849968,-0.000522343,0.999991,-0.000551789,-0.000382094,0.00421603,0.999993,-1.06685e-08,-6.53426e-07,0.00363403,1
1920000,-0.00450037,-0.00649952,-0.00702374,0.999991,-0.000516787,-0.000374927,0.00413533,0.999993,-1.06685e-08,-6.53426e-07,0.00363403,1
1948000,-0.00700034,-0.0039994,-0.00152633,0.999991,-0.000603328,-0.00047649,0.00407093,0.999993,-1.06685e-08,-6.53426e-07,0.00363403,1
1976000,0.000499761,0.00200094,0.0114728,0.999992,-0.000625624,-0.000392857,0.00404432,0.999993,-1.06685e-08,-6.53426e-07,0.00363403,1
2008000,0.0119998,0.00500114,0.00247243,0.999992,-0.00054683,-0.000329791,0.00404766,0.999993,-1.06685e-08,-6.53426e-07,0.00363403,1
2040000,0.00449992,0.0010016,0.00146619,0.999992,-0.000475861,-0.000301867,0.00398962,0.999993,-1.06685e-08,-6.53426e-07,0.00363403,1
2068000,-0.00550004,-0.0079981,-3.57528e-05,0.999992,-0.000473964,-0.000254359,0.00389902,0.999993,-1.06685e-08,-6.53426e-07,0.00363403,1
2096000,0.00300007,-0.0054978,-0.00303762,0.999992,-0.000424743,-0.000295643,0.00393837,0.999993,-1.06685e-08,-6.53426e-07,0.00363403,1
2128000,0.00500023,0.00450289,0.00496069,0.999992,-0.000477623,-0.0002993,0.00389234,0.999993,-1.06685e-08,-6.53426e-07,0.00363403,1
2156000,-0.0109996,0.0105033,-0.00403744,0.999992,-0.000551671,-0.000261104,0.00386773,0.999993,-1.06685e-08,-6.53426e-07,0.00363403,1
2184000,-0.00399954,-0.0054962,0.00296203,0.999993,-0.000596684,-0.000226802,0.0038217,0.999993,-1.06685e-08,-6.53426e-07,0.00363403,1
2212000,-0.00149943,0.0070043,-0.00454218,0.999992,-0.000570642,-0.000207135,0.00385748,0.999993,-1.06685e-08,-6.53426e-07,0.00363403,1
2244000,-0.00449911,0.00400544,-0.00204061,0.999992,-0.000610433,-0.000215619,0.00383738,0.999993,-1.06685e-08,-6.53426e-07,0.00363403,1
2272000,0.00100109,-0.00249389,-0.00604009,0.999993,-0.000606836,-0.000321042,0.00371101,0.999993,-1.06685e-08,-6.53426e-07,0.00363403,1
2304000,-0.00299875,0.00200684,0.00395567,0.999993,-0.000682823,-0.00026553,0.00368887,0.999993,-1.06685e-08,-6.53426e-07,0.00363403,1
2332000,0.00450162,0.00300836,-0.00554596,0.999993,-0.000654597,-0.000264648,0.00363057,0.999993,-1.06685e-08,-6.53426e-07,0.00363403,1
2360000,-0.00549818,9.11969e-06,-0.00604687,0.999993,-0.000820284,-0.000284353,0.00361651,0.999993,-1.06685e-08,-6.53426e-07,0.00363403,1
2392000,0.00300202,-0.00748996,-0.0105515,0.999993,-0.000698049,-0.0002638,0.00356809,0.999993,-1.06685e-08,-6.53426e-07,0.00363403,1
2424000,-0.00299747,-0.0119881,-0.00504844,0.999993,-0.00067934,-0.000368417,0.00358211,0.999993,-1.06685e-08,-6.53426e-07,0.00363403,1
2452000,0.00650278,-0.00298714,-0.00304893,0.999993,-0.000676906,-0.000393183,0.00353923,0.999993,-1.06685e-08,-6.53426e-07,0.00363403,1
2480000,-0.00849691,0.000513934,-0.00456003,0.999993,-0.000646258,-0.000474706,0.00353297,0.999993,-1.06685e-08,-6.53426e-07,0.00363403,1
2508000,0.00250373,-0.00448382,0.000939906,0.999994,-0.000621693,-0.000522093,0.00353278,0.999993,-1.06685e-08,-6.53426e-07,0.00363403,1
2536000,0.00050412,0.00301738,0.00293722,0.999993,-0.000606388,-0.000487371,0.00354813,0.999993,-1.06685e-08,-6.53426e-07,0.00363403,1
2564000,-0.00049545,0.00501863,0.000446754,0.999994,-0.000645062,-0.000434777,0.00348347,0.999993,-1.06685e-08,-6.53426e-07,0.00363403,1
2592000,0.00800503,-0.000980012,-0.0065576,0.999994,-0.000549484,-0.000453522,0.00352451,0.999993,-1.06685e-08,-6.53426e-07,0.00363403,1
2620000,0.00450559,-0.00847863,0.00593941,0.999993,-0.000489761,-0.000506237,0.0036275,0.999993,-1.06685e-08,-6.53426e-07,0.00363403,1
2648000,-0.0139932,-0.00447568,-0.00255025,0.999993,-0.000445993,-0.000524866,0.00359125,0.999993,-1.06685e-08,-6.53426e-07,0.00363403,1
2680000,0.00650752,-0.0134742,-0.00605035,0.999993,-0.000489768,-0.000629316,0.00363247,0.999993,-1.06685e-08,-6.53426e-07,0.00363403,1
2708000,-0.00249173,-0.00547252,-0.00505329,0.999993,-0.000396733,-0.000670506,0.00357519,0.999993,-1.06685e-08,-6.53426e-07,0.00363403,1
2740000,0.00350997,0.00453088,-0.00306188,0.999994,-0.000463761,-0.000613627,0.0035196,0.999993,-1.06685e-08,-6.53426e-07,0.00363403,1
2772000,0.0020109,-0.00246732,-0.00356427,0.999994,-0.000469474,-0.000608371,0.00345031,0.999993,-1.06685e-08,-6.53426e-07,0.00363403,1
2804000,-0.00248701,-0.0179635,0.00193189,0.999994,-0.000430848,-0.000658676,0.00343569,0.999993,-1.06685e-08,-6.53426e-07,0.00363403,1
2836000,-0.000985921,0.00353853,0.00793217,0.999994,-0.000405949,-0.000734776,0.00342408,0.999993,-1.06685e-08,-6.53426e-07,0.00363403,1
2864000,0.00351654,-0.0069572,-0.0125706,0.999994,-0.000371148,-0.000793094,0.00341921,0.999993,-1.06685e-08,-6.53426e-07,0.00363403,1
2892000,-0.0094821,0.0030451,0.0119321,0.999994,-0.000414296,-0.000838489,0.00346113,0.999993,-1.06685e-08,-6.53426e-07,0.00363403,1
2920000,0.00601919,-0.00245266,0.00694054,0.999993,-0.0003885,-0.000815386,0.00352362,0.999993,-1.06685e-08,-6.53426e-07,0.00363403,1
2948000,-0.0124794,4.97021e-05,0.00793942,0.999993,-0.000414263,-0.000868305,0.0035481,0.999993,-1.06685e-08,-6.53426e-07,0.00363403,1
2976000,0.00352365,-0.00244525,-0.00356626,0.999993,-0.000459986,-0.000876071,0.0035441,0.999993,-1.06685e-08,-6.53426e-07,0.00363403,1
3004000,0.0090252,0.000557269,0.00143692,0.999993,-0.000399623,-0.000852175,0.00355403,0.999993,-1.06685e-08,-6.53426e-07,0.00363403,1
3036000,-0.00797315,0.00555986,0.00993325,0.999993,-0.000393997,-0.000770585,0.00362743,0.999993,-1.06685e-08,-6.53426e-07,0.00363403,1
3068000,0.0110303,0.0110653,0.00442904,0.999993,-0.000365972,-0.000697504,0.00365448,0.999993,-1.06685e-08,-6.53426e-07,0.00363403,1
3100000,0.00253207,-0.00543213,-0.0150672,0.999993,-0.000370326,-0.000719408,0.00355205,0.999993,-1.06685e-08,-6.53426e-07,0.00363403,1
3128000,-0.00996418,-0.00992678,-0.0125715,0.999993,-0.000442949,-0.000726953,0.00354455,0.999993,-1.06685e-08,-6.53426e-07,0.00363403,1
3156000,-0.00246224,-0.0064241,0.00142597,0.999994,-0.000470556,-0.00068223,0.00346424,0.999993,-1.06685e-08,-6.53426e-07,0.00363403,1
3184000,0.00554168,-0.00241873,-0.0165717,0.999994,-0.000454022,-0.000623172,0.00338289,0.999993,-1.06685e-08,-6.53426e-07,0.00363403,1
3216000,-0.00395634,-0.00291604,0.00742531,0.999994,-0.000582624,-0.00061142,0.00343943,0.999993,-1.06685e-08,-6.53426e-07,0.00363403,1
3244000,0.0085457,-0.00741324,-0.00357245,0.999994,-0.000553264,-0.000704928,0.00346978,0.999993,-1.06685e-08,-6.53426e-07,0.00363403,1
3272000,-0.0089502,0.0120925,-0.00857611,0.999994,-0.000606104,-0.000679595,0.00343608,0.999993,-1.06685e-08,-6.53426e-07,0.00363403,1
3304000,0.00305181,-0.00390463,-0.00307088,0.999994,-0.000596016,-0.000686839,0.00343198,0.999993,-1.06685e-08,-6.53426e-07,0.00363403,1
3332000,0.00155388,0.00459838,-0.00357297,0.999994,-0.000550313,-0.000726847,0.00338435,0.999993,-1.06685e-08,-6.53426e-07,0.00363403,1
3360000,0.00605788,-0.0048956,0.00192232,0.999994,-0.000475694,-0.000727525,0.00344885,0.999993,-1.06685e-08,-6.53426e-07,0.00363403,1
3392000,0.0100598,-0.00989261,0.000916262,0.999994,-0.000449096,-0.000753153,0.00343753,0.999993,-1.06685e-08,-6.53426e-07,0.00363403,1
3420000,-0.0074381,0.00161049,0.0139115,0.999994,-0.000487276,-0.000740929,0.00345306,0.999993,-1.06685e-08,-6.53426e-07,0.00363403,1
3452000,6.58106e-05,0.00611649,0.0103996,0.999994,-0.000437604,-0.000707045,0.00343614,0.999993,-1.06685e-08,-6.53426e-07,0.00363403,1
3484000,0.000567791,0.00461964,0.00740191,0.999994,-0.000516107,-0.000613536,0.00339487,0.999993,-1.06685e-08,-6.53426e-07,0.00363403,1
3512000,-0.0049302,0.0101228,-0.00209682,0.999994,-0.000517173,-0.000547803,0.00330177,0.999993,-1.06685e-08,-6.53426e-07,0.00363403,1
3544000,-0.00292619,0.0121293,-0.00709061,0.999994,-0.000534576,-0.000458807,0.00330051,0.999993,-1.06685e-08,-6.53426e-07,0.00363403,1
3576000,0.0120758,-0.000867571,0.00242001,0.999994,-0.000538763,-0.000404464,0.00336101,0.999993,-1.06685e-08,-6.53426e-07,0.00363403,1
3608000,0.00107969,0.00413869,-0.00308231,0.999994,-0.000438824,-0.00037465,0.00341353,0.999993,-1.06685e-08,-6.53426e-07,0.00363403,1
3640000,0.00958167,-0.0018582,-0.0100868,0.999994,-0.000402773,-0.000356008,0.00333753,0.999993,-1.06685e-08,-6.53426e-07,0.00363403,1
3668000,0.00108364,-0.00885524,-0.00358267,0.999994,-0.000379274,-0.00038142,0.00331703,0.999993,-1.06685e-08,-6.53426e-07,0.00363403,1
3700000,-0.0079124,-0.000349556,-0.00158901,0.999994,-0.000350976,-0.00040049,0.00333959,0.999993,-1.06685e-08,-6.53426e-07,0.00363403,1
3732000,0.00558955,0.00515312,0.00390718,0.999994,-0.000375904,-0.00032768,0.00334533,0.999993,-1.06685e-08,-6.53426e-07,0.00363403,1
3760000,-0.00190647,-0.00734179,-9.85389e-05,0.999994,-0.000416388,-0.000302171,0.00329659,0.999993,-1.06685e-08,-6.53426e-07,0.00363403,1
3788000,0.00859552,0.00366065,-0.00259132,0.999995,-0.000385916,-0.000254522,0.00319516,0.999993,-1.06685e-08,-6.53426e-07,0.00363403,1
3816000,9.74094e-05,0.00616302,-0.000595814,0.999995,-0.000346417,-0.000195815,0.00315842,0.999993,-1.06685e-08,-6.53426e-07,0.00363403,1
3844000,-0.00990069,-0.00433468,-0.000594878,0.999995,-0.000354407,-0.000299361,0.00312976,0.999993,-1.06685e-08,-6.53426e-07,0.00363403,1
3876000,0.00410319,-0.0208301,0.00640321,0.999995,-0.000339756,-0.000336684,0.0031649,0.999993,-1.06685e-08,-6.53426e-07,0.00363403,1
3904000,-0.00339496,0.00617198,0.0134048,0.999995,-0.000325162,-0.000274306,0.00314126,0.999993,-1.06685e-08,-6.53426e-07,0.00363403,1
3932000,-0.00339311,0.00317411,0.00641029,0.999995,-0.00041354,-0.000229367,0.00318616,0.999993,-1.06685e-08,-6.53426e-07,0.00363403,1
3960000,0.00861059,0.00817828,-0.00508707,0.999995,-0.000407671,-0.000251237,0.00320882,0.999993,-1.06685e-08,-6.53426e-07,0.00363403,1
3992000,0.000112384,-0.00881977,-0.0135899,0.999995,-0.000371052,-0.000221982,0.00312454,0.999993,-1.06685e-08,-6.53426e-07,0.00363403,1
4020000,-0.00738583,0.000182253,-0.00359409,0.999995,-0.000317169,-0.000229979,0.00300947,0.999993,-1.06685e-08,-6.53426e-07,0.00363403,1
4048000,0.000117699,-0.0103139,0.00890428,0.999995,-0.00039337,-0.000219417,0.00306451,0.999993,-1.06685e-08,-6.53426e-07,0.00363403,1
4080000,0.00111936,-0.00331201,0.00140625,0.999995,-0.000365618,-0.000227536,0.00303529,0.999993,-1.06685e-08,-6.53426e-07,0.00363403,1
4108000,0.00312109,0.0166898,-0.00158941,0.999995,-0.00034408,-0.000123902,0.00303356,0.999993,-1.06685e-08,-6.53426e-07,0.00363403,1
4136000,0.00212461,0.00769352,-0.00559238,0.999995,-0.000381279,-0.000102536,0.00302597,0.999993,-1.06685e-08,-6.53426e-07,0.00363403,1
4168000,-0.00387359,-0.00580463,0.0124085,0.999995,-0.000359631,-9.30193e-05,0.00310469,0.999993,-1.06685e-08,-6.53426e-07,0.00363403,1
4196000,0.0126281,-0.000802844,0.00440217,0.999995,-0.000275909,-3.63964e-05,0.00315741,0.999993,-1.06685e-08,-6.53426e-07,0.00363403,1
4228000,0.000131735,-0.00179919,-0.0145845,0.999995,-0.000200809,-0.000133818,0.00314878,0.999993,-1.06685e-08,-6.53426e-07,0.00363403,1
4256000,-0.0028665,0.00220254,-0.00408324,0.999995,-0.000212871,-0.000112583,0.00312295,0.999993,-1.06685e-08,-6.53426e-07,0.00363403,1
4284000,0.00163539,0.00470434,0.00492146,0.999995,-0.000185083,-4.22547e-05,0.00319816,0.999993,-1.06685e-08,-6.53426e-07,0.00363403,1
4316000,0.00363917,-0.00179214,0.00392232,0.999995,-0.000138007,-4.87928e-05,0.00314932,0.999993,-1.06685e-08,-6.53426e-07,0.00363403,1
4348000,-0.00735892,0.0032096,0.00692709,0.999995,-0.000101914,-5.44406e-05,0.0031861,0.999993,-1.06685e-08,-6.53426e-07,0.00363403,1
4376000,0.00364509,-0.00528696,-0.00606655,0.999995,-0.000119604,-5.92934e-05,0.00318336,0.999993,-1.06685e-08,-6.53426e-07,0.00363403,1
4404000,-0.00585294,0.0102147,-0.0010673,0.999995,-0.000174123,-7.22149e-05,0.00320951,0.999993,-1.06685e-08,-6.53426e-07,0.00363403,1
4432000,-0.00585098,-0.00328361,0.00493368,0.999995,-0.000175915,1.10004e-05,0.0032906,0.999993,-1.06685e-08,-6.53426e-07,0.00363403,1
4460000,-0.00784903,-0.00178191,0.0039174,0.999995,-0.000257451,3.59149e-05,0.00321224,0.999993,-1.06685e-08,-6.53426e-07,0.00363403,1
4488000,-0.00134518,0.00172138,0.00741956,0.999995,-0.00022306,0.000137291,0.00316357,0.999993,-1.06685e-08,-6.53426e-07,0.00363403,1
4520000,-0.00234334,-0.000776999,-0.000575754,0.999995,-0.000172338,0.000127717,0.00314546,0.999993,-1.06685e-08,-6.53426e-07,0.00363403,1
4552000,0.00616037,-0.0022738,0.00344321,0.999995,-0.000129495,9.50921e-05,0.003053,0.999993,-1.06685e-08,-6.53426e-07,0.00363403,1
4584000,0.00216215,0.00122778,-0.00455138,0.999995,-0.000157584,8.33202e-05,0.00304911,0.999993,-1.06685e-08,-6.53426e-07,0.00363403,1
4612000,0.0016639,0.00622929,-0.00554484,0.999996,-0.000146813,0.000120583,0.00296657,0.999993,-1.06685e-08,-6.53426e-07,0.00363403,1
4644000,0.00916748,-0.000767685,-0.00252968,0.999996,-0.00012219,0.000222944,0.00299537,0.999993,-1.06685e-08,-6.53426e-07,0.00363403,1
4676000,0.00216924,-0.000766285,-0.0130434,0.999996,-4.80912e-05,0.00017644,0.00289888,0.999993,-1.06685e-08,-6.53426e-07,0.00363403,1
4704000,0.000172781,-0.000763511,-0.00153134,0.999996,-4.0145e-05,0.000201692,0.00290539,0.999993,-1.06685e-08,-6.53426e-07,0.00363403,1
4732000,-0.0128254,0.0152379,0.00496837,0.999996,-0.000114147,0.000203653,0.00284508,0.999993,-1.06685e-08,-6.53426e-07,0.00363403,1
4760000,0.00167634,-0.00076087,-0.00603352,0.999996,-3.30934e-05,0.000216063,0.00287385,0.999993,-1.06685e-08,-6.53426e-07,0.00363403,1
4788000,0.00367805,-0.000259617,-0.0110279,0.999996,-5.10756e-05,0.000233125,0.002851,0.999993,-1.06685e-08,-6.53426e-07,0.00363403,1
4820000,0.0011815,-0.0112572,-0.00551421,0.999996,-2.57809e-05,0.000168269,0.00283348,0.999993,-1.06685e-08,-6.53426e-07,0.00363403,1
4852000,-0.00481689,0.0112438,0.000496947,0.999996,-4.86782e-05,0.000182205,0.0029217,0.999993,-1.06685e-08,-6.53426e-07,0.00363403,1
4884000,-0.00631374,0.0122457,0.00350747,0.999996,-1.84659e-05,0.000163183,0.0030087,0.999993,-1.06685e-08,-6.53426e-07,0.00363403,1
4916000,-0.00281219,0.00474649,-0.00699429,0.999995,-4.4627e-05,0.0002358,0.00301116,0.999993,-1.06685e-08,-6.53426e-07,0.00363403,1
4948000,0.00419076,-0.000752161,0.0165127,0.999996,-2.6169e-06,0.000270483,0.00300381,0.999993,-1.06685e-08,-6.53426e-07,0.00363403,1
4980000,0.00669212,-0.00975154,0.00551385,0.999995,1.35001e-05,0.000238856,0.00309699,0.999993,-1.06685e-08,-6.53426e-07,0.00363403,1
5012000,-0.00930533,0.00224954,0.0140315,0.999995,-9.23782e-05,0.000208659,0.00321689,0.999993,-1.06685e-08,-6.53426e-07,0.00363403,1
5040000,0.00719591,0.0127498,-0.0164657,0.999995,-6.45082e-05,0.000202755,0.00310938,0.999993,-1.06685e-08,-6.53426e-07,0.00363403,1
5072000,0.004698,0.00975024,-0.00895442,0.999995,2.6006e-05,0.000266651,0.00303686,0.999993,-1.06685e-08,-6.53426e-07,0.00363403,1
5104000,0.00469892,-0.00124976,-0.000955489,0.999996,6.4594e-05,0.000268086,0.00298501,0.999993,-1.06685e-08,-6.53426e-07,0.00363403,1
5132000,-0.00430019,0.000250154,0.000543604,0.999996,-3.2945e-05,0.000271045,0.00295059,0.999993,-1.06685e-08,-6.53426e-07,0.00363403,1
5160000,0.00620143,0.00574957,-0.00444573,0.999996,-3.54562e-05,0.000215983,0.00294299,0.999993,-1.06685e-08,-6.53426e-07,0.00363403,1
5188000,-0.00279786,-0.00475094,0.0135661,0.999996,-8.22847e-06,0.000207685,0.00297939,0.999993,-1.06685e-08,-6.53426e-07,0.00363403,1
5220000,0.0017029,-0.00525165,0.00357138,0.999995,-2.32234e-05,0.000161499,0.0030563,0.999993,-1.06685e-08,-6.53426e-07,0.00363403,1
5248000,0.000704268,0.00974649,-0.00591918,0.999996,6.51381e-06,0.00018341,0.00296667,0.999993,-1.06685e-08,-6.53426e-07,0.00363403,1
5276000,-0.00229521,-0.00975467,-0.000410769,0.999995,-1.47213e-05,0.000159712,0.00307689,0.999993,-1.06685e-08,-6.53426e-07,0.00363403,1
5304000,-0.00179474,0.00374405,-0.0139054,0.999995,-4.2447e-05,0.000227572,0.00311474,0.999993,-1.06685e-08,-6.53426e-07,0.00363403,1
5336000,0.00870625,-0.00425898,-0.00838078,0.999995,7.36311e-06,0.000308505,0.00312052,0.999993,-1.06685e-08,-6.53426e-07,0.00363403,1
5368000,-0.00279329,-0.00926068,-0.00236371,0.999995,0.000103163,0.000333881,0.00319771,0.999993,-1.06685e-08,-6.53426e-07,0.00363403,1
5396000,0.00620707,-0.00626252,-0.00136151,0.999995,0.000165321,0.000265387,0.00321495,0.999993,-1.06685e-08,-6.53426e-07,0.00363403,1
5424000,0.00520733,-0.00226458,-0.0108487,0.999995,0.000115921,0.000315038,0.00324224,0.999993,-1.06685e-08,-6.53426e-07,0.00363403,1
5456000,-0.00279221,-0.000269045,-0.0123339,0.999995,0.000112146,0.000319169,0.00326218,0.999993,-1.06685e-08,-6.53426e-07,0.00363403,1
5488000,0.00120793,0.00772851,0.00216697,0.999994,8.02646e-05,0.000287499,0.00331363,0.999993,-1.06685e-08,-6.53426e-07,0.00363403,1
5516000,-0.0112919,-0.00377416,-0.00482261,0.999995,1.3602e-06,0.000313166,0.00328176,0.999993,-1.06685e-08,-6.53426e-07,0.00363403,1
5544000,0.0132083,-0.01278,0.00618949,0.999995,5.45908e-05,0.000255457,0.00332007,0.999993,-1.06685e-08,-6.53426e-07,0.00363403,1
5572000,-0.00279167,-0.000283133,0.00618703,0.999994,5.67362e-05,0.000175018,0.00334536,0.999993,-1.06685e-08,-6.53426e-07,0.00363403,1
5604000,0.00120837,-0.00428644,-0.00231273,0.999994,6.21432e-05,0.000127567,0.00337892,0.999993,-1.06685e-08,-6.53426e-07,0.00363403,1
5632000,-0.00429159,-0.0092935,0.014676,0.999994,3.5604e-05,0.000163688,0.00349038,0.999993,-1.06685e-08,-6.53426e-07,0.00363403,1
5660000,0.00670838,-0.00979723,-0.00581683,0.999994,-2.29043e-05,0.000148121,0.00348244,0.999993,-1.06685e-08,-6.53426e-07,0.00363403,1
5692000,-0.00979173,0.00769907,0.00969155,0.999994,1.09412e-05,0.000131355,0.00359643,0.999993,-1.06685e-08,-6.53426e-07,0.00363403,1
5720000,-0.00479184,-0.0063087,-0.000305165,0.999993,9.27595e-06,8.84832e-05,0.00362386,0.999993,-1.06685e-08,-6.53426e-07,0.00363403,1
5748000,0.00920808,0.00118742,-0.00180198,0.999994,-3.94646e-05,3.6684e-05,0.00360163,0.999993,-1.06685e-08,-6.53426e-07,0.00363403,1
5780000,0.00520799,0.00668339,0.00620512,0.999993,5.31549e-05,-2.30972e-05,0.00367605,0.999993,-1.06685e-08,-6.53426e-07,0.00363403,1
5812000,0.000207781,0.00217512,-0.00579163,0.999993,0.000111441,-2.18132e-05,0.00361845,0.999993,-1.06685e-08,-6.53426e-07,0.00363403,1
5840000,0.00120771,-0.000828974,0.0137095,0.999993,4.41724e-05,-4.54989e-06,0.00362768,0.999993,-1.06685e-08,-6.53426e-07,0.00363403,1
5872000,0.000207469,-0.00483758,-0.0147804,0.999993,-1.44193e-05,-8.60467e-05,0.00367882,0.999993,-1.06685e-08,-6.53426e-07,0.00363403,1
5900000,-0.0252927,0.011158,0.00172123,0.999993,-2.5786e-05,-7.95616e-05,0.00367978,0.999993,-1.06685e-08,-6.53426e-07,0.00363403,1
5932000,0.000707155,0.00115378,0.00271636,0.999994,-3.08781e-05,-6.10656e-05,0.00356862,0.999993,-1.06685e-08,-6.53426e-07,0.00363403,1
5964000,0.00670677,-0.000354978,0.00473203,0.999993,6.54466e-05,-0.000181806,0.00364648,0.999993,-1.06685e-08,-6.53426e-07,0.00363403,1
5992000,-0.000793415,-0.00935951,0.00873665,0.999993,6.69385e-05,-0.000184623,0.00367317,0.999993,-1.06685e-08,-6.53426e-07,0.00363403,1
6020000,0.00820629,-0.00136387,-0.0032651,0.999993,9.26878e-05,-0.000273874,0.00361927,0.999993,-1.06685e-08,-6.53426e-07,0.00363403,1
6052000,-0.00879437,-0.00537291,-0.00476546,0.999994,0.000103459,-0.000298255,0.00355077,0.999993,-1.06685e-08,-6.53426e-07,0.00363403,1
6084000,0.00720523,-0.0138776,-0.00527112,0.999994,9.50864e-05,-0.000303929,0.00346064,0.999993,-1.06685e-08,-6.53426e-07,0.00363403,1
6116000,0.00870456,0.00161317,0.0087329,0.999994,0.000146687,-0.000349173,0.00349458,0.999993,-1.06685e-08,-6.53426e-07,0.00363403,1
6148000,0.00270409,0.0171084,0.0022308,0.999994,0.000155935,-0.000321728,0.00353848,0.999993,-1.06685e-08,-6.53426e-07,0.00363403,1
6180000,-0.00279679,0.000599104,-0.000776407,0.999994,0.000167352,-0.000378739,0.00358244,0.999993,-1.06685e-08,-6.53426e-07,0.00363403,1
6212000,0.0137027,0.0030945,-0.00726934,0.999994,0.000197537,-0.000394037,0.00353214,0.999993,-1.06685e-08,-6.53426e-07,0.00363403,1
6244000,0.000702204,8.99379e-05,0.000733133,0.999994,0.000191825,-0.000475525,0.00354026,0.999993,-1.06685e-08,-6.53426e-07,0.00363403,1
6272000,-0.00279901,-0.010419,-0.00526222,0.999994,0.000183463,-0.000479583,0.00343983,0.999993,-1.06685e-08,-6.53426e-07,0.00363403,1
6304000,0.00220034,-0.0049233,-0.00325595,0.999994,0.000203189,-0.000485514,0.00339016,0.999993,-1.06685e-08,-6.53426e-07,0.00363403,1
6336000,0.00719882,0.0015681,0.00475618,0.999994,0.000215676,-0.000499556,0.00352686,0.999993,-1.06685e-08,-6.53426e-07,0.00363403,1
6364000,-0.00880199,-0.000935979,0.000258998,0.999994,0.000195956,-0.000539929,0.00346027,0.999993,-1.06685e-08,-6.53426e-07,0.00363403,1
6392000,-0.000802827,-0.00444005,-0.00473499,0.999994,0.000153911,-0.000543248,0.00350181,0.999993,-1.06685e-08,-6.53426e-07,0.00363403,1
6420000,0.00669624,-0.00844408,0.00876972,0.999994,0.000224973,-0.000616057,0.00351155,0.999993,-1.06685e-08,-6.53426e-07,0.00363403,1
6448000,0.00769443,0.00354817,0.0062742,0.999993,0.00025459,-0.000645229,0.00359588,0.999993,-1.06685e-08,-6.53426e-07,0.00363403,1
6476000,0.00269349,-0.00845562,0.00227279,0.999993,0.000251169,-0.000693308,0.00362822,0.999993,-1.06685e-08,-6.53426e-07,0.00363403,1
6504000,0.00519259,-0.000459313,-0.011723,0.999993,0.000276578,-0.000726032,0.00363187,0.999993,-1.06685e-08,-6.53426e-07,0.00363403,1
6532000,0.0131907,-0.0114665,0.000281233,0.999993,0.000307798,-0.000776786,0.00371053,0.999993,-1.06685e-08,-6.53426e-07,0.00363403,1
6564000,-0.00531031,0.00603005,0.00528137,0.999993,0.000293889,-0.000830434,0.00375134,0.999993,-1.06685e-08,-6.53426e-07,0.00363403,1
6596000,-0.0038113,-0.000973342,-0.00720856,0.999993,0.00026561,-0.000784651,0.00361837,0.999993,-1.06685e-08,-6.53426e-07,0.00363403,1
6624000,-0.00731333,0.0100202,0.00278172,0.999993,0.000205121,-0.000743921,0.00360315,0.999993,-1.06685e-08,-6.53426e-07,0.00363403,1
6652000,-0.0123143,0.00701707,0.00128386,0.999993,0.00012445,-0.000697164,0.00357336,0.999993,-1.06685e-08,-6.53426e-07,0.00363403,1
6680000,0.00918467,-0.014486,0.00628564,0.999993,9.48624e-05,-0.000707866,0.00360438,0.999993,-1.06685e-08,-6.53426e-07,0.00363403,1
6708000,0.00318264,0.000508124,0.00978399,0.999993,0.000148201,-0.000736164,0.00360368,0.999993,-1.06685e-08,-6.53426e-07,0.00363403,1
6740000,-0.0138185,0.00750526,0.00478985,0.999993,7.67875e-05,-0.000635359,0.0036799,0.999993,-1.06685e-08,-6.53426e-07,0.00363403,1
6768000,0.00718043,-0.000997508,0.000285521,0.999993,9.07366e-05,-0.000613113,0.00370586,0.999993,-1.06685e-08,-6.53426e-07,0.00363403,1
6796000,0.00817805,0.000997081,-0.00220785,0.999993,0.000115743,-0.000665725,0.00379268,0.999993,-1.06685e-08,-6.53426e-07,0.00363403,1
6828000,-0.00482323,0.00249438,0.00830074,0.999993,0.000118218,-0.000647762,0.00378686,0.999993,-1.06685e-08,-6.53426e-07,0.00363403,1
6860000,-0.00282457,-0.00100823,0.00130219,0.999993,0.000123592,-0.000639348,0.00378967,0.999993,-1.06685e-08,-6.53426e-07,0.00363403,1
6892000,0.00167261,-0.0100134,-0.00619551,0.999992,9.7882e-05,-0.000710004,0.00384202,0.999993,-1.06685e-08,-6.53426e-07,0.00363403,1
6920000,-0.0113289,0.00598417,-0.00519405,0.999992,-1.21583e-05,-0.000665072,0.00385206,0.999993,-1.06685e-08,-6.53426e-07,0.00363403,1
6952000,-0.00233219,0.00247944,0.00380364,0.999992,-6.23615e-05,-0.000719143,0.00390457,0.999993,-1.06685e-08,-6.53426e-07,0.00363403,1
6984000,0.00416615,0.00647722,0.00130442,0.999992,-6.48657e-05,-0.000796858,0.00395375,0.999993,-1.06685e-08,-6.53426e-07,0.00363403,1
7016000,0.00766262,0.00397303,0.00281165,0.999992,-5.61265e-05,-0.000752184,0.00397136,0.999993,-1.06685e-08,-6.53426e-07,0.00363403,1
7048000,0.00666072,-0.00202893,-0.00319375,0.999992,7.51145e-06,-0.000766936,0.00400977,0.999993,-1.06685e-08,-6.53426e-07,0.00363403,1
7076000,0.000658869,-0.00103075,-0.00919357,0.999991,8.86332e-05,-0.000890027,0.00406559,0.999993,-1.06685e-08,-6.53426e-07,0.00363403,1
7104000,0.00665498,-0.00153423,0.00881388,0.999991,0.000100002,-0.000891112,0.00408736,0.999993,-1.06685e-08,-6.53426e-07,0.00363403,1
7132000,0.00415304,-0.00553573,-0.00368548,0.999991,7.81065e-05,-0.000916103,0.00409397,0.999993,-1.06685e-08,-6.53426e-07,0.00363403,1
7160000,-0.00184899,0.00896293,-0.0131834,0.999991,9.55721e-05,-0.000826522,0.00405963,0.999993,-1.06685e-08,-6.53426e-07,0.00363403,1
7188000,-0.00835102,-0.0095384,0.00781533,0.999992,7.71582e-05,-0.000827702,0.00405875,0.999993,-1.06685e-08,-6.53426e-07,0.00363403,1
7220000,-0.000855128,0.00445945,-0.000185576,0.999992,9.03242e-05,-0.000753504,0.00401758,0.999993,-1.06685e-08,-6.53426e-07,0.00363403,1
7248000,-0.00735722,0.00145857,0.00380355,0.999992,7.62214e-05,-0.000748802,0.0040588,0.999993,-1.06685e-08,-6.53426e-07,0.00363403,1
7276000,0.00714074,0.00195784,-0.00269336,0.999992,6.5188e-05,-0.000778594,0.00396362,0.999993,-1.06685e-08,-6.53426e-07,0.00363403,1
7308000,-0.00886337,-0.00204318,-0.00269428,0.999992,7.78659e-05,-0.000793675,0.00393323,0.999993,-1.06685e-08,-6.53426e-07,0.00363403,1
7336000,-0.000865428,-0.0125436,-0.00319385,0.999992,6.63137e-05,-0.000835365,0.00393522,0.999993,-1.06685e-08,-6.53426e-07,0.00363403,1
7368000,0.00313046,-0.0110439,0.0113038,0.999992,9.66766e-05,-0.000864032,0.00397771,0.999993,-1.06685e-08,-6.53426e-07,0.00363403,1
7396000,0.00212837,-4.39962e-05,0.00580554,0.999992,0.000135355,-0.00081934,0.00395378,0.999993,-1.06685e-08,-6.53426e-07,0.00363403,1
7428000,-0.00737371,-0.0120439,0.00229726,0.999992,0.000127246,-0.000818772,0.00396753,0.999993,-1.06685e-08,-6.53426e-07,0.00363403,1
7456000,0.00412204,0.00545645,0.0112959,0.999992,0.000157906,-0.000835882,0.00400818,0.999993,-1.06685e-08,-6.53426e-07,0.00363403,1
7484000,-0.000880005,0.0129568,0.0117986,0.999992,0.000112223,-0.000820727,0.00404112,0.999993,-1.06685e-08,-6.53426e-07,0.00363403,1
7516000,-0.000882112,0.00695711,-0.00270105,0.999992,5.459e-05,-0.000798336,0.00404358,0.999993,-1.06685e-08,-6.53426e-07,0.00363403,1
7544000,0.000113699,0.00945808,-0.00070169,0.999992,7.5638e-06,-0.000716015,0.00399393,0.999993,-1.06685e-08,-6.53426e-07,0.00363403,1
7572000,-0.00938838,0.00895864,-0.00170644,0.999992,-5.54529e-05,-0.000688219,0.0039705,0.999993,-1.06685e-08,-6.53426e-07,0.00363403,1
7604000,-0.00739046,-0.00254076,0.00628818,0.999992,-0.000125363,-0.000688,0.00401567,0.999993,-1.06685e-08,-6.53426e-07,0.00363403,1
7632000,0.0131054,0.00796072,0.00378536,0.999991,-9.64837e-05,-0.000666788,0.00408868,0.999993,-1.06685e-08,-6.53426e-07,0.00363403,1
7660000,0.00810341,-0.0105385,0.00428918,0.999991,-3.89242e-05,-0.000592978,0.00408812,0.999993,-1.06685e-08,-6.53426e-07,0.00363403,1
7688000,0.00810143,-0.00753771,0.00378777,0.999991,6.04863e-05,-0.000475592,0.00411796,0.999993,-1.06685e-08,-6.53426e-07,0.00363403,1
7716000,0.0100994,0.00896318,0.00579229,0.999991,8.97187e-06,-0.000370454,0.00414386,0.999993,-1.06685e-08,-6.53426e-07,0.00363403,1
7744000,0.00659543,0.00396496,-0.000205912,0.999992,8.27308e-05,-0.000372342,0.00411045,0.999993,-1.06685e-08,-6.53426e-07,0.00363403,1
7776000,0.0155934,-0.00853411,-0.00821111,0.999992,0.000140738,-0.000421657,0.00406001,0.999993,-1.06685e-08,-6.53426e-07,0.00363403,1
7808000,0.00958954,-0.0150321,0.00178955,0.999991,0.00021996,-0.000528487,0.00409561,0.999993,-1.06685e-08,-6.53426e-07,0.00363403,1
7840000,0.00108762,-0.00253103,0.000791267,0.999992,0.000237687,-0.000528093,0.00401521,0.999993,-1.06685e-08,-6.53426e-07,0.00363403,1
7868000,0.00608571,-0.00952994,-0.00620747,0.999992,0.000261623,-0.000567852,0.00405527,0.999993,-1.06685e-08,-6.53426e-07,0.00363403,1
7896000,0.00508189,-0.00252766,-0.00220099,0.999992,0.00025444,-0.000569449,0.00402662,0.999993,-1.06685e-08,-6.53426e-07,0.00363403,1
7924000,0.01908,0.00247352,0.00629693,0.999991,0.000279972,-0.000539631,0.00410056,0.999993,-1.06685e-08,-6.53426e-07,0.00363403,1
7952000,0.00757811,0.00197464,-0.00220538,0.999991,0.000260987,-0.000593801,0.00407604,0.999993,-1.06685e-08,-6.53426e-07,0.00363403,1
7980000,0.00607616,-0.0115242,-0.00270522,0.999992,0.000258931,-0.000619731,0.00404467,0.999993,-1.06685e-08,-6.53426e-07,0.00363403,1
8012000,-0.0034276,-0.00352185,-0.00370417,0.999992,0.000194008,-0.000727004,0.00398441,0.999993,-1.06685e-08,-6.53426e-07,0.00363403,1
8040000,0.00557053,-0.00252074,0.00229396,0.999992,0.00020057,-0.000688528,0.00402132,0.999993,-1.06685e-08,-6.53426e-07,0.00363403,1
8068000,-0.000931302,0.00798042,0.000293037,0.999992,0.000165559,-0.00073112,0.00398084,0.999993,-1.06685e-08,-6.53426e-07,0.00363403,1
8096000,-0.00993512,-0.0160174,-0.0116992,0.999992,6.14043e-05,-0.000782798,0.00394022,0.999993,-1.06685e-08,-6.53426e-07,0.00363403,1
8124000,-0.0049369,0.000483694,0.00680241,0.999992,7.7746e-05,-0.000712972,0.00399282,0.999993,-1.06685e-08,-6.53426e-07,0.00363403,1
8156000,0.0115613,-0.00451519,0.00679996,0.999991,0.000125172,-0.000662347,0.004101,0.999993,-1.06685e-08,-6.53426e-07,0.00363403,1
8184000,0.00155755,-0.0175131,-0.00421,0.999991,0.000160576,-0.000635311,0.00414179,0.999993,-1.06685e-08,-6.53426e-07,0.00363403,1
8212000,0.00555573,-0.00601207,-0.00470466,0.999991,0.000215179,-0.000643218,0.00417305,0.999993,-1.06685e-08,-6.53426e-07,0.00363403,1
8244000,-0.00194606,-1.10311e-05,0.0057944,0.999991,0.000267867,-0.000650485,0.0041393,0.999993,-1.06685e-08,-6.53426e-07,0.00363403,1
8276000,0.0145504,0.000491072,0.00329521,0.999991,0.000301261,-0.000645745,0.0041783,0.999993,-1.06685e-08,-6.53426e-07,0.00363403,1
8308000,-0.00495129,-0.000507917,-0.00370631,0.999991,0.000276821,-0.000638315,0.00414999,0.999993,-1.06685e-08,-6.53426e-07,0.00363403,1
8336000,0.00054528,-0.00950583,-0.000206673,0.999991,0.000259203,-0.000580553,0.00415438,0.999993,-1.06685e-08,-6.53426e-07,0.00363403,1
8364000,-0.00145635,-0.00600482,0.0112978,0.999991,0.000270807,-0.000600644,0.00420368,0.999993,-1.06685e-08,-6.53426e-07,0.00363403,1
8392000,0.005542,-0.00200379,-0.0102068,0.999991,0.000340199,-0.000538546,0.00421267,0.999993,-1.06685e-08,-6.53426e-07,0.00363403,1
8420000,0.00304039,0.0119971,-0.00120586,0.999991,0.000305246,-0.000371937,0.00419549,0.999993,-1.06685e-08,-6.53426e-07,0.00363403,1
8452000,0.00403723,0.00649904,-0.00071361,0.999991,0.000271308,-0.00023859,0.00414403,0.999993,-1.06685e-08,-6.53426e-07,0.00363403,1
8480000,0.000535661,0.00399996,-0.00371637,0.999991,0.000345963,-0.000209606,0.00420328,0.999993,-1.06685e-08,-6.53426e-07,0.00363403,1
8512000,0.0105326,-0.00749836,0.00829368,0.999991,0.000320604,-0.00019136,0.00418916,0.999993,-1.06685e-08,-6.53426e-07,0.00363403,1
8544000,-0.00446892,0.00250246,0.000794188,0.999991,0.00026256,-0.000222374,0.00418046,0.999993,-1.06685e-08,-6.53426e-07,0.00363403,1
8572000,-0.00197045,-0.00849677,-0.00170471,0.999991,0.000294729,-0.000275795,0.00420452,0.999993,-1.06685e-08,-6.53426e-07,0.00363403,1
8600000,0.00652647,0.0030047,-0.0052144,0.999991,0.000276602,-0.00027744,0.00414102,0.999993,-1.06685e-08,-6.53426e-07,0.00363403,1
8628000,2.50435e-05,-0.00949466,-0.00221668,0.999991,0.000249441,-0.000255288,0.0041753,0.999993,-1.06685e-08,-6.53426e-07,0.00363403,1
8656000,0.00402346,0.00700596,-0.00171237,0.999992,0.000185189,-0.000183431,0.00409935,0.999993,-1.06685e-08,-6.53426e-07,0.00363403,1
8684000,-0.000479634,-0.00549283,0.00229404,0.999992,0.000201282,-0.000219355,0.00410308,0.999993,-1.06685e-08,-6.53426e-07,0.00363403,1
8712000,-0.0114812,-0.00949225,-0.00670321,0.999992,0.000186771,-0.000345552,0.00410158,0.999993,-1.06685e-08,-6.53426e-07,0.00363403,1
8740000,0.00301728,-0.000991732,-0.000700483,0.999992,0.000154202,-0.000446979,0.00408093,0.999993,-1.06685e-08,-6.53426e-07,0.00363403,1
8768000,-0.0054858,-0.00499072,0.00180798,0.999991,0.000201043,-0.000414243,0.00410488,0.999993,-1.06685e-08,-6.53426e-07,0.00363403,1
8796000,-0.000987351,0.00650974,-0.00369304,0.999991,0.00016986,-0.000399943,0.00411103,0.999993,-1.06685e-08,-6.53426e-07,0.00363403,1
8824000,-0.00198894,0.00201018,0.00130173,0.999991,0.000151089,-0.00048178,0.00418163,0.999993,-1.06685e-08,-6.53426e-07,0.00363403,1
8856000,-0.00299207,-0.00298902,-0.000193083,0.999992,7.84516e-05,-0.000593542,0.00407836,0.999993,-1.06685e-08,-6.53426e-07,0.00363403,1
8888000,0.00800635,0.0160114,0.0108062,0.999991,-1.25175e-05,-0.000437568,0.00413579,0.999993,-1.06685e-08,-6.53426e-07,0.00363403,1
8916000,-0.00349525,1.16396e-05,0.000303879,0.999991,-6.5813e-05,-0.000429052,0.00414551,0.999993,-1.06685e-08,-6.53426e-07,0.00363403,1
8944000,1.5472e-06,-0.00648782,-0.00369614,0.999991,-0.000142331,-0.000389803,0.00418762,0.999993,-1.06685e-08,-6.53426e-07,0.00363403,1
8976000,-0.00600003,-0.0114876,0.00930014,0.999991,-0.000136937,-0.000390028,0.00429615,0.999993,-1.06685e-08,-6.53426e-07,0.00363403,1
9004000,-0.00100174,0.00201258,0.00979785,0.99999,-6.53946e-05,-0.000410504,0.00438246,0.999993,-1.06685e-08,-6.53426e-07,0.00363403,1
9032000,0.00599501,-0.010487,0.000789812,0.99999,-9.39609e-05,-0.000420594,0.00438444,0.999993,-1.06685e-08,-6.53426e-07,0.00363403,1
9064000,-0.00950665,-0.0114869,0.0042848,0.99999,-6.55413e-05,-0.000493339,0.00436137,0.999993,-1.06685e-08,-6.53426e-07,0.00363403,1
9096000,0.00499006,0.00851328,0.00878566,0.99999,6.56524e-06,-0.000520111,0.00439491,0.999993,-1.06685e-08,-6.53426e-07,0.00363403,1
9124000,-0.00501158,-0.000486607,-0.00971929,0.99999,1.93171e-05,-0.000478551,0.00438291,0.999993,-1.06685e-08,-6.53426e-07,0.00363403,1
9152000,0.00598677,1.33948e-05,0.00327824,0.99999,-6.43755e-06,-0.000551332,0.0043684,0.999993,-1.06685e-08,-6.53426e-07,0.00363403,1
9180000,0.00448514,0.0070134,-0.0122266,0.99999,-4.16329e-05,-0.000528318,0.00433058,0.999993,-1.06685e-08,-6.53426e-07,0.00363403,1
9208000,0.00798185,0.00201336,0.00626728,0.99999,-7.90117e-05,-0.000525475,0.00434835,0.999993,-1.06685e-08,-6.53426e-07,0.00363403,1
9236000,-0.0110198,-0.00648669,-0.00272781,0.999991,-8.75327e-05,-0.000488668,0.00432573,0.999993,-1.06685e-08,-6.53426e-07,0.00363403,1
9268000,-0.0070214,0.00351323,-0.00322726,0.999991,-0.000155381,-0.000421188,0.00431991,0.999993,-1.06685e-08,-6.53426e-07,0.00363403,1
9296000,-0.00352459,-0.00848698,-0.00423152,0.999991,-0.000195963,-0.000415864,0.00428671,0.999993,-1.06685e-08,-6.53426e-07,0.00363403,1
9328000,0.00397379,-0.0174871,-0.00823285,0.999991,-0.00026869,-0.000428779,0.00429529,0.999993,-1.06685e-08,-6.53426e-07,0.00363403,1
9360000,0.000970644,0.00201259,0.00226707,0.999991,-0.000359493,-0.00042397,0.00426082,0.999993,-1.06685e-08,-6.53426e-07,0.00363403,1
9388000,-0.00203095,-0.00148756,-0.00473393,0.999991,-0.000371008,-0.000464012,0.00422791,0.999993,-1.06685e-08,-6.53426e-07,0.00363403,1
9416000,-0.00953249,-0.00948775,-0.00173577,0.999991,-0.000471519,-0.000496544,0.00423024,0.999993,-1.06685e-08,-6.53426e-07,0.00363403,1
9448000,0.00746437,0.00301192,0.00575897,0.999991,-0.000472383,-0.000506811,0.00423065,0.999993,-1.06685e-08,-6.53426e-07,0.00363403,1
9480000,-0.000537221,0.00101175,0.000756725,0.999991,-0.000410121,-0.000560035,0.00409196,0.999993,-1.06685e-08,-6.53426e-07,0.00363403,1
9508000,-0.00753878,-0.00548845,0.00775844,0.999991,-0.000457676,-0.000600688,0.00406821,0.999993,-1.06685e-08,-6.53426e-07,0.00363403,1
9536000,-0.00604199,-0.00848879,-0.00775008,0.999991,-0.000482353,-0.000633298,0.00413076,0.999993,-1.06685e-08,-6.53426e-07,0.00363403,1
9564000,-0.00154366,0.018511,0.00625057,0.999991,-0.000504361,-0.000623954,0.00423004,0.999993,-1.06685e-08,-6.53426e-07,0.00363403,1
9592000,0.00395489,-0.0164892,-0.0117505,0.999991,-0.000573964,-0.000679934,0.00420085,0.999993,-1.06685e-08,-6.53426e-07,0.00363403,1
9620000,-0.00104679,-0.00448929,-0.0072539,0.999991,-0.000577653,-0.000720649,0.00421244,0.999993,-1.06685e-08,-6.53426e-07,0.00363403,1
9648000,0.00145007,0.0100104,-0.0167615,0.999991,-0.000534672,-0.000708276,0.00411013,0.999993,-1.06685e-08,-6.53426e-07,0.00363403,1
9676000,0.0104485,-0.00948972,0.00673233,0.999991,-0.000482738,-0.000703808,0.00414671,0.999993,-1.06685e-08,-6.53426e-07,0.00363403,1
9704000,-0.00455313,0.00151016,-0.00377465,0.999991,-0.00051844,-0.00077073,0.00413464,0.999993,-1.06685e-08,-6.53426e-07,0.00363403,1
9732000,-0.00505468,0.01451,-0.00426892,0.999991,-0.000534746,-0.000712619,0.00404931,0.999993,-1.06685e-08,-6.53426e-07,0.00363403,1
9764000,0.00444217,0.0150097,0.0112186,0.999992,-0.000498008,-0.000764376,0.00401363,0.999993,-1.06685e-08,-6.53426e-07,0.00363403,1
9796000,-0.0100594,0.00350964,-0.00328492,0.999992,-0.00051845,-0.000747343,0.00395935,0.999993,-1.06685e-08,-6.53426e-07,0.00363403,1
9824000,-0.000562377,-0.000990604,0.00220853,0.999992,-0.000456732,-0.000738876,0.00390589,0.999993,-1.06685e-08,-6.53426e-07,0.00363403,1
9852000,0.00693617,0.0025093,0.00272137,0.999992,-0.000464918,-0.000742654,0.00386289,0.999993,-1.06685e-08,-6.53426e-07,0.00363403,1
9880000,-0.00156527,0.00200919,0.0177158,0.999992,-0.000436529,-0.000642186,0.00397061,0.999993,-1.06685e-08,-6.53426e-07,0.00363403,1
9908000,-0.00406672,-0.000490879,-0.00329547,0.999992,-0.000522039,-0.000564201,0.00392532,0.999993,-1.06685e-08,-6.53426e-07,0.00363403,1
9936000,-0.00956941,0.00750901,-0.00979622,0.999992,-0.000612959,-0.000624201,0.00387489,0.999993,-1.06685e-08,-6.53426e-07,0.00363403,1
9968000,0.000929141,0.00100894,-0.00229827,0.999992,-0.000674439,-0.000589122,0.0038123,0.999993,-1.06685e-08,-6.53426e-07,0.00363403,1
9996000,-0.00307223,-0.00449108,0.00919236,0.999992,-0.000754244,-0.000662946,0.00379826,0.999993,-1.06685e-08,-6.53426e-07,0.00363403,1
10028000,0.00942511,-0.00749117,0.00718909,0.999992,-0.000753455,-0.000702429,0.00384506,0.999993,-1.06685e-08,-6.53426e-07,0.00363403,1
10056000,-7.621e-05,0.00400879,-0.00581432,0.999992,-0.000800223,-0.000732012,0.00384521,0.999993,-1.06685e-08,-6.53426e-07,0.00363403,1
10088000,-0.00607875,0.000508707,-0.00981863,0.999992,-0.00090733,-0.000750842,0.00382371,0.999993,-1.06685e-08,-6.53426e-07,0.00363403,1
10120000,0.00391995,-0.00349127,0.0031826,0.999992,-0.000862549,-0.000708996,0.00382391,0.999993,-1.06685e-08,-6.53426e-07,0.00363403,1
10148000,-0.00258133,-0.000991243,0.000179079,0.999992,-0.000947099,-0.00073456,0.00379903,0.999993,-1.06685e-08,-6.53426e-07,0.00363403,1
10180000,0.00591741,0.00600881,-0.0038239,0.999992,-0.000856109,-0.000670313,0.00386589,0.999993,-1.06685e-08,-6.53426e-07,0.00363403,1
10212000,0.00991496,0.00100889,0.00817039,0.999992,-0.000743986,-0.000663877,0.00394272,0.999993,-1.06685e-08,-6.53426e-07,0.00363403,1
10240000,-0.00158624,0.00600899,0.0021704,0.999998,-0.000754468,-0.000673682,0.00188791,0.999998,-3.05203e-06,3.6572e-06,-0.0020663,2
10272000,-0.00258855,0.00150921,-0.0068296,0.999998,-0.000719787,-0.000733545,0.00183325,0.999998,-3.05203e-06,3.6572e-06,-0.0020663,2
10300000,-0.00858971,-0.0114907,0.00617028,0.999998,-0.000742372,-0.000804441,0.00182169,0.999998,-3.05203e-06,3.6572e-06,-0.0020663,2
10328000,-0.00359079,0.00300942,0.00617031,0.999998,-0.000730336,-0.000819261,0.0017163,0.999998,-3.05203e-06,3.6572e-06,-0.0020663,2
10356000,-0.0105919,0.00950956,0.00317032,0.999998,-0.000793779,-0.000782161,0.00165943,0.999998,-3.05203e-06,3.6572e-06,-0.0020663,2
10388000,0.00290605,-0.00299014,-0.0078296,0.999998,-0.000804164,-0.000776998,0.00158835,0.999998,-3.05203e-06,3.6572e-06,-0.0020663,2
10416000,-0.0105949,-0.0119899,-0.00182964,0.999998,-0.00081299,-0.000778105,0.00152579,0.999998,-3.05203e-06,3.6572e-06,-0.0020663,2
10444000,-0.0100958,-0.0129898,0.0076707,0.999998,-0.000907276,-0.000832258,0.00157409,0.999998,-3.05203e-06,3.6572e-06,-0.0020663,2
10472000,-0.00359773,0.00401053,-0.00732958,0.999998,-0.00097819,-0.000738522,0.00145079,0.999998,-3.05203e-06,3.6572e-06,-0.0020663,2
10500000,0.00740138,0.00351078,0.00417047,0.999998,-0.00101279,-0.000644599,0.00143904,0.999998,-3.05203e-06,3.6572e-06,-0.0020663,2
10528000,0.00290055,-0.00698908,0.00617052,0.999998,-0.00095288,-0.000656519,0.00144971,0.999998,-3.05203e-06,3.6572e-06,-0.0020663,2
10560000,-0.00910112,-0.00448858,-0.00182876,0.999998,-0.00089482,-0.000733455,0.00143863,0.999998,-3.05203e-06,3.6572e-06,-0.0020663,2
10588000,0.00239811,-0.00248836,-0.00332863,0.999998,-0.000921619,-0.00058745,0.00148775,0.999998,-3.05203e-06,3.6572e-06,-0.0020663,2
10616000,-0.00210261,-0.00198811,-0.0048287,0.999998,-0.000877014,-0.000603305,0.00152407,0.999998,-3.05203e-06,3.6572e-06,-0.0020663,2
10648000,-0.00560398,0.0030125,0.0056715,0.999998,-0.000860651,-0.000540103,0.00158445,0.999998,-3.05203e-06,3.6572e-06,-0.0020663,2
10680000,-0.0131047,-0.00648716,-0.0138285,0.999998,-0.000894103,-0.000509024,0.00150236,0.999998,-3.05203e-06,3.6572e-06,-0.0020663,2
10708000,-0.00210523,-0.00548689,-0.0023282,0.999998,-0.000968327,-0.000558799,0.0016042,0.999998,-3.05203e-06,3.6572e-06,-0.0020663,2
10736000,-0.000106315,-0.00298621,0.00417225,0.999998,-0.00102079,-0.000456515,0.00162595,0.999998,-3.05203e-06,3.6572e-06,-0.0020663,2
10764000,0.00189317,-0.00148587,-0.00282762,0.999998,-0.000932087,-0.000481944,0.00162693,0.999998,-3.05203e-06,3.6572e-06,-0.0020663,2
10796000,-0.00360728,0.000514489,0.00317236,0.999998,-0.000948673,-0.000493356,0.00164202,0.999998,-3.05203e-06,3.6572e-06,-0.0020663,2
10828000,0.00289188,-0.00448479,0.00367233,0.999998,-0.000901376,-0.000529462,0.00167155,0.999998,-3.05203e-06,3.6572e-06,-0.0020663,2
10860000,-0.00760852,0.00351554,0.0101725,0.999998,-0.000940219,-0.000554528,0.00175829,0.999998,-3.05203e-06,3.6572e-06,-0.0020663,2
10888000,0.00339087,-0.00498364,-0.00382696,0.999998,-0.000963956,-0.000519659,0.00172733,0.999998,-3.05203e-06,3.6572e-06,-0.0020663,2
10916000,0.0038906,-0.000483279,0.000172583,0.999998,-0.000960741,-0.000500626,0.00164666,0.999998,-3.05203e-06,3.6572e-06,-0.0020663,2
10944000,-0.0111096,-0.00298287,0.000172647,0.999998,-0.00102362,-0.000493448,0.00168044,0.999998,-3.05203e-06,3.6572e-06,-0.0020663,2
10972000,0.00189018,0.00301752,-0.00482739,0.999998,-0.00102036,-0.000576088,0.00164108,0.999998,-3.05203e-06,3.6572e-06,-0.0020663,2
11000000,0.00488982,0.00651832,0.00617416,0.999998,-0.00101859,-0.00044634,0.00178004,0.999998,-3.05203e-06,3.6572e-06,-0.0020663,2
11028000,-0.00711025,-0.00148133,0.00717424,0.999998,-0.00104669,-0.000359631,0.00179618,0.999998,-3.05203e-06,3.6572e-06,-0.0020663,2
11060000,0.00888967,-0.00948094,0.00667404,0.999998,-0.00108293,-0.000353422,0.00188848,0.999998,-3.05203e-06,3.6572e-06,-0.0020663,2
11088000,0.0103896,-0.00548018,0.000675067,0.999997,-0.00102175,-0.000410045,0.00197024,0.999998,-3.05203e-06,3.6572e-06,-0.0020663,2
11120000,-0.00411045,0.00152014,0.00517491,0.999997,-0.00100974,-0.000482238,0.00208566,0.999998,-3.05203e-06,3.6572e-06,-0.0020663,2
11148000,-0.00161042,-0.000979507,-0.00832521,0.999997,-0.0010257,-0.000385661,0.00217877,0.999998,-3.05203e-06,3.6572e-06,-0.0020663,2
11180000,0.00988967,0.00652117,0.00217409,0.999997,-0.00100867,-0.000311413,0.00218588,0.999998,-3.05203e-06,3.6572e-06,-0.0020663,2
11212000,-0.00211022,0.0125215,-0.00732603,0.999997,-0.000948347,-0.000283883,0.00217552,0.999998,-3.05203e-06,3.6572e-06,-0.0020663,2
11244000,-0.00261006,0.00202211,0.00717395,0.999997,-0.000985726,-0.000276315,0.0021448,0.999998,-3.05203e-06,3.6572e-06,-0.0020663,2
11272000,0.00639001,-0.0204776,-0.0068265,0.999997,-0.00103058,-0.000322948,0.00215483,0.999998,-3.05203e-06,3.6572e-06,-0.0020663,2
11304000,0.00339034,0.0170229,-0.00582699,0.999997,-0.00099743,-0.000285833,0.00204182,0.999998,-3.05203e-06,3.6572e-06,-0.0020663,2
11332000,0.00439044,-0.00147684,-0.00932698,0.999998,-0.000922897,-0.000262885,0.0020165,0.999998,-3.05203e-06,3.6572e-06,-0.0020663,2
11364000,0.00289064,0.00252332,-0.0093275,0.999998,-0.000899968,-0.000265343,0.00189726,0.999998,-3.05203e-06,3.6572e-06,-0.0020663,2
11396000,-0.00110908,0.00352373,-0.00682798,0.999998,-0.00082357,-0.000298417,0.00185481,0.999998,-3.05203e-06,3.6572e-06,-0.0020663,2
11424000,0.0113911,0.0040239,-0.00382779,0.999998,-0.000809906,-0.000319105,0.00183362,0.999998,-3.05203e-06,3.6572e-06,-0.0020663,2
11456000,-0.00410864,0.00702419,0.0041714,0.999998,-0.000720602,-0.000367822,0.00182887,0.999998,-3.05203e-06,3.6572e-06,-0.0020663,2
11484000,0.0103916,0.000524348,0.00967221,0.999998,-0.000720475,-0.000195246,0.00185343,0.999998,-3.05203e-06,3.6572e-06,-0.0020663,2
11512000,0.000891664,2.44262e-05,-0.000827545,0.999998,-0.000691723,-0.000164614,0.00185068,0.999998,-3.05203e-06,3.6572e-06,-0.0020663,2
11540000,0.000891775,-0.00697548,-0.00232685,0.999998,-0.000706372,-0.000204015,0.00178672,0.999998,-3.05203e-06,3.6572e-06,-0.0020663,2
11568000,0.000392017,0.00102469,-0.00432599,0.999998,-0.000576659,-0.000209133,0.00173111,0.999998,-3.05203e-06,3.6572e-06,-0.0020663,2
11596000,-0.0176079,0.00902472,-0.00632543,0.999998,-0.000666682,-0.000154634,0.00170601,0.999998,-3.05203e-06,3.6572e-06,-0.0020663,2
11628000,-0.0116078,-0.000975208,0.00117459,0.999998,-0.000659705,-0.000110227,0.00179451,0.999998,-3.05203e-06,3.6572e-06,-0.0020663,2
11656000,0.00939232,0.0110248,-0.0108237,0.999998,-0.000557707,-0.000103429,0.00176727,0.999998,-3.05203e-06,3.6572e-06,-0.0020663,2
11684000,-0.00360766,-0.00547514,0.00167654,0.999998,-0.000520363,-9.38286e-05,0.0017179,0.999998,-3.05203e-06,3.6572e-06,-0.0020663,2
11712000,-0.00210764,-0.00297515,-0.00682225,0.999998,-0.0005386,-6.43488e-05,0.00170823,0.999998,-3.05203e-06,3.6572e-06,-0.0020663,2
11740000,-0.00560764,-0.00147515,-0.00332178,0.999998,-0.000570322,-0.000159991,0.00170923,0.999998,-3.05203e-06,3.6572e-06,-0.0020663,2
11768000,0.00089233,-0.0124752,-0.0158205,0.999998,-0.000530846,-0.000170603,0.00171643,0.999998,-3.05203e-06,3.6572e-06,-0.0020663,2
11796000,-0.00360776,-0.00697517,0.000678844,0.999998,-0.000523976,-0.000178358,0.00167544,0.999998,-3.05203e-06,3.6572e-06,-0.0020663,2
11828000,0.00189216,-0.0054752,0.010679,0.999999,-0.000559075,-0.000172767,0.00161827,0.999998,-3.05203e-06,3.6572e-06,-0.0020663,2
11860000,-0.012608,0.00352469,-0.00931842,0.999998,-0.000661831,-0.000178382,0.00163469,0.999998,-3.05203e-06,3.6572e-06,-0.0020663,2
11892000,0.000391889,-0.00347532,-0.00231815,0.999998,-0.000688301,-0.000186061,0.00159273,0.999998,-3.05203e-06,3.6572e-06,-0.0020663,2
11924000,-0.0101084,-0.00347541,-0.000816391,0.999999,-0.000740713,-9.79324e-05,0.00156773,0.999998,-3.05203e-06,3.6572e-06,-0.0020663,2
11956000,0.00589148,-0.00797545,-0.00331616,0.999998,-0.000788882,-0.000151934,0.00164248,0.999998,-3.05203e-06,3.6572e-06,-0.0020663,2
11988000,-0.00260885,0.00752445,-0.0038149,0.999998,-0.000764007,-9.00012e-05,0.00165226,0.999998,-3.05203e-06,3.6572e-06,-0.0020663,2
12016000,-0.00610905,0.00952439,0.00118582,0.999998,-0.00074415,-6.773e-05,0.00168275,0.999998,-3.05203e-06,3.6572e-06,-0.0020663,2
12048000,0.00739058,-0.00197569,0.00618874,0.999998,-0.000745416,-8.22597e-06,0.00169625,0.999998,-3.05203e-06,3.6572e-06,-0.0020663,2
12076000,0.00239041,0.00502425,-0.00731004,0.999998,-0.000694454,-7.62395e-05,0.00167123,0.999998,-3.05203e-06,3.6572e-06,-0.0020663,2
12108000,0.00639015,-0.00347586,0.00468791,0.999998,-0.000637919,-4.20316e-05,0.00164665,0.999998,-3.05203e-06,3.6572e-06,-0.0020663,2
12140000,0.000889751,0.00552407,0.00768902,0.999999,-0.000613545,-2.10584e-05,0.0016457,0.999998,-3.05203e-06,3.6572e-06,-0.0020663,2
12172000,0.00788959,0.002024,-0.0123107,0.999999,-0.000579239,-0.000100252,0.00165954,0.999998,-3.05203e-06,3.6572e-06,-0.0020663,2
12200000,-0.00261062,-0.003976,0.00919056,0.999998,-0.000542156,-0.00016393,0.00172385,0.999998,-3.05203e-06,3.6572e-06,-0.0020663,2
12232000,-0.00911104,2.3915e-05,-0.00130859,0.999998,-0.000591485,-0.000194652,0.00168868,0.999998,-3.05203e-06,3.6572e-06,-0.0020663,2
12264000,0.0128887,0.000523875,0.00469111,0.999998,-0.000632173,-0.000238526,0.00168282,0.999998,-3.05203e-06,3.6572e-06,-0.0020663,2
12292000,-0.00661144,2.38276e-05,-0.00280323,0.999998,-0.000607058,-0.000236674,0.00175269,0.999998,-3.05203e-06,3.6572e-06,-0.0020663,2
12320000,0.00688817,-0.00297621,-0.00280436,0.999998,-0.000507247,-0.000191794,0.00184769,0.999998,-3.05203e-06,3.6572e-06,-0.0020663,2
12352000,0.00488798,0.00302375,0.00869588,0.999998,-0.000390002,-0.000210864,0.00186468,0.999998,-3.05203e-06,3.6572e-06,-0.0020663,2
12384000,-0.000112371,0.00302372,-0.00229985,0.999998,-0.000390251,-0.000180308,0.00191329,0.999998,-3.05203e-06,3.6572e-06,-0.0020663,2
12412000,0.00188748,0.00652371,-0.00230244,0.999998,-0.000451242,-0.000207214,0.00191489,0.999998,-3.05203e-06,3.6572e-06,-0.0020663,2
12444000,-0.00361271,0.00452372,-0.00480116,0.999998,-0.00049423,-0.000154059,0.00194742,0.999998,-3.05203e-06,3.6572e-06,-0.0020663,2
12472000,0.00688693,0.00502369,0.00569984,0.999998,-0.000471032,-9.80458e-05,0.00199703,0.999998,-3.05203e-06,3.6572e-06,-0.0020663,2
12500000,-0.00661324,-0.000976277,0.00570081,0.999998,-0.000495833,-0.000157265,0.0020097,0.999998,-3.05203e-06,3.6572e-06,-0.0020663,2
12528000,-0.0036134,0.0140237,0.00270307,0.999998,-0.000519329,-1.75814e-05,0.00204631,0.999998,-3.05203e-06,3.6572e-06,-0.0020663,2
12560000,0.00438632,0.0150238,-0.00679613,0.999998,-0.00057455,3.0973e-05,0.00202495,0.999998,-3.05203e-06,3.6572e-06,-0.0020663,2
12588000,0.00838611,0.0200238,-0.00679482,0.999998,-0.00048131,5.65732e-05,0.00191689,0.999998,-3.05203e-06,3.6572e-06,-0.0020663,2
12616000,0.00188607,0.00752382,0.00520679,0.999998,-0.000472348,9.59744e-05,0.00192849,0.999998,-3.05203e-06,3.6572e-06,-0.0020663,2
12648000,0.0113858,-0.00847611,-0.0012919,0.999998,-0.000422247,7.44092e-05,0.00197003,0.999998,-3.05203e-06,3.6572e-06,-0.0020663,2
12676000,0.00638567,-0.00847606,0.00270708,0.999998,-0.000404483,-1.13875e-05,0.00195311,0.999998,-3.05203e-06,3.6572e-06,-0.0020663,2
12704000,0.0103856,0.00402393,0.0087074,0.999998,-0.000380957,-8.82487e-05,0.00195048,0.999998,-3.05203e-06,3.6572e-06,-0.0020663,2
12732000,0.000385483,-0.00247595,0.000207822,0.999998,-0.000353772,-9.31438e-05,0.00202795,0.999998,-3.05203e-06,3.6572e-06,-0.0020663,2
12760000,0.0018853,0.00402416,0.00120927,0.999998,-0.000340748,-9.62073e-05,0.00197328,0.999998,-3.05203e-06,3.6572e-06,-0.0020663,2
12792000,-0.00161478,0.00402423,0.00821002,0.999998,-0.000286874,-7.12386e-05,0.00201512,0.999998,-3.05203e-06,3.6572e-06,-0.0020663,2
12820000,-0.00361482,-0.00697573,0.0097114,0.999998,-0.000282182,-0.000105401,0.00208088,0.999998,-3.05203e-06,3.6572e-06,-0.0020663,2
12852000,-0.00111496,-0.00847557,0.00971561,0.999998,-0.000372597,-0.00012989,0.00206863,0.999998,-3.05203e-06,3.6572e-06,-0.0020663,2
12880000,0.010885,-0.000975452,0.00471528,0.999998,-0.000368287,-0.00013817,0.00211296,0.999998,-3.05203e-06,3.6572e-06,-0.0020663,2
12908000,-0.00411503,0.00902452,-0.00878531,0.999998,-0.000367089,-0.000162484,0.00220262,0.999998,-3.05203e-06,3.6572e-06,-0.0020663,2
12936000,0.0023849,0.000524727,-0.00328054,0.999998,-0.000420044,-0.000167007,0.00218252,0.999998,-3.05203e-06,3.6572e-06,-0.0020663,2
12964000,-0.00861516,0.00702481,-0.00727984,0.999997,-0.000449186,-0.000146479,0.00222012,0.999998,-3.05203e-06,3.6572e-06,-0.0020663,2
12992000,-0.00661514,0.00302494,-0.00678105,0.999998,-0.000426343,-0.000164898,0.00217113,0.999998,-3.05203e-06,3.6572e-06,-0.0020663,2
13020000,0.000384792,-0.00247492,0.00221899,0.999997,-0.000460614,-0.000180447,0.00219877,0.999998,-3.05203e-06,3.6572e-06,-0.0020663,2
13048000,0.00338479,-0.0049748,-0.00577956,0.999998,-0.000464942,-0.000208974,0.00218979,0.999998,-3.05203e-06,3.6572e-06,-0.0020663,2
13080000,-0.00361523,0.00452529,-0.00227765,0.999997,-0.000483455,-0.000235574,0.00228464,0.999998,-3.05203e-06,3.6572e-06,-0.0020663,2
13108000,0.00338474,-0.00097451,0.00322663,0.999997,-0.000519829,-0.000313237,0.00225976,0.999998,-3.05203e-06,3.6572e-06,-0.0020663,2
13140000,-0.00311524,-0.00247439,-0.00777226,0.999997,-0.000542396,-0.000369001,0.00218567,0.999998,-3.05203e-06,3.6572e-06,-0.0020663,2
13172000,-0.000115276,-0.00647427,-0.00627265,0.999997,-0.000503105,-0.000403617,0.0021643,0.999998,-3.05203e-06,3.6572e-06,-0.0020663,2
13204000,0.00038477,-0.012474,0.00222942,0.999997,-0.000440806,-0.000486201,0.00220911,0.999998,-3.05203e-06,3.6572e-06,-0.0020663,2
13236000,-0.00411524,-0.00247391,-0.00176969,0.999997,-0.000446623,-0.000543953,0.00223676,0.999998,-3.05203e-06,3.6572e-06,-0.0020663,2
13264000,-0.00261519,-0.00397366,-0.00477058,0.999997,-0.00040845,-0.00056753,0.00225912,0.999998,-3.05203e-06,3.6572e-06,-0.0020663,2
13292000,0.000384837,-0.00297354,-0.00627057,0.999997,-0.000370494,-0.000527117,0.00231963,0.999998,-3.05203e-06,3.6572e-06,-0.0020663,2
13320000,-0.0106151,0.0115266,-0.0127696,0.999997,-0.000444519,-0.000512967,0.00236542,0.999998,-3.05203e-06,3.6572e-06,-0.0020663,2
13348000,-0.00111507,-0.0039733,0.00773148,0.999997,-0.000519532,-0.000515823,0.00238402,0.999998,-3.05203e-06,3.6572e-06,-0.0020663,2
13376000,0.004885,-0.00197309,0.00173366,0.999997,-0.000546517,-0.000542607,0.00235207,0.999998,-3.05203e-06,3.6572e-06,-0.0020663,2
13408000,0.00338505,-0.000472983,0.00673323,0.999997,-0.000520892,-0.000507302,0.00239968,0.999998,-3.05203e-06,3.6572e-06,-0.0020663,2
13440000,-0.00361481,0.00152726,0.00223494,0.999997,-0.000577171,-0.000527207,0.00239067,0.999998,-3.05203e-06,3.6572e-06,-0.0020663,2
13472000,0.00888525,-0.00747268,-0.00226356,0.999997,-0.000599676,-0.000483021,0.00238187,0.999998,-3.05203e-06,3.6572e-06,-0.0020663,2
13500000,-0.00711465,0.00102744,-0.00426247,0.999997,-0.000560917,-0.000493569,0.0023697,0.999998,-3.05203e-06,3.6572e-06,-0.0020663,2
13528000,0.00288555,0.00102765,0.00623781,0.999997,-0.000512291,-0.00048902,0.0024473,0.999998,-3.05203e-06,3.6572e-06,-0.0020663,2
13556000,0.0133856,0.00302775,-0.00576163,0.999997,-0.000474829,-0.000423535,0.00243792,0.999998,-3.05203e-06,3.6572e-06,-0.0020663,2
13584000,-0.00761426,0.00102784,0.0107382,0.999997,-0.000435294,-0.000415994,0.00247682,0.999998,-3.05203e-06,3.6572e-06,-0.0020663,2
13616000,-0.00611402,-0.00197194,-0.00776072,0.999997,-0.000473069,-0.000396672,0.00255292,0.999998,-3.05203e-06,3.6572e-06,-0.0020663,2
13644000,-0.00211391,-0.00247185,0.000239541,0.999997,-0.000531516,-0.000425384,0.00247307,0.999998,-3.05203e-06,3.6572e-06,-0.0020663,2
13672000,-0.0041138,-0.00747175,0.0027404,0.999997,-0.000501086,-0.000437802,0.00248999,0.999998,-3.05203e-06,3.6572e-06,-0.0020663,2
13700000,0.00188647,0.00702843,0.000739736,0.999997,-0.000551837,-0.000407398,0.00252743,0.999998,-3.05203e-06,3.6572e-06,-0.0020663,2
13732000,0.00488661,0.00102851,-0.000259189,0.999997,-0.000486944,-0.000347756,0.00253905,0.999998,-3.05203e-06,3.6572e-06,-0.0020663,2
13764000,0.00988671,0.00702865,-0.00075778,0.999996,-0.000503004,-0.000332246,0.00261707,0.999998,-3.05203e-06,3.6572e-06,-0.0020663,2
13796000,0.000386958,0.00102876,-0.0157565,0.999997,-0.000526042,-0.000338809,0.00257133,0.999998,-3.05203e-06,3.6572e-06,-0.0020663,2
13828000,-0.00561286,0.00702878,0.0142431,0.999996,-0.000441178,-0.000328027,0.00259199,0.999998,-3.05203e-06,3.6572e-06,-0.0020663,2
13860000,-0.00861259,0.002029,-0.00275461,0.999997,-0.000553562,-0.000229764,0.00252122,0.999998,-3.05203e-06,3.6572e-06,-0.0020663,2
13888000,0.00538754,-0.00247094,0.00374529,0.999997,-0.000493515,-0.000212975,0.00248218,0.999998,-3.05203e-06,3.6572e-06,-0.0020663,2
13916000,-0.00661233,0.00852914,-0.000250993,0.999997,-0.000465516,-0.000191195,0.00253876,0.999998,-3.05203e-06,3.6572e-06,-0.0020663,2
13944000,0.00388791,-0.0124707,0.00774899,0.999997,-0.000503251,-0.000277607,0.00249081,0.999998,-3.05203e-06,3.6572e-06,-0.0020663,2
13972000,0.00288807,0.00352934,0.00174921,0.999997,-0.000370245,-0.000273551,0.00248797,0.999998,-3.05203e-06,3.6572e-06,-0.0020663,2
14004000,0.0023882,-0.0014706,0.00375097,0.999997,-0.000409366,-0.000332928,0.00248088,0.999998,-3.05203e-06,3.6572e-06,-0.0020663,2
14032000,0.0103885,0.00452954,-0.00574856,0.999997,-0.000342384,-0.000331955,0.00254307,0.999998,-3.05203e-06,3.6572e-06,-0.0020663,2
14064000,-0.00261144,0.00352956,-0.00174882,0.999996,-0.000400626,-0.000369304,0.00264151,0.999998,-3.05203e-06,3.6572e-06,-0.0020663,2
14092000,-0.00111131,0.00302963,0.00175353,0.999996,-0.000452762,-0.000326598,0.00269223,0.999998,-3.05203e-06,3.6572e-06,-0.0020663,2
14120000,-0.0121111,-0.00697026,0.00175576,0.999996,-0.000458938,-0.000258788,0.00265037,0.999998,-3.05203e-06,3.6572e-06,-0.0020663,2
14152000,-0.000110941,-0.00547024,0.00325606,0.999996,-0.000496169,-0.000288041,0.00267,0.999998,-3.05203e-06,3.6572e-06,-0.0020663,2
14180000,0.000389167,-0.00297016,-0.00474105,0.999996,-0.00047233,-0.000231084,0.00269509,0.999998,-3.05203e-06,3.6572e-06,-0.0020663,2
14208000,0.00588939,-0.0049701,-0.00523972,0.999996,-0.000468327,-0.000232167,0.00271049,0.999998,-3.05203e-06,3.6572e-06,-0.0020663,2
14236000,0.00338947,0.00152992,-0.00873921,0.999996,-0.000440375,-0.000210207,0.00265169,0.999998,-3.05203e-06,3.6572e-06,-0.0020663,2
14264000,-0.00561041,-0.00247004,0.000763257,0.999996,-0.000449257,-0.000246316,0.00261549,0.999998,-3.05203e-06,3.6572e-06,-0.0020663,2
14292000,-0.0111103,0.00953002,-0.000235721,0.999996,-0.000449208,-0.000256351,0.00264464,0.999998,-3.05203e-06,3.6572e-06,-0.0020663,2
14320000,-0.00411014,-0.00846994,-0.0022393,0.999996,-0.00053222,-0.000245627,0.0026153,0.999998,-3.05203e-06,3.6572e-06,-0.0020663,2
14348000,-0.00311004,-0.00196988,-0.00323773,0.999996,-0.000528041,-0.000302658,0.0025839,0.999998,-3.05203e-06,3.6572e-06,-0.0020663,2
14376000,-0.00310999,-0.0164699,0.00976268,0.999997,-0.000504882,-0.000347625,0.00255135,0.999998,-3.05203e-06,3.6572e-06,-0.0020663,2
