timestamp,roll_body,pitch_body,yaw_body,yaw_sp_move_rate,q_d[0],q_d[1],q_d[2],q_d[3],thrust_body[0],thrust_body[1],thrust_body[2],q_d_valid,roll_reset_integral,pitch_reset_integral,yaw_reset_integral,fw_control_yaw,apply_flaps
1316000,0.0,-0.0,0.00908879,0.0,0.99999,0.0,0.0,0.00454438,0.0,0.0,-0.08,1,0,0,0,0,0
1412000,0.0,-0.0,0.00899462,0.0,0.99999,0.0,0.0,0.00449729,0.0,0.0,-0.08,1,0,0,0,0,0
1512000,0.0,-0.0,0.00894168,0.0,0.99999,0.0,0.0,0.00447083,0.0,0.0,-0.08,1,0,0,0,0,0
1608000,0.0,-0.0,0.00877872,0.0,0.99999,0.0,0.0,0.00438934,0.0,0.0,-0.08,1,0,0,0,0,0
1704000,0.0,-0.0,0.00863998,0.0,0.999991,0.0,0.0,0.00431998,0.0,0.0,-0.08,1,0,0,0,0,0
1800000,0.0,-0.0,0.0085067,0.0,0.999991,0.0,0.0,0.00425334,0.0,0.0,-0.08,1,0,0,0,0,0
1900000,0.0,-0.0,0.00837578,0.0,0.999991,0.0,0.0,0.00418788,0.0,0.0,-0.08,1,0,0,0,0,0
1992000,0.0,-0.0,0.00814213,0.0,0.999992,0.0,0.0,0.00407106,0.0,0.0,-0.08,1,0,0,0,0,0
2092000,0.0,-0.0,0.00789011,0.0,0.999992,0.0,0.0,0.00394505,0.0,0.0,-0.08,1,0,0,0,0,0
2188000,0.0,-0.0,0.00764369,0.0,0.999993,0.0,0.0,0.00382183,0.0,0.0,-0.08,1,0,0,0,0,0
2288000,0.0,-0.0,0.00742884,0.0,0.999993,0.0,0.0,0.00371441,0.0,0.0,-0.08,1,0,0,0,0,0
2384000,0.0,-0.0,0.00726648,0.0,0.999993,0.0,0.0,0.00363323,0.0,0.0,-0.08,1,0,0,0,0,0
2480000,0.0,-0.0,0.00706656,0.0,0.999994,0.0,0.0,0.00353327,0.0,0.0,-0.08,1,0,0,0,0,0
2580000,0.0,-0.0,0.00707834,0.0,0.999994,0.0,0.0,0.00353916,0.0,0.0,-0.08,1,0,0,0,0,0
2676000,0.0,-0.0,0.00729029,0.0,0.999993,0.0,0.0,0.00364514,0.0,0.0,-0.08,1,0,0,0,0,0
2772000,0.0,-0.0,0.00691701,0.0,0.999994,0.0,0.0,0.0034585,0.0,0.0,-0.08,1,0,0,0,0,0
2868000,0.0,-0.0,0.00683903,0.0,0.999994,0.0,0.0,0.00341951,0.0,0.0,-0.08,1,0,0,0,0,0
2964000,0.0,-0.0,0.00706501,0.0,0.999994,0.0,0.0,0.0035325,0.0,0.0,-0.08,1,0,0,0,0,0
3060000,0.0,-0.0,0.00720323,0.0,0.999994,0.0,0.0,0.00360161,0.0,0.0,-0.08,1,0,0,0,0,0
3156000,0.0,-0.0,0.00692914,0.0,0.999994,0.0,0.0,0.00346456,0.0,0.0,-0.08,1,0,0,0,0,0
3256000,0.0,-0.0,0.00695653,0.0,0.999994,0.0,0.0,0.00347826,0.0,0.0,-0.08,1,0,0,0,0,0
3348000,0.0,-0.0,0.00685272,0.0,0.999994,0.0,0.0,0.00342636,0.0,0.0,-0.08,1,0,0,0,0,0
3444000,0.0,-0.0,0.0067995,0.0,0.999994,0.0,0.0,0.00339975,0.0,0.0,-0.08,1,0,0,0,0,0
3544000,0.0,-0.0,0.00660152,0.0,0.999995,0.0,0.0,0.00330075,0.0,0.0,-0.08,1,0,0,0,0,0
3640000,0.0,-0.0,0.00671646,0.0,0.999994,0.0,0.0,0.00335822,0.0,0.0,-0.08,1,0,0,0,0,0
3740000,0.0,-0.0,0.00665556,0.0,0.999994,0.0,0.0,0.00332777,0.0,0.0,-0.08,1,0,0,0,0,0
3836000,0.0,-0.0,0.0062658,0.0,0.999995,0.0,0.0,0.00313289,0.0,0.0,-0.08,1,0,0,0,0,0
3932000,0.0,-0.0,0.00634704,0.0,0.999995,0.0,0.0,0.00317352,0.0,0.0,-0.08,1,0,0,0,0,0
4032000,0.0,-0.0,0.00606132,0.0,0.999995,0.0,0.0,0.00303066,0.0,0.0,-0.08,1,0,0,0,0,0
4132000,0.0,-0.0,0.00609023,0.0,0.999995,0.0,0.0,0.00304511,0.0,0.0,-0.08,1,0,0,0,0,0
4228000,0.0,-0.0,0.00629763,0.0,0.999995,0.0,0.0,0.00314881,0.0,0.0,-0.08,1,0,0,0,0,0
4324000,0.0,-0.0,0.00631735,0.0,0.999995,0.0,0.0,0.00315867,0.0,0.0,-0.08,1,0,0,0,0,0
4424000,0.0,-0.0,0.00657287,0.0,0.999995,0.0,0.0,0.00328643,0.0,0.0,-0.08,1,0,0,0,0,0
4520000,0.0,-0.0,0.00629236,0.0,0.999995,0.0,0.0,0.00314617,0.0,0.0,-0.08,1,0,0,0,0,0
4616000,0.0,-0.0,0.00593311,0.0,0.999996,0.0,0.0,0.00296655,0.0,0.0,-0.08,1,0,0,0,0,0
4712000,0.0,-0.0,0.00581361,0.0,0.999996,0.0,0.0,0.0029068,0.0,0.0,-0.08,1,0,0,0,0,0
4808000,0.0,-0.0,0.00567859,0.0,0.999996,0.0,0.0,0.00283929,0.0,0.0,-0.08,1,0,0,0,0,0
4908000,0.0,-0.0,0.00598912,0.0,0.999996,0.0,0.0,0.00299455,0.0,0.0,-0.08,1,0,0,0,0,0
5004000,0.0,-0.0,0.00628461,0.0,0.999995,0.0,0.0,0.0031423,0.0,0.0,-0.08,1,0,0,0,0,0
5104000,0.0,-0.0,0.00596973,0.0,0.999996,0.0,0.0,0.00298486,0.0,0.0,-0.08,1,0,0,0,0,0
5200000,0.0,-0.0,0.00602081,0.0,0.999995,0.0,0.0,0.0030104,0.0,0.0,-0.08,1,0,0,0,0,0
5296000,0.0,-0.0,0.00626313,0.0,0.999995,0.0,0.0,0.00313156,0.0,0.0,-0.08,1,0,0,0,0,0
5396000,0.0,-0.0,0.00642915,0.0,0.999995,0.0,0.0,0.00321457,0.0,0.0,-0.08,1,0,0,0,0,0
5488000,0.0,-0.0,0.00662732,0.0,0.999995,0.0,0.0,0.00331365,0.0,0.0,-0.08,1,0,0,0,0,0
5588000,0.0,-0.0,0.00663996,0.0,0.999995,0.0,0.0,0.00331997,0.0,0.0,-0.08,1,0,0,0,0,0
5688000,0.0,-0.0,0.00711262,0.0,0.999994,0.0,0.0,0.0035563,0.0,0.0,-0.08,1,0,0,0,0,0
5788000,0.0,-0.0,0.0073664,0.0,0.999993,0.0,0.0,0.00368319,0.0,0.0,-0.08,1,0,0,0,0,0
5884000,0.0,-0.0,0.00728897,0.0,0.999993,0.0,0.0,0.00364448,0.0,0.0,-0.08,1,0,0,0,0,0
5980000,0.0,-0.0,0.00726717,0.0,0.999993,0.0,0.0,0.00363358,0.0,0.0,-0.08,1,0,0,0,0,0
6080000,0.0,-0.0,0.00697435,0.0,0.999994,0.0,0.0,0.00348717,0.0,0.0,-0.08,1,0,0,0,0,0
6176000,0.0,-0.0,0.00716743,0.0,0.999994,0.0,0.0,0.00358371,0.0,0.0,-0.08,1,0,0,0,0,0
6272000,0.0,-0.0,0.00689986,0.0,0.999994,0.0,0.0,0.00344992,0.0,0.0,-0.08,1,0,0,0,0,0
6372000,0.0,-0.0,0.00692185,0.0,0.999994,0.0,0.0,0.00346092,0.0,0.0,-0.08,1,0,0,0,0,0
6468000,0.0,-0.0,0.00720771,0.0,0.999994,0.0,0.0,0.00360385,0.0,0.0,-0.08,1,0,0,0,0,0
6568000,0.0,-0.0,0.00750221,0.0,0.999993,0.0,0.0,0.00375109,0.0,0.0,-0.08,1,0,0,0,0,0
6668000,0.0,-0.0,0.00710609,0.0,0.999994,0.0,0.0,0.00355304,0.0,0.0,-0.08,1,0,0,0,0,0
6768000,0.0,-0.0,0.00740928,0.0,0.999993,0.0,0.0,0.00370463,0.0,0.0,-0.08,1,0,0,0,0,0
6868000,0.0,-0.0,0.00762253,0.0,0.999993,0.0,0.0,0.00381125,0.0,0.0,-0.08,1,0,0,0,0,0
6968000,0.0,-0.0,0.00783493,0.0,0.999992,0.0,0.0,0.00391746,0.0,0.0,-0.08,1,0,0,0,0,0
7068000,0.0,-0.0,0.00813252,0.0,0.999992,0.0,0.0,0.00406625,0.0,0.0,-0.08,1,0,0,0,0,0
7164000,0.0,-0.0,0.00809158,0.0,0.999992,0.0,0.0,0.00404578,0.0,0.0,-0.08,1,0,0,0,0,0
7260000,0.0,-0.0,0.00804963,0.0,0.999992,0.0,0.0,0.0040248,0.0,0.0,-0.08,1,0,0,0,0,0
7360000,0.0,-0.0,0.00783218,0.0,0.999992,0.0,0.0,0.00391608,0.0,0.0,-0.08,1,0,0,0,0,0
7456000,0.0,-0.0,0.00801612,0.0,0.999992,0.0,0.0,0.00400805,0.0,0.0,-0.08,1,0,0,0,0,0
7552000,0.0,-0.0,0.00800623,0.0,0.999992,0.0,0.0,0.0040031,0.0,0.0,-0.08,1,0,0,0,0,0
7648000,0.0,-0.0,0.00818247,0.0,0.999992,0.0,0.0,0.00409122,0.0,0.0,-0.08,1,0,0,0,0,0
7748000,0.0,-0.0,0.00822086,0.0,0.999992,0.0,0.0,0.00411042,0.0,0.0,-0.08,1,0,0,0,0,0
7848000,0.0,-0.0,0.00805894,0.0,0.999992,0.0,0.0,0.00402946,0.0,0.0,-0.08,1,0,0,0,0,0
7940000,0.0,-0.0,0.00823603,0.0,0.999992,0.0,0.0,0.004118,0.0,0.0,-0.08,1,0,0,0,0,0
8036000,0.0,-0.0,0.00806364,0.0,0.999992,0.0,0.0,0.00403181,0.0,0.0,-0.08,1,0,0,0,0,0
8132000,0.0,-0.0,0.00799148,0.0,0.999992,0.0,0.0,0.00399573,0.0,0.0,-0.08,1,0,0,0,0,0
8232000,0.0,-0.0,0.00834114,0.0,0.999991,0.0,0.0,0.00417056,0.0,0.0,-0.08,1,0,0,0,0,0
8328000,0.0,-0.0,0.00830359,0.0,0.999991,0.0,0.0,0.00415178,0.0,0.0,-0.08,1,0,0,0,0,0
8428000,0.0,-0.0,0.00838408,0.0,0.999991,0.0,0.0,0.00419203,0.0,0.0,-0.08,1,0,0,0,0,0
8520000,0.0,-0.0,0.00833634,0.0,0.999991,0.0,0.0,0.00416816,0.0,0.0,-0.08,1,0,0,0,0,0
8612000,0.0,-0.0,0.00819331,0.0,0.999992,0.0,0.0,0.00409664,0.0,0.0,-0.08,1,0,0,0,0,0
8708000,0.0,-0.0,0.00826026,0.0,0.999991,0.0,0.0,0.00413012,0.0,0.0,-0.08,1,0,0,0,0,0
8808000,0.0,-0.0,0.0082666,0.0,0.999991,0.0,0.0,0.00413329,0.0,0.0,-0.08,1,0,0,0,0,0
8908000,0.0,-0.0,0.00825886,0.0,0.999991,0.0,0.0,0.00412942,0.0,0.0,-0.08,1,0,0,0,0,0
9008000,0.0,-0.0,0.00876501,0.0,0.99999,0.0,0.0,0.00438249,0.0,0.0,-0.08,1,0,0,0,0,0
9108000,0.0,-0.0,0.00884012,0.0,0.99999,0.0,0.0,0.00442005,0.0,0.0,-0.08,1,0,0,0,0,0
9208000,0.0,-0.0,0.00867427,0.0,0.999991,0.0,0.0,0.00433712,0.0,0.0,-0.08,1,0,0,0,0,0
9308000,0.0,-0.0,0.00854939,0.0,0.999991,0.0,0.0,0.00427468,0.0,0.0,-0.08,1,0,0,0,0,0
9404000,0.0,-0.0,0.00848797,0.0,0.999991,0.0,0.0,0.00424397,0.0,0.0,-0.08,1,0,0,0,0,0
9500000,0.0,-0.0,0.00806505,0.0,0.999992,0.0,0.0,0.00403251,0.0,0.0,-0.08,1,0,0,0,0,0
9596000,0.0,-0.0,0.00840251,0.0,0.999991,0.0,0.0,0.00420124,0.0,0.0,-0.08,1,0,0,0,0,0
9696000,0.0,-0.0,0.00832504,0.0,0.999991,0.0,0.0,0.00416251,0.0,0.0,-0.08,1,0,0,0,0,0
9796000,0.0,-0.0,0.00791949,0.0,0.999992,0.0,0.0,0.00395973,0.0,0.0,-0.08,1,0,0,0,0,0
9896000,0.0,-0.0,0.0079001,0.0,0.999992,0.0,0.0,0.00395004,0.0,0.0,-0.08,1,0,0,0,0,0
9996000,0.0,-0.0,0.00759755,0.0,0.999993,0.0,0.0,0.00379877,0.0,0.0,-0.08,1,0,0,0,0,0
10096000,0.0,-0.0,0.00755103,0.0,0.999993,0.0,0.0,0.0037755,0.0,0.0,-0.08,1,0,0,0,0,0
10196000,0.0,-0.0,0.00780555,0.0,0.999992,0.0,0.0,0.00390276,0.0,0.0,-0.08,1,0,0,0,0,0
10296000,0.0,-0.0,0.00363096,0.0,0.999998,0.0,0.0,0.00181548,0.0,0.0,-0.08,1,0,0,0,0,0
10396000,0.0,-0.0,0.00314587,0.0,0.999999,0.0,0.0,0.00157293,0.0,0.0,-0.08,1,0,0,0,0,0
10496000,0.0,-0.0,0.00283094,0.0,0.999999,0.0,0.0,0.00141547,0.0,0.0,-0.08,1,0,0,0,0,0
10592000,0.0,-0.0,0.00297659,0.0,0.999999,0.0,0.0,0.00148829,0.0,0.0,-0.08,1,0,0,0,0,0
10692000,0.0,-0.0,0.0030711,0.0,0.999999,0.0,0.0,0.00153555,0.0,0.0,-0.08,1,0,0,0,0,0
10788000,0.0,-0.0,0.00321548,0.0,0.999999,0.0,0.0,0.00160774,0.0,0.0,-0.08,1,0,0,0,0,0
10884000,0.0,-0.0,0.00345968,0.0,0.999999,0.0,0.0,0.00172984,0.0,0.0,-0.08,1,0,0,0,0,0
10984000,0.0,-0.0,0.00333917,0.0,0.999999,0.0,0.0,0.00166958,0.0,0.0,-0.08,1,0,0,0,0,0
11076000,0.0,-0.0,0.00387568,0.0,0.999998,0.0,0.0,0.00193784,0.0,0.0,-0.08,1,0,0,0,0,0
11172000,0.0,-0.0,0.00435703,0.0,0.999998,0.0,0.0,0.00217851,0.0,0.0,-0.08,1,0,0,0,0,0
11272000,0.0,-0.0,0.00433587,0.0,0.999998,0.0,0.0,0.00216793,0.0,0.0,-0.08,1,0,0,0,0,0
11372000,0.0,-0.0,0.00377153,0.0,0.999998,0.0,0.0,0.00188577,0.0,0.0,-0.08,1,0,0,0,0,0
11472000,0.0,-0.0,0.00367441,0.0,0.999998,0.0,0.0,0.0018372,0.0,0.0,-0.08,1,0,0,0,0,0
11568000,0.0,-0.0,0.00348072,0.0,0.999999,0.0,0.0,0.00174036,0.0,0.0,-0.08,1,0,0,0,0,0
11664000,0.0,-0.0,0.00355724,0.0,0.999998,0.0,0.0,0.00177862,0.0,0.0,-0.08,1,0,0,0,0,0
11760000,0.0,-0.0,0.00349829,0.0,0.999998,0.0,0.0,0.00174914,0.0,0.0,-0.08,1,0,0,0,0,0
11860000,0.0,-0.0,0.00330082,0.0,0.999999,0.0,0.0,0.00165041,0.0,0.0,-0.08,1,0,0,0,0,0
11956000,0.0,-0.0,0.00329208,0.0,0.999999,0.0,0.0,0.00164604,0.0,0.0,-0.08,1,0,0,0,0,0
12056000,0.0,-0.0,0.00339287,0.0,0.999999,0.0,0.0,0.00169643,0.0,0.0,-0.08,1,0,0,0,0,0
12156000,0.0,-0.0,0.00334567,0.0,0.999999,0.0,0.0,0.00167283,0.0,0.0,-0.08,1,0,0,0,0,0
12248000,0.0,-0.0,0.00332671,0.0,0.999999,0.0,0.0,0.00166335,0.0,0.0,-0.08,1,0,0,0,0,0
12348000,0.0,-0.0,0.0036579,0.0,0.999998,0.0,0.0,0.00182895,0.0,0.0,-0.08,1,0,0,0,0,0
12448000,0.0,-0.0,0.003895,0.0,0.999998,0.0,0.0,0.0019475,0.0,0.0,-0.08,1,0,0,0,0,0
12548000,0.0,-0.0,0.00409167,0.0,0.999998,0.0,0.0,0.00204583,0.0,0.0,-0.08,1,0,0,0,0,0
12648000,0.0,-0.0,0.00394043,0.0,0.999998,0.0,0.0,0.00197021,0.0,0.0,-0.08,1,0,0,0,0,0
12744000,0.0,-0.0,0.00401689,0.0,0.999998,0.0,0.0,0.00200844,0.0,0.0,-0.08,1,0,0,0,0,0
12844000,0.0,-0.0,0.00408338,0.0,0.999998,0.0,0.0,0.00204169,0.0,0.0,-0.08,1,0,0,0,0,0
12944000,0.0,-0.0,0.00437426,0.0,0.999998,0.0,0.0,0.00218713,0.0,0.0,-0.08,1,0,0,0,0,0
13044000,0.0,-0.0,0.0044155,0.0,0.999998,0.0,0.0,0.00220775,0.0,0.0,-0.08,1,0,0,0,0,0
13144000,0.0,-0.0,0.00437175,0.0,0.999998,0.0,0.0,0.00218587,0.0,0.0,-0.08,1,0,0,0,0,0
13236000,0.0,-0.0,0.004474,0.0,0.999997,0.0,0.0,0.002237,0.0,0.0,-0.08,1,0,0,0,0,0
13336000,0.0,-0.0,0.00472024,0.0,0.999997,0.0,0.0,0.00236012,0.0,0.0,-0.08,1,0,0,0,0,0
13432000,0.0,-0.0,0.00478948,0.0,0.999997,0.0,0.0,0.00239474,0.0,0.0,-0.08,1,0,0,0,0,0
13528000,0.0,-0.0,0.00489511,0.0,0.999997,0.0,0.0,0.00244755,0.0,0.0,-0.08,1,0,0,0,0,0
13628000,0.0,-0.0,0.00505558,0.0,0.999997,0.0,0.0,0.00252779,0.0,0.0,-0.08,1,0,0,0,0,0
13728000,0.0,-0.0,0.00507826,0.0,0.999997,0.0,0.0,0.00253913,0.0,0.0,-0.08,1,0,0,0,0,0
13828000,0.0,-0.0,0.00512623,0.0,0.999997,0.0,0.0,0.00256311,0.0,0.0,-0.08,1,0,0,0,0,0
13928000,0.0,-0.0,0.00501754,0.0,0.999997,0.0,0.0,0.00250877,0.0,0.0,-0.08,1,0,0,0,0,0
14028000,0.0,-0.0,0.00508907,0.0,0.999997,0.0,0.0,0.00254453,0.0,0.0,-0.08,1,0,0,0,0,0
14124000,0.0,-0.0,0.00530098,0.0,0.999996,0.0,0.0,0.00265049,0.0,0.0,-0.08,1,0,0,0,0,0
14224000,0.0,-0.0,0.00537003,0.0,0.999996,0.0,0.0,0.00268501,0.0,0.0,-0.08,1,0,0,0,0,0
14324000,0.0,-0.0,0.00523087,0.0,0.999997,0.0,0.0,0.00261543,0.0,0.0,-0.08,1,0,0,0,0,0
14424000,0.0,-0.0,0.00527766,0.0,0.999997,0.0,0.0,0.00263883,0.0,0.0,-0.08,1,0,0,0,0,0
14524000,0.0,-0.0,0.00543394,0.0,0.999996,0.0,0.0,0.00271697,0.0,0.0,-0.08,1,0,0,0,0,0
14624000,0.0,-0.0,0.00550656,0.0,0.999996,0.0,0.0,0.00275328,0.0,0.0,-0.08,1,0,0,0,0,0
14716000,0.0,-0.0,0.00585975,0.0,0.999996,0.0,0.0,0.00292987,0.0,0.0,-0.08,1,0,0,0,0,0
14812000,0.0,-0.0,0.00594207,0.0,0.999996,0.0,0.0,0.00297103,0.0,0.0,-0.08,1,0,0,0,0,0
14908000,0.0,-0.0,0.00606076,0.0,0.999995,0.0,0.0,0.00303038,0.0,0.0,-0.08,1,0,0,0,0,0
15000000,0.0,-0.0,0.00599554,0.0,0.999996,0.0,0.0,0.00299777,0.0,0.0,-0.08,1,0,0,0,0,0
15100000,0.0,-0.0,0.00594825,0.0,0.999996,0.0,0.0,0.00297412,0.0,0.0,-0.08,1,0,0,0,0,0
15196000,0.0,-0.0,0.00597878,0.0,0.999996,0.0,0.0,0.00298939,0.0,0.0,-0.08,1,0,0,0,0,0
15292000,0.0,-0.0,0.00661649,0.0,0.999995,0.0,0.0,0.00330824,0.0,0.0,-0.08,1,0,0,0,0,0
15392000,0.0,-0.0,0.00695712,0.0,0.999994,0.0,0.0,0.00347855,0.0,0.0,-0.08,1,0,0,0,0,0
15492000,0.0,-0.0,0.00683736,0.0,0.999994,0.0,0.0,0.00341867,0.0,0.0,-0.08,1,0,0,0,0,0
15592000,0.0,-0.0,0.00712741,0.0,0.999994,0.0,0.0,0.0035637,0.0,0.0,-0.08,1,0,0,0,0,0
15692000,0.0,-0.0,0.00714129,0.0,0.999994,0.0,0.0,0.00357064,0.0,0.0,-0.08,1,0,0,0,0,0
15792000,0.0,-0.0,0.00688314,0.0,0.999994,0.0,0.0,0.00344156,0.0,0.0,-0.08,1,0,0,0,0,0
15888000,0.0,-0.0,0.00707259,0.0,0.999994,0.0,0.0,0.00353629,0.0,0.0,-0.08,1,0,0,0,0,0
15988000,0.0,-0.0,0.0071468,0.0,0.999994,0.0,0.0,0.00357339,0.0,0.0,-0.08,1,0,0,0,0,0
16088000,0.0,-0.0,0.00732595,0.0,0.999993,0.0,0.0,0.00366297,0.0,0.0,-0.08,1,0,0,0,0,0
16184000,0.0,-0.0,0.00739905,0.0,0.999993,0.0,0.0,0.00369952,0.0,0.0,-0.08,1,0,0,0,0,0
16280000,0.0,-0.0,0.00727004,0.0,0.999993,0.0,0.0,0.00363501,0.0,0.0,-0.08,1,0,0,0,0,0
16376000,0.0,-0.0,0.00726588,0.0,0.999993,0.0,0.0,0.00363293,0.0,0.0,-0.08,1,0,0,0,0,0
16476000,0.0,-0.0,0.00712731,0.0,0.999994,0.0,0.0,0.00356365,0.0,0.0,-0.08,1,0,0,0,0,0
16576000,0.0,-0.0,0.00703196,0.0,0.999994,0.0,0.0,0.00351597,0.0,0.0,-0.08,1,0,0,0,0,0
16632000,0.0,-0.0,0.00669142,0.0,0.999994,0.0,0.0,0.0033457,0.0,0.0,-0.08,1,0,0,0,0,0
70636000,0.0,-0.0,0.00833654,0.0,0.999991,0.0,-0.0,0.00416826,0.0,0.0,-0.12,1,0,0,0,0,0
70732000,-0.0044678,0.00351111,0.00766141,0.0,0.999989,-0.00224061,0.00174698,0.0038346,0.0,0.0,-0.120002,1,0,0,0,0,0
70824000,-0.00936633,0.0158111,0.00766141,0.0,0.99995,-0.00471325,0.00788736,0.00386756,0.0,0.0,-0.150487,1,0,0,0,0,0
70916000,-0.00847926,0.00875104,0.00766141,0.0,0.999974,-0.00425631,0.00435919,0.00384917,0.0,0.0,-0.213309,1,0,0,0,0,0
71012000,-0.00580824,0.00685818,0.00766141,0.0,0.999983,-0.00291721,0.00341792,0.00384061,0.0,0.0,-0.282601,1,0,0,0,0,0
71104000,-0.00139904,0.00528742,0.00766141,0.0,0.999989,-0.00070964,0.00264101,0.00383253,0.0,0.0,-0.349244,1,0,0,0,0,0
71196000,-0.000298461,0.00407826,0.00766141,0.0,0.999991,-0.00015704,0.00203854,0.00383099,0.0,0.0,-0.417122,1,0,0,0,0,0
71292000,-0.00141371,0.00333344,0.00766141,0.0,0.999991,-0.000713234,0.001664,0.00383187,0.0,0.0,-0.490399,1,0,0,0,0,0
71384000,0.000372184,0.00174214,0.00766141,0.0,0.999992,0.000182754,0.000871776,0.00383053,0.0,0.0,-0.545932,1,0,0,0,0,0
71476000,-0.000570592,0.000984588,0.00766141,0.0,0.999992,-0.00028718,0.000491198,0.00383084,0.0,0.0,-0.55351,1,0,0,0,0,0
71572000,0.000143763,-0.00070923,0.00766141,0.0,0.999993,7.32394e-05,-0.000354337,0.00383072,0.0,0.0,-0.558969,1,0,0,0,0,0
71664000,0.00020206,-0.00195077,0.00766141,0.0,0.999992,0.000104766,-0.000974992,0.00383079,0.0,0.0,-0.556061,1,0,0,0,0,0
71756000,0.00097196,-0.00338043,0.00766141,0.0,0.999991,0.00049245,-0.00168834,0.00383151,0.0,0.0,-0.554561,1,0,0,0,0,0
71852000,0.00135687,-0.00411808,0.00766141,0.0,0.99999,0.000686318,-0.00205643,0.00383208,0.0,0.0,-0.561605,1,0,0,0,0,0
71944000,0.000842467,-0.00250322,0.00766141,0.0,0.999992,0.000426024,-0.00124999,0.00383122,0.0,0.0,-0.559092,1,0,0,0,0,0
72036000,-0.000650285,-0.00173846,0.00766141,0.0,0.999992,-0.00032181,-0.000870471,0.00383041,0.0,0.0,-0.556169,1,0,0,0,0,0
72132000,0.000748209,-0.00253822,0.00766141,0.0,0.999992,0.000378963,-0.00126767,0.00383117,0.0,0.0,-0.561826,1,0,0,0,0,0
72224000,0.00153833,-0.00240021,0.00766141,0.0,0.999992,0.000773756,-0.00119715,0.00383161,0.0,0.0,-0.559132,1,0,0,0,0,0
72316000,-0.00022475,-0.00143204,0.00766141,0.0,0.999992,-0.000109631,-0.000716444,0.00383061,0.0,0.0,-0.556739,1,0,0,0,0,0
72412000,0.00036798,-0.00216883,0.00766141,0.0,0.999992,0.000188143,-0.0010837,0.00383089,0.0,0.0,-0.562743,1,0,0,0,0,0
72504000,0.000645644,-0.00294879,0.00766141,0.0,0.999992,0.000328467,-0.00147315,0.00383117,0.0,0.0,-0.558863,1,0,0,0,0,0
72596000,0.00108044,-0.00350113,0.00766141,0.0,0.999991,0.000546919,-0.00174848,0.00383163,0.0,0.0,-0.555967,1,0,0,0,0,0
72692000,0.000846004,-0.00416994,0.00766141,0.0,0.99999,0.000430985,-0.00208333,0.00383157,0.0,0.0,-0.561263,1,0,0,0,0,0
72784000,0.00170072,-0.00333337,0.00766141,0.0,0.999991,0.000856735,-0.00166342,0.00383211,0.0,0.0,-0.557755,1,0,0,0,0,0
72876000,0.00169702,-0.00308718,0.00766141,0.0,0.999991,0.000854417,-0.00154033,0.003832,0.0,0.0,-0.554944,1,0,0,0,0,0
72972000,0.000466469,-0.00323969,0.00766141,0.0,0.999991,0.000239438,-0.00161894,0.00383107,0.0,0.0,-0.561125,1,0,0,0,0,0
73064000,0.000255591,-0.00427412,0.00766141,0.0,0.99999,0.00013598,-0.00213655,0.00383096,0.0,0.0,-0.558607,1,0,0,0,0,0
73156000,0.000340035,-0.00409656,0.00766141,0.0,0.999991,0.000177862,-0.00204761,0.00383104,0.0,0.0,-0.556275,1,0,0,0,0,0
73252000,-0.000570938,-0.00387456,0.00766141,0.0,0.999991,-0.000278045,-0.00193836,0.00383013,0.0,0.0,-0.550972,1,0,0,0,0,0
73344000,-0.00184351,-0.00577758,0.00766141,0.0,0.999988,-0.00091068,-0.0028923,0.00382801,0.0,0.0,-0.455727,1,0,0,0,0,0
73436000,-0.00198929,-0.00458687,0.00766141,0.0,0.99999,-0.000985847,-0.00229722,0.0038284,0.0,0.0,-0.442785,1,0,0,0,0,0
73532000,-0.000629026,-0.00608327,0.00766141,0.0,0.999988,-0.000302858,-0.00304281,0.00382972,0.0,0.0,-0.453274,1,0,0,0,0,0
73624000,-0.00222519,-0.00406496,0.00766141,0.0,0.99999,-0.0011048,-0.00203672,0.00382842,0.0,0.0,-0.451638,1,0,0,0,0,0
73716000,-0.00244784,-0.005293,0.00766141,0.0,0.999988,-0.00121377,-0.00265116,0.00382744,0.0,0.0,-0.447747,1,0,0,0,0,0
73812000,-0.00293965,-0.0042327,0.00766141,0.0,0.999989,-0.0014617,-0.00212196,0.00382757,0.0,0.0,-0.455854,1,0,0,0,0,0
73904000,-0.00364528,-0.00452847,0.00766141,0.0,0.999988,-0.00181395,-0.0022712,0.00382655,0.0,0.0,-0.454492,1,0,0,0,0,0
73996000,-0.00466568,-0.00361101,0.00766141,0.0,0.999988,-0.0023259,-0.00181442,0.00382647,0.0,0.0,-0.456033,1,0,0,0,0,0
74092000,-0.00448557,-0.00416565,0.00766141,0.0,0.999988,-0.00223478,-0.00209139,0.00382601,0.0,0.0,-0.466418,1,0,0,0,0,0
74184000,-0.0044916,-0.00360338,0.00766141,0.0,0.999988,-0.00223888,-0.00181027,0.00382663,0.0,0.0,-0.46437,1,0,0,0,0,0
74276000,-0.00533086,-0.00575343,0.00766141,0.0,0.999985,-0.00265438,-0.00288689,0.003823,0.0,0.0,-0.464505,1,0,0,0,0,0
74372000,-0.0044929,-0.0043521,0.00766141,0.0,0.999988,-0.00223809,-0.00218463,0.00382579,0.0,0.0,-0.473381,1,0,0,0,0,0
74464000,-0.00444335,-0.00405764,0.00766141,0.0,0.999988,-0.00221388,-0.00203731,0.00382617,0.0,0.0,-0.472345,1,0,0,0,0,0
74556000,-0.00487281,-0.00426205,0.00766141,0.0,0.999987,-0.00242822,-0.00214033,0.00382548,0.0,0.0,-0.471755,1,0,0,0,0,0
74652000,-0.00424582,-0.00450623,0.00766141,0.0,0.999988,-0.00211426,-0.00226122,0.00382589,0.0,0.0,-0.481079,1,0,0,0,0,0
74744000,-0.00502556,-0.00388201,0.00766141,0.0,0.999988,-0.00250532,-0.00195061,0.0038258,0.0,0.0,-0.479384,1,0,0,0,0,0
74836000,-0.00663384,-0.00446811,0.00766141,0.0,0.999985,-0.00330832,-0.00224673,0.00382325,0.0,0.0,-0.47696,1,0,0,0,0,0
74932000,-0.00710741,-0.0038679,0.00766141,0.0,0.999985,-0.00354626,-0.00194754,0.00382379,0.0,0.0,-0.485965,1,0,0,0,0,0
75024000,-0.00707397,-0.00315356,0.00766141,0.0,0.999985,-0.00353091,-0.00159031,0.00382509,0.0,0.0,-0.484671,1,0,0,0,0,0
75116000,-0.0077795,-0.00360222,0.00766141,0.0,0.999983,-0.00388281,-0.00181598,0.00382365,0.0,0.0,-0.483362,1,0,0,0,0,0
75212000,-0.00713555,-0.00359812,0.00766141,0.0,0.999985,-0.00356085,-0.0018127,0.00382425,0.0,0.0,-0.490278,1,0,0,0,0,0
75304000,-0.00898797,-0.00351555,0.00766141,0.0,0.999981,-0.0044872,-0.00177496,0.00382275,0.0,0.0,-0.485995,1,0,0,0,0,0
75396000,-0.00858095,-0.00436889,0.00766141,0.0,0.999981,-0.00428205,-0.00220084,0.00382128,0.0,0.0,-0.483371,1,0,0,0,0,0
75492000,-0.00880195,-0.00344909,0.00766141,0.0,0.999982,-0.00439431,-0.00174137,0.00382306,0.0,0.0,-0.491446,1,0,0,0,0,0
75584000,-0.00835087,-0.00282537,0.00766141,0.0,0.999983,-0.00416998,-0.00142866,0.00382476,0.0,0.0,-0.488808,1,0,0,0,0,0
75676000,-0.00789334,-0.00257131,0.00766141,0.0,0.999984,-0.0039417,-0.00130075,0.00382559,0.0,0.0,-0.48579,1,0,0,0,0,0
75772000,-0.00767548,-0.00254063,0.00766141,0.0,0.999985,-0.00383284,-0.001285,0.00382579,0.0,0.0,-0.493301,1,0,0,0,0,0
75864000,-0.00790711,-0.00162976,0.00766141,0.0,0.999985,-0.00395039,-0.000830011,0.00382744,0.0,0.0,-0.489296,1,0,0,0,0,0
75956000,-0.00650877,-0.00126622,0.00766141,0.0,0.999987,-0.00325193,-0.000645571,0.00382861,0.0,0.0,-0.48702,1,0,0,0,0,0
76052000,-0.00584769,-0.00152344,0.00766141,0.0,0.999988,-0.0029209,-0.000772914,0.00382845,0.0,0.0,-0.494511,1,0,0,0,0,0
76144000,-0.00520218,-0.000924269,0.00766141,0.0,0.999989,-0.0025993,-0.000472093,0.00382948,0.0,0.0,-0.491755,1,0,0,0,0,0
76236000,-0.00565386,-0.00181686,0.00766141,0.0,0.999988,-0.00282343,-0.000919251,0.00382811,0.0,0.0,-0.489236,1,0,0,0,0,0
76332000,-0.00667287,-0.00184725,0.00766141,0.0,0.999987,-0.00333286,-0.000936393,0.00382759,0.0,0.0,-0.494249,1,0,0,0,0,0
76424000,-0.00517532,-0.000888962,0.00766141,0.0,0.999989,-0.00258593,-0.000454389,0.00382953,0.0,0.0,-0.491141,1,0,0,0,0,0
76516000,-0.00342249,-0.000873697,0.00766141,0.0,0.999991,-0.00170956,-0.0004434,0.00382994,0.0,0.0,-0.489026,1,0,0,0,0,0
76612000,-0.00270604,-0.00164861,0.00766141,0.0,0.999991,-0.00134985,-0.00082948,0.00382957,0.0,0.0,-0.496151,1,0,0,0,0,0
76704000,-0.00223545,-0.00223489,0.00766141,0.0,0.999991,-0.00111344,-0.00112172,0.00382944,0.0,0.0,-0.492629,1,0,0,0,0,0
76796000,-0.00350695,-0.00227132,0.00766141,0.0,0.99999,-0.00174911,-0.00114237,0.0038287,0.0,0.0,-0.489427,1,0,0,0,0,0
76892000,-0.00249218,-0.00253097,0.00766141,0.0,0.999991,-0.00124123,-0.00127025,0.00382911,0.0,0.0,-0.494042,1,0,0,0,0,0
76984000,-0.00250655,-0.0032681,0.00766141,0.0,0.999991,-0.001247,-0.00163883,0.00382864,0.0,0.0,-0.488029,1,0,0,0,0,0
77076000,-0.000685595,-0.00247207,0.00766141,0.0,0.999992,-0.00033806,-0.00123734,0.00383027,0.0,0.0,-0.487411,1,0,0,0,0,0
77172000,-0.00144016,-0.00253772,0.00766141,0.0,0.999992,-0.000715211,-0.00127161,0.00382978,0.0,0.0,-0.495048,1,0,0,0,0,0
77264000,-0.00113055,-0.00312231,0.00766141,0.0,0.999991,-0.000559289,-0.00156331,0.00382981,0.0,0.0,-0.492444,1,0,0,0,0,0
77356000,0.00115444,-0.0028231,0.00766141,0.0,0.999992,0.000582623,-0.00140933,0.00383151,0.0,0.0,-0.489157,1,0,0,0,0,0
77452000,0.00065745,-0.0036337,0.00766141,0.0,0.999991,0.000335682,-0.00181557,0.00383129,0.0,0.0,-0.495564,1,0,0,0,0,0
77544000,0.000701395,-0.0028846,0.00766141,0.0,0.999992,0.000356219,-0.00144094,0.0038312,0.0,0.0,-0.492898,1,0,0,0,0,0
77636000,0.000806587,-0.0020988,0.00766141,0.0,0.999992,0.00040731,-0.00104784,0.00383112,0.0,0.0,-0.489217,1,0,0,0,0,0
77732000,0.000780269,-0.0022809,0.00766141,0.0,0.999992,0.0003945,-0.00113895,0.00383114,0.0,0.0,-0.495987,1,0,0,0,0,0
77824000,0.00160944,-0.00239445,0.00766141,0.0,0.999992,0.0008093,-0.00119413,0.00383165,0.0,0.0,-0.504647,1,0,0,0,0,0
77916000,0.00237525,-0.00159522,0.00766141,0.0,0.999992,0.00119067,-0.000793053,0.00383164,0.0,0.0,-0.538023,1,0,0,0,0,0
78012000,0.00230408,-0.00175381,0.00766141,0.0,0.999992,0.00115539,-0.000872483,0.0038317,0.0,0.0,-0.592727,1,0,0,0,0,0
78104000,0.001223,-0.000856232,0.00766141,0.0,0.999992,0.000613137,-0.00042577,0.00383096,0.0,0.0,-0.62443,1,0,0,0,0,0
78196000,0.000762701,-0.0021825,0.00766141,0.0,0.999992,0.000385528,-0.00108978,0.00383111,0.0,0.0,-0.652904,1,0,0,0,0,0
78292000,0.00102934,-0.00204633,0.00766141,0.0,0.999992,0.000518586,-0.00102119,0.00383122,0.0,0.0,-0.669933,1,0,0,0,0,0
78384000,0.00131521,-0.0021368,0.00766141,0.0,0.999992,0.00066169,-0.00106587,0.00383139,0.0,0.0,-0.620299,1,0,0,0,0,0
78476000,0.00153424,-0.00207896,0.00766141,0.0,0.999992,0.000771095,-0.00103653,0.00383149,0.0,0.0,-0.56095,1,0,0,0,0,0
78572000,0.0025763,-0.00311447,0.00766141,0.0,0.999991,0.00129411,-0.00155229,0.00383269,0.0,0.0,-0.507468,1,0,0,0,0,0
78664000,0.00192447,-0.00373207,0.00766141,0.0,0.99999,0.000969376,-0.00186233,0.00383248,0.0,0.0,-0.501861,1,0,0,0,0,0
78756000,0.0014315,-0.00199102,0.00766141,0.0,0.999992,0.000719556,-0.000992763,0.0038314,0.0,0.0,-0.501235,1,0,0,0,0,0
78852000,0.00262526,-0.00222521,0.00766141,0.0,0.999991,0.00131688,-0.00110757,0.00383215,0.0,0.0,-0.500269,1,0,0,0,0,0
78944000,0.00159736,-0.00164521,0.00766141,0.0,0.999992,0.000801826,-0.000819537,0.00383135,0.0,0.0,-0.498707,1,0,0,0,0,0
79036000,5.58312e-05,-0.000725544,0.00766141,0.0,0.999993,2.9305e-05,-0.000362662,0.00383071,0.0,0.0,-0.497676,1,0,0,0,0,0
79132000,-0.000981704,-0.000510229,0.00766141,0.0,0.999992,-0.000489871,-0.000256993,0.00383057,0.0,0.0,-0.496161,1,0,0,0,0,0
79224000,-0.000923105,-0.000484747,0.00766141,0.0,0.999993,-0.000460621,-0.00024414,0.00383058,0.0,0.0,-0.49588,1,0,0,0,0,0
79316000,-0.000563258,-0.000882753,0.00766141,0.0,0.999993,-0.000279936,-0.000442452,0.00383057,0.0,0.0,-0.494778,1,0,0,0,0,0
79412000,7.46784e-05,-0.000719142,0.00766141,0.0,0.999993,3.87163e-05,-0.000359425,0.00383071,0.0,0.0,-0.492869,1,0,0,0,0,0
79504000,2.88469e-05,-0.00122271,0.00766141,0.0,0.999992,1.67653e-05,-0.000611296,0.0038307,0.0,0.0,-0.492778,1,0,0,0,0,0
79596000,0.000354164,-0.00315,0.00766141,0.0,0.999991,0.000183114,-0.00157431,0.00383097,0.0,0.0,-0.492925,1,0,0,0,0,0
79692000,0.00163791,-0.00325586,0.00766141,0.0,0.999991,0.000825184,-0.00162478,0.00383202,0.0,0.0,-0.493402,1,0,0,0,0,0
79784000,0.00248635,-0.0032966,0.00766141,0.0,0.999991,0.00124948,-0.00164352,0.00383274,0.0,0.0,-0.494418,1,0,0,0,0,0
79876000,0.00315428,-0.00380483,0.00766141,0.0,0.99999,0.00158441,-0.00189636,0.00383368,0.0,0.0,-0.494145,1,0,0,0,0,0
79972000,0.00265845,-0.00312624,0.00766141,0.0,0.999991,0.0013352,-0.00155802,0.00383276,0.0,0.0,-0.494738,1,0,0,0,0,0
80064000,0.00234234,-0.00300458,0.00766141,0.0,0.999991,0.00117692,-0.00149779,0.00383245,0.0,0.0,-0.494376,1,0,0,0,0,0
80156000,0.00204979,-0.00333473,0.00766141,0.0,0.999991,0.00103127,-0.00166343,0.0038324,0.0,0.0,-0.4949,1,0,0,0,0,0
80252000,0.00236826,-0.00367394,0.00766141,0.0,0.99999,0.00119115,-0.00183242,0.00383286,0.0,0.0,-0.494561,1,0,0,0,0,0
80344000,0.00233633,-0.00356244,0.00766141,0.0,0.99999,0.00117498,-0.00177673,0.00383277,0.0,0.0,-0.493261,1,0,0,0,0,0
80436000,0.00142976,-0.00515013,0.00766141,0.0,0.999989,0.000724735,-0.0025723,0.00383252,0.0,0.0,-0.493154,1,0,0,0,0,0
80532000,0.0030738,-0.00469951,0.00766141,0.0,0.999989,0.00154588,-0.00234384,0.00383429,0.0,0.0,-0.49366,1,0,0,0,0,0
80624000,0.00329401,-0.00544814,0.00766141,0.0,0.999988,0.00165742,-0.00271773,0.00383516,0.0,0.0,-0.495283,1,0,0,0,0,0
80716000,0.00231682,-0.00612145,0.00766141,0.0,0.999987,0.00117012,-0.00305626,0.00383422,0.0,0.0,-0.486742,1,0,0,0,0,0
80812000,0.000870445,-0.00515649,0.00766141,0.0,0.999989,0.000445094,-0.00257656,0.0038318,0.0,0.0,-0.499449,1,0,0,0,0,0
80904000,0.000336873,-0.00464226,0.00766141,0.0,0.99999,0.000177326,-0.00232047,0.00383108,0.0,0.0,-0.492184,1,0,0,0,0,0
80996000,-0.000286413,-0.0048231,0.00766141,0.0,0.99999,-0.000133967,-0.00241208,0.00383034,0.0,0.0,-0.485144,1,0,0,0,0,0
81092000,0.000494501,-0.00630947,0.00766141,0.0,0.999988,0.000259332,-0.00315376,0.00383146,0.0,0.0,-0.500702,1,0,0,0,0,0
81184000,-8.89043e-05,-0.00609834,0.00766141,0.0,0.999988,-3.27712e-05,-0.00304932,0.00383054,0.0,0.0,-0.494941,1,0,0,0,0,0
81276000,0.00102523,-0.00461415,0.00766141,0.0,0.99999,0.000521449,-0.00230509,0.00383187,0.0,0.0,-0.489497,1,0,0,0,0,0
81372000,-0.000386808,-0.00436421,0.00766141,0.0,0.99999,-0.000185043,-0.00218283,0.00383026,0.0,0.0,-0.502164,1,0,0,0,0,0
81464000,-0.000318706,-0.00525515,0.00766141,0.0,0.999989,-0.000149286,-0.00262816,0.00383026,0.0,0.0,-0.495458,1,0,0,0,0,0
81556000,-0.000618727,-0.00329547,0.00766141,0.0,0.999991,-0.000303049,-0.00164891,0.00383018,0.0,0.0,-0.489793,1,0,0,0,0,0
81652000,0.000516295,-0.00312938,0.00766141,0.0,0.999991,0.000264139,-0.00156369,0.00383109,0.0,0.0,-0.503295,1,0,0,0,0,0
81744000,0.00122736,-0.0041558,0.00766141,0.0,0.99999,0.000621632,-0.00207553,0.00383196,0.0,0.0,-0.495992,1,0,0,0,0,0
81836000,0.00228487,-0.00362922,0.00766141,0.0,0.99999,0.00114938,-0.00181022,0.00383276,0.0,0.0,-0.489968,1,0,0,0,0,0
81932000,0.00121932,-0.00427651,0.00766141,0.0,0.99999,0.000617846,-0.0021359,0.00383199,0.0,0.0,-0.505217,1,0,0,0,0,0
82024000,-0.000633971,-0.00343591,0.00766141,0.0,0.999991,-0.000310402,-0.00171916,0.00383014,0.0,0.0,-0.49743,1,0,0,0,0,0
82116000,-0.00196569,-0.00348467,0.00766141,0.0,0.999991,-0.000976162,-0.00174609,0.00382897,0.0,0.0,-0.490463,1,0,0,0,0,0
82212000,-0.00162106,-0.00415751,0.00766141,0.0,0.99999,-0.00080256,-0.00208184,0.003829,0.0,0.0,-0.503741,1,0,0,0,0,0
82304000,-8.39311e-05,-0.00268981,0.00766141,0.0,0.999992,-3.68133e-05,-0.00134505,0.00383064,0.0,0.0,-0.496563,1,0,0,0,0,0
82396000,4.0649e-05,-0.00283999,0.00766141,0.0,0.999992,2.57639e-05,-0.0014199,0.00383072,0.0,0.0,-0.488155,1,0,0,0,0,0
82492000,-0.000539296,-0.00297948,0.00766141,0.0,0.999992,-0.000263939,-0.00149076,0.00383029,0.0,0.0,-0.502855,1,0,0,0,0,0
82584000,-0.00232839,-0.00393997,0.00766141,0.0,0.99999,-0.00115664,-0.00197443,0.00382839,0.0,0.0,-0.495748,1,0,0,0,0,0
82676000,-0.00296695,-0.0020598,0.00766141,0.0,0.999991,-0.00147952,-0.00103557,0.00382916,0.0,0.0,-0.48917,1,0,0,0,0,0
82772000,-0.00274381,-0.000784218,0.00766141,0.0,0.999992,-0.00137039,-0.000397361,0.00383015,0.0,0.0,-0.502934,1,0,0,0,0,0
82864000,-0.00348848,-0.00023219,0.00766141,0.0,0.999991,-0.00174378,-0.000122776,0.00383049,0.0,0.0,-0.494563,1,0,0,0,0,0
82956000,-0.00403778,0.000300815,0.00766141,0.0,0.999991,-0.00201945,0.000142672,0.00383099,0.0,0.0,-0.487239,1,0,0,0,0,0
83052000,-0.00548336,0.00164371,0.00766141,0.0,0.999989,-0.00274481,0.000811345,0.00383293,0.0,0.0,-0.502416,1,0,0,0,0,0
83144000,-0.00483416,0.00199627,0.00766141,0.0,0.999989,-0.00242088,0.000988864,0.00383309,0.0,0.0,-0.49497,1,0,0,0,0,0
83236000,-0.00605967,0.00154782,0.00766141,0.0,0.999988,-0.00303277,0.000762295,0.00383302,0.0,0.0,-0.487624,1,0,0,0,0,0
83332000,-0.00638422,0.00117919,0.00766141,0.0,0.999987,-0.00319434,0.000577362,0.00383256,0.0,0.0,-0.500966,1,0,0,0,0,0
83424000,-0.00717922,0.00123788,0.00766141,0.0,0.999986,-0.00359194,0.00060518,0.00383289,0.0,0.0,-0.492734,1,0,0,0,0,0
83516000,-0.00724431,0.00164036,0.00766141,0.0,0.999986,-0.00362526,0.000806293,0.00383364,0.0,0.0,-0.487127,1,0,0,0,0,0
83612000,-0.00654617,0.000777817,0.00766141,0.0,0.999987,-0.00327455,0.000376366,0.00383195,0.0,0.0,-0.504197,1,0,0,0,0,0
83704000,-0.00704197,-0.000112201,0.00766141,0.0,0.999986,-0.00352074,-6.95874e-05,0.00383047,0.0,0.0,-0.497185,1,0,0,0,0,0
83796000,-0.00610316,0.000473484,0.00766141,0.0,0.999988,-0.00305246,0.00022505,0.0038314,0.0,0.0,-0.49172,1,0,0,0,0,0
83892000,-0.00437351,-0.000785204,0.00766141,0.0,0.99999,-0.00218523,-0.000400975,0.00382983,0.0,0.0,-0.50455,1,0,0,0,0,0
83984000,-0.00464634,-8.89439e-05,0.00766141,0.0,0.99999,-0.00232298,-5.33709e-05,0.00383058,0.0,0.0,-0.497364,1,0,0,0,0,0
84076000,-0.00530057,0.000113503,0.00766141,0.0,0.999989,-0.00265048,4.65984e-05,0.00383083,0.0,0.0,-0.490457,1,0,0,0,0,0
84172000,-0.00446401,0.000598404,0.00766141,0.0,0.99999,-0.00223313,0.000290649,0.00383135,0.0,0.0,-0.503226,1,0,0,0,0,0
84264000,-0.00464998,-0.000419829,0.00766141,0.0,0.99999,-0.00232416,-0.000218819,0.0038302,0.0,0.0,-0.494493,1,0,0,0,0,0
84356000,-0.00249056,-0.0028392,0.00766141,0.0,0.999991,-0.00123983,-0.00142436,0.00382892,0.0,0.0,-0.489138,1,0,0,0,0,0
84452000,-0.00213613,-0.00184196,0.00766141,0.0,0.999992,-0.00106453,-0.000925066,0.00382971,0.0,0.0,-0.503909,1,0,0,0,0,0
84544000,-0.00246298,-0.00113754,0.00766141,0.0,0.999992,-0.0012293,-0.000573485,0.00382999,0.0,0.0,-0.496835,1,0,0,0,0,0
84636000,-0.00197359,-0.000581419,0.00766141,0.0,0.999992,-0.000985674,-0.000294487,0.00383041,0.0,0.0,-0.489835,1,0,0,0,0,0
84732000,-0.00281863,0.000621793,0.00766141,0.0,0.999992,-0.0014105,0.000305495,0.00383113,0.0,0.0,-0.503139,1,0,0,0,0,0
84824000,-0.00285945,0.000548602,0.00766141,0.0,0.999992,-0.00143076,0.000268822,0.00383108,0.0,0.0,-0.497615,1,0,0,0,0,0
84916000,-0.00185415,-0.0005965,0.00766141,0.0,0.999992,-0.000925924,-0.000301799,0.00383042,0.0,0.0,-0.491733,1,0,0,0,0,0
85012000,-0.00294862,-0.000318133,0.00766141,0.0,0.999992,-0.00147369,-0.000164713,0.00383046,0.0,0.0,-0.501257,1,0,0,0,0,0
85104000,-0.0036782,-0.00151053,0.00766141,0.0,0.999991,-0.00183619,-0.000762304,0.0038293,0.0,0.0,-0.495495,1,0,0,0,0,0
85196000,-0.00415472,-0.000755878,0.00766141,0.0,0.99999,-0.00207589,-0.000385893,0.0038299,0.0,0.0,-0.489703,1,0,0,0,0,0
85292000,-0.00229277,-0.000840032,0.00766141,0.0,0.999992,-0.00114477,-0.000424404,0.00383021,0.0,0.0,-0.500683,1,0,0,0,0,0
85384000,-0.00312148,0.000100553,0.00766141,0.0,0.999991,-0.00156092,4.42975e-05,0.00383077,0.0,0.0,-0.496969,1,0,0,0,0,0
85476000,-0.00471996,-0.000815798,0.00766141,0.0,0.99999,-0.0023584,-0.000416935,0.00382972,0.0,0.0,-0.489771,1,0,0,0,0,0
85572000,-0.00413199,-0.000902026,0.00766141,0.0,0.99999,-0.00206425,-0.000458923,0.00382975,0.0,0.0,-0.498837,1,0,0,0,0,0
85664000,-0.00332239,-0.00074017,0.00766141,0.0,0.999991,-0.00165976,-0.000376445,0.00383007,0.0,0.0,-0.495429,1,0,0,0,0,0
85756000,-0.00312365,-0.00122542,0.00766141,0.0,0.999991,-0.00155947,-0.000618686,0.00382973,0.0,0.0,-0.490174,1,0,0,0,0,0
85852000,-0.00387453,-0.00246138,0.00766141,0.0,0.99999,-0.00193254,-0.0012381,0.0038283,0.0,0.0,-0.500904,1,0,0,0,0,0
85944000,-0.00297506,-0.00238597,0.00766141,0.0,0.999991,-0.00148295,-0.00119867,0.00382891,0.0,0.0,-0.496165,1,0,0,0,0,0
86036000,-0.00300719,-0.00283862,0.00766141,0.0,0.999991,-0.00149815,-0.00142506,0.00382855,0.0,0.0,-0.488074,1,0,0,0,0,0
86132000,-0.00284385,-0.00333978,0.00766141,0.0,0.99999,-0.00141552,-0.00167532,0.00382831,0.0,0.0,-0.501255,1,0,0,0,0,0
86224000,-0.0012835,-0.0032599,0.00766141,0.0,0.999991,-0.000635498,-0.00163239,0.00382964,0.0,0.0,-0.493853,1,0,0,0,0,0
86316000,-0.000211274,-0.00378022,0.00766141,0.0,0.999991,-9.83957e-05,-0.0018905,0.00383049,0.0,0.0,-0.488324,1,0,0,0,0,0
86412000,2.47931e-06,-0.00420989,0.00766141,0.0,0.99999,9.30304e-06,-0.00210492,0.00383069,0.0,0.0,-0.501912,1,0,0,0,0,0
86504000,-0.000938616,-0.00340881,0.00766141,0.0,0.999991,-0.000462775,-0.00170619,0.00382989,0.0,0.0,-0.495732,1,0,0,0,0,0
86596000,-0.00188372,-0.00314862,0.00766141,0.0,0.999991,-0.000935821,-0.0015779,0.00382921,0.0,0.0,-0.49039,1,0,0,0,0,0
86692000,-0.00195605,-0.00212108,0.00766141,0.0,0.999992,-0.000973953,-0.00106428,0.00382965,0.0,0.0,-0.504777,1,0,0,0,0,0
86784000,-0.00186309,-0.00353527,0.00766141,0.0,0.999991,-0.000924765,-0.00177119,0.00382904,0.0,0.0,-0.496406,1,0,0,0,0,0
86876000,-0.00254286,-0.00310881,0.00766141,0.0,0.999991,-0.00126546,-0.00155926,0.00382871,0.0,0.0,-0.491807,1,0,0,0,0,0
86972000,-0.000733882,-0.00346868,0.00766141,0.0,0.999991,-0.000360294,-0.00173573,0.00383005,0.0,0.0,-0.50521,1,0,0,0,0,0
87064000,-0.000325871,-0.00435719,0.00766141,0.0,0.99999,-0.000154588,-0.0021792,0.00383033,0.0,0.0,-0.498429,1,0,0,0,0,0
87156000,-0.00220585,-0.00361365,0.00766141,0.0,0.99999,-0.00109599,-0.00181104,0.00382869,0.0,0.0,-0.491868,1,0,0,0,0,0
87252000,-0.00191466,-0.00325439,0.00766141,0.0,0.999991,-0.000951088,-0.00163085,0.00382913,0.0,0.0,-0.503773,1,0,0,0,0,0
87344000,-0.00100258,-0.00194214,0.00766141,0.0,0.999992,-0.000497566,-0.000972981,0.00383021,0.0,0.0,-0.495511,1,0,0,0,0,0
87436000,-0.000814859,-0.00136662,0.00766141,0.0,0.999992,-0.000404809,-0.000684866,0.00383042,0.0,0.0,-0.488915,1,0,0,0,0,0
87532000,-0.000616119,-0.000377424,0.00766141,0.0,0.999993,-0.000307334,-0.000189891,0.00383064,0.0,0.0,-0.503525,1,0,0,0,0,0
87624000,0.000695659,-0.00197208,0.00766141,0.0,0.999992,0.000351604,-0.0009847,0.00383104,0.0,0.0,-0.497049,1,0,0,0,0,0
87716000,0.00161769,-0.00241703,0.00766141,0.0,0.999992,0.000813465,-0.0012054,0.00383167,0.0,0.0,-0.49113,1,0,0,0,0,0
87812000,0.00201694,-0.00303395,0.00766141,0.0,0.999991,0.00101427,-0.0015131,0.00383222,0.0,0.0,-0.501525,1,0,0,0,0,0
87904000,0.00139196,-0.00375378,0.00766141,0.0,0.999991,0.000703163,-0.00187421,0.00383199,0.0,0.0,-0.497051,1,0,0,0,0,0
87996000,0.00029232,-0.00333958,0.00766141,0.0,0.999991,0.000152555,-0.00166922,0.00383093,0.0,0.0,-0.490411,1,0,0,0,0,0
88092000,0.000457804,-0.00234636,0.00766141,0.0,0.999992,0.000233395,-0.0011723,0.00383096,0.0,0.0,-0.500993,1,0,0,0,0,0
88184000,0.00224884,-0.00325731,0.00766141,0.0,0.999991,0.00113065,-0.00162433,0.00383252,0.0,0.0,-0.495459,1,0,0,0,0,0
88276000,0.00274442,-0.00288497,0.00766141,0.0,0.999991,0.00137772,-0.00143722,0.00383267,0.0,0.0,-0.487873,1,0,0,0,0,0
88372000,0.00262264,-0.00312762,0.00766141,0.0,0.999991,0.0013173,-0.00155878,0.00383274,0.0,0.0,-0.501716,1,0,0,0,0,0
88464000,0.00317112,-0.00281485,0.00766141,0.0,0.99999,0.00159094,-0.00140134,0.00383292,0.0,0.0,-0.493306,1,0,0,0,0,0
88556000,0.00306222,-0.0025623,0.00766141,0.0,0.999991,0.001536,-0.00127527,0.00383265,0.0,0.0,-0.486025,1,0,0,0,0,0
88652000,0.00328224,-0.0019448,0.00766141,0.0,0.999991,0.00164483,-0.000966104,0.00383228,0.0,0.0,-0.501957,1,0,0,0,0,0
88744000,0.00387297,-0.00169004,0.00766141,0.0,0.99999,0.0019397,-0.000837594,0.00383232,0.0,0.0,-0.495707,1,0,0,0,0,0
88840000,0.00396141,-0.000622405,0.00766141,0.0,0.999991,0.00198188,-0.000303612,0.0038313,0.0,0.0,-0.494948,1,0,0,0,0,0
88932000,0.00172624,-0.00159293,0.00766141,0.0,0.999992,0.000866165,-0.000793152,0.00383138,0.0,0.0,-0.488916,1,0,0,0,0,0
89028000,0.00203176,-0.00130065,0.00766141,0.0,0.999992,0.00101836,-0.000646428,0.00383135,0.0,0.0,-0.500905,1,0,0,0,0,0
89120000,0.00230711,-0.000947808,0.00766141,0.0,0.999992,0.00115536,-0.000469481,0.00383124,0.0,0.0,-0.494758,1,0,0,0,0,0
89212000,0.0015023,-0.00119402,0.00766141,0.0,0.999992,0.000753431,-0.000594129,0.00383114,0.0,0.0,-0.488215,1,0,0,0,0,0
89308000,9.08384e-05,-0.000651661,0.00766141,0.0,0.999993,4.6667e-05,-0.000325654,0.00383071,0.0,0.0,-0.502132,1,0,0,0,0,0
89400000,-0.00169113,0.000268941,0.00766141,0.0,0.999992,-0.000846072,0.00013123,0.00383081,0.0,0.0,-0.494096,1,0,0,0,0,0
89492000,-0.00129539,-0.00111481,0.00766141,0.0,0.999992,-0.000645554,-0.000559882,0.00383033,0.0,0.0,-0.488386,1,0,0,0,0,0
89588000,0.00173406,-0.000201005,0.00766141,0.0,0.999992,0.000867407,-9.71802e-05,0.00383078,0.0,0.0,-0.501759,1,0,0,0,0,0
89680000,0.000694063,0.0008515,0.00766141,0.0,0.999993,0.000345398,0.000427076,0.00383055,0.0,0.0,-0.493432,1,0,0,0,0,0
89772000,0.000490912,0.00038252,0.00766141,0.0,0.999993,0.000244721,0.000192199,0.00383065,0.0,0.0,-0.485946,1,0,0,0,0,0
89868000,0.00053001,0.0019114,0.00766141,0.0,0.999992,0.000261342,0.000956707,0.00383044,0.0,0.0,-0.500491,1,0,0,0,0,0
89960000,-0.00074756,0.000690248,0.00766141,0.0,0.999992,-0.000375099,0.00034369,0.00383082,0.0,0.0,-0.496492,1,0,0,0,0,0
90052000,0.000973278,-4.62819e-05,0.00766141,0.0,0.999993,0.000486724,-2.12766e-05,0.00383071,0.0,0.0,-0.489273,1,0,0,0,0,0
90148000,0.000579123,-0.000522143,0.00766141,0.0,0.999993,0.000290559,-0.00025996,0.00383077,0.0,0.0,-0.50157,1,0,0,0,0,0
90240000,-0.00171297,0.000996554,0.00766141,0.0,0.999992,-0.000858388,0.000494992,0.00383112,0.0,0.0,-0.494958,1,0,0,0,0,0
90332000,-0.00320752,0.00154649,0.00766141,0.0,0.999991,-0.00160671,0.000767094,0.00383193,0.0,0.0,-0.486397,1,0,0,0,0,0
90428000,-0.00254715,0.00195729,0.00766141,0.0,0.999991,-0.00127732,0.000973759,0.00383194,0.0,0.0,-0.49986,1,0,0,0,0,0
90520000,-0.00100572,0.00268693,0.00766141,0.0,0.999992,-0.000508002,0.00134153,0.00383137,0.0,0.0,-0.493078,1,0,0,0,0,0
90612000,0.000887504,0.000428292,0.00766141,0.0,0.999993,0.000442928,0.000215844,0.0038306,0.0,0.0,-0.487485,1,0,0,0,0,0
90708000,0.000949743,-0.000349626,0.00766141,0.0,0.999993,0.000475537,-0.000172993,0.00383078,0.0,0.0,-0.502099,1,0,0,0,0,0
90800000,0.0012097,-0.00028045,0.00766141,0.0,0.999992,0.000605384,-0.000137907,0.00383078,0.0,0.0,-0.497515,1,0,0,0,0,0
90892000,0.000919632,-0.00115189,0.00766141,0.0,0.999992,0.000462019,-0.000574179,0.00383096,0.0,0.0,-0.490699,1,0,0,0,0,0
90988000,0.000517511,-0.000632463,0.00766141,0.0,0.999993,0.000259965,-0.000315238,0.00383078,0.0,0.0,-0.505983,1,0,0,0,0,0
91080000,0.000187161,0.000758594,0.00766141,0.0,0.999993,9.21269e-05,0.000379653,0.00383066,0.0,0.0,-0.498989,1,0,0,0,0,0
91172000,-0.000962447,0.00171409,0.00766141,0.0,0.999992,-0.000484503,0.000855197,0.00383111,0.0,0.0,-0.490932,1,0,0,0,0,0
91268000,-0.00141511,0.00135941,0.00766141,0.0,0.999992,-0.000710152,0.000676988,0.00383117,0.0,0.0,-0.505215,1,0,0,0,0,0
91360000,-0.00266604,0.000743004,0.00766141,0.0,0.999992,-0.00133443,0.000366393,0.00383119,0.0,0.0,-0.497155,1,0,0,0,0,0
91452000,-0.00253722,0.00124096,0.00766141,0.0,0.999992,-0.00127098,0.000615617,0.00383148,0.0,0.0,-0.490218,1,0,0,0,0,0
91548000,-0.00228025,0.000164433,0.00766141,0.0,0.999992,-0.00114043,7.78485e-05,0.00383079,0.0,0.0,-0.504101,1,0,0,0,0,0
91640000,-0.00152305,-0.000712558,0.00766141,0.0,0.999992,-0.000760154,-0.000359194,0.00383042,0.0,0.0,-0.497168,1,0,0,0,0,0
91732000,-0.00151673,-0.00184498,0.00766141,0.0,0.999992,-0.000754826,-0.000925389,0.00382999,0.0,0.0,-0.490096,1,0,0,0,0,0
91828000,-0.00136772,-0.00164424,0.00766141,0.0,0.999992,-0.000680705,-0.000824731,0.00383013,0.0,0.0,-0.504375,1,0,0,0,0,0
91920000,-0.000724886,-0.00119102,0.00766141,0.0,0.999992,-0.000360159,-0.000596895,0.00383048,0.0,0.0,-0.497746,1,0,0,0,0,0
92012000,-0.00159936,-0.00129183,0.00766141,0.0,0.999992,-0.000797202,-0.000648975,0.00383018,0.0,0.0,-0.491692,1,0,0,0,0,0
92108000,-0.00136165,-0.000367979,0.00766141,0.0,0.999992,-0.000680115,-0.000186596,0.00383057,0.0,0.0,-0.505208,1,0,0,0,0,0
92200000,-0.000664389,-0.00170665,0.00766141,0.0,0.999992,-0.000328923,-0.000854591,0.00383041,0.0,0.0,-0.498964,1,0,0,0,0,0
92292000,-0.000368046,-0.00239351,0.00766141,0.0,0.999992,-0.000179437,-0.00119745,0.00383047,0.0,0.0,-0.490827,1,0,0,0,0,0
92388000,-0.000395385,-0.00169852,0.00766141,0.0,0.999992,-0.000194438,-0.000850011,0.00383053,0.0,0.0,-0.507264,1,0,0,0,0,0
92480000,-0.000340423,-0.00192821,0.00766141,0.0,0.999992,-0.000166517,-0.000964752,0.00383053,0.0,0.0,-0.499122,1,0,0,0,0,0
92572000,-0.000597453,-0.00100343,0.00766141,0.0,0.999992,-0.000296802,-0.000502855,0.00383054,0.0,0.0,-0.489645,1,0,0,0,0,0
92668000,-0.000592111,-0.000563049,0.00766141,0.0,0.999993,-0.000294975,-0.000282656,0.00383061,0.0,0.0,-0.501162,1,0,0,0,0,0
92760000,-0.000679269,-0.000410302,0.00766141,0.0,0.999993,-0.000338846,-0.000206451,0.00383063,0.0,0.0,-0.495156,1,0,0,0,0,0
92852000,-0.00205278,0.000459975,0.00766141,0.0,0.999992,-0.00102726,0.000226054,0.00383093,0.0,0.0,-0.488766,1,0,0,0,0,0
92948000,-0.00286594,0.00062423,0.00766141,0.0,0.999992,-0.00143416,0.000306623,0.00383114,0.0,0.0,-0.501309,1,0,0,0,0,0
93040000,-0.00259037,0.000105661,0.00766141,0.0,0.999992,-0.00129538,4.78688e-05,0.00383076,0.0,0.0,-0.4946,1,0,0,0,0,0
93132000,-0.00237956,-0.00101856,0.00766141,0.0,0.999992,-0.00118782,-0.000513834,0.00383009,0.0,0.0,-0.488204,1,0,0,0,0,0
93228000,-0.000347285,-0.00181502,0.00766141,0.0,0.999992,-0.000170165,-0.000908169,0.00383054,0.0,0.0,-0.501678,1,0,0,0,0,0
93320000,-0.000795541,-0.00422619,0.00766141,0.0,0.99999,-0.000389672,-0.0021146,0.00382985,0.0,0.0,-0.495695,1,0,0,0,0,0
93412000,-0.00149718,-0.00373911,0.00766141,0.0,0.999991,-0.00074142,-0.00187241,0.00382929,0.0,0.0,-0.489448,1,0,0,0,0,0
93508000,-0.00232133,-0.00130321,0.00766141,0.0,0.999992,-0.00115816,-0.000656048,0.00382994,0.0,0.0,-0.501688,1,0,0,0,0,0
93600000,-0.00393408,-0.0016386,0.00766141,0.0,0.99999,-0.00196389,-0.00082683,0.00382907,0.0,0.0,-0.494772,1,0,0,0,0,0
93692000,-0.00546498,-0.00190163,0.00766141,0.0,0.999988,-0.00272882,-0.000961273,0.00382808,0.0,0.0,-0.488124,1,0,0,0,0,0
93788000,-0.00459745,-0.00212996,0.00766141,0.0,0.99999,-0.00229463,-0.00107378,0.00382823,0.0,0.0,-0.503123,1,0,0,0,0,0
93880000,-0.00549849,-0.00204027,0.00766141,0.0,0.999988,-0.00274531,-0.00103065,0.00382787,0.0,0.0,-0.495309,1,0,0,0,0,0
93972000,-0.00766718,-0.00135346,0.00766141,0.0,0.999985,-0.00383096,-0.000691404,0.00382807,0.0,0.0,-0.489429,1,0,0,0,0,0
94068000,-0.00684422,0.000247285,0.00766141,0.0,0.999987,-0.00342255,0.000110532,0.0038311,0.0,0.0,-0.502603,1,0,0,0,0,0
94160000,-0.00733714,0.00109436,0.00766141,0.0,0.999986,-0.00367063,0.000533121,0.00383268,0.0,0.0,-0.496132,1,0,0,0,0,0
94252000,-0.00749391,0.00169162,0.00766141,0.0,0.999985,-0.00375016,0.000831446,0.00383384,0.0,0.0,-0.489374,1,0,0,0,0,0
94348000,-0.00867407,0.00162092,0.00766141,0.0,0.999983,-0.00434009,0.000793832,0.00383417,0.0,0.0,-0.501484,1,0,0,0,0,0
94440000,-0.00731615,0.00314304,0.00766141,0.0,0.999985,-0.00366406,0.00155748,0.00383641,0.0,0.0,-0.496888,1,0,0,0,0,0
94532000,-0.00634428,0.00353634,0.00766141,0.0,0.999986,-0.00317888,0.00175599,0.00383628,0.0,0.0,-0.491455,1,0,0,0,0,0
94628000,-0.00607032,0.00292421,0.00766141,0.0,0.999987,-0.00304073,0.00145046,0.00383511,0.0,0.0,-0.499619,1,0,0,0,0,0
94720000,-0.00667932,0.00254876,0.00766141,0.0,0.999986,-0.00334451,0.00126157,0.00383493,0.0,0.0,-0.49722,1,0,0,0,0,0
94812000,-0.00555292,0.0025279,0.00766141,0.0,0.999988,-0.00278127,0.0012533,0.00383419,0.0,0.0,-0.488455,1,0,0,0,0,0
94908000,-0.00501317,0.00273603,0.00766141,0.0,0.999989,-0.0025118,0.0013584,0.00383411,0.0,0.0,-0.470135,1,0,0,0,0,0
95000000,-0.00512841,0.00355481,0.00766141,0.0,0.999988,-0.00257099,0.00176756,0.00383523,0.0,0.0,-0.450759,1,0,0,0,0,0
95092000,-0.00577388,0.00304776,0.00766141,0.0,0.999987,-0.00289275,0.0015128,0.00383507,0.0,0.0,-0.443908,1,0,0,0,0,0
95188000,-0.00676972,0.00186879,0.00766141,0.0,0.999986,-0.00338841,0.000921414,0.00383383,0.0,0.0,-0.451866,1,0,0,0,0,0
95280000,-0.00741888,0.0027218,0.00766141,0.0,0.999985,-0.00371461,0.00134667,0.00383571,0.0,0.0,-0.448699,1,0,0,0,0,0
95372000,-0.00786631,0.00187426,0.00766141,0.0,0.999984,-0.0039367,0.000922047,0.00383435,0.0,0.0,-0.445692,1,0,0,0,0,0
95468000,-0.00783479,0.00241098,0.00766141,0.0,0.999984,-0.00392197,0.00119046,0.00383539,0.0,0.0,-0.447125,1,0,0,0,0,0
95564000,-0.00717624,0.00187698,0.00766141,0.0,0.999986,-0.00359168,0.000924734,0.00383404,0.0,0.0,-0.449005,1,0,0,0,0,0
95660000,-0.00761264,0.00295538,0.00766141,0.0,0.999984,-0.00381194,0.00146308,0.00383629,0.0,0.0,-0.454328,1,0,0,0,0,0
95752000,-0.00638595,0.00260131,0.00766141,0.0,0.999987,-0.00319792,0.00128841,0.00383483,0.0,0.0,-0.451705,1,0,0,0,0,0
95844000,-0.0061037,0.00401731,0.00766141,0.0,0.999986,-0.00305951,0.00199694,0.0038368,0.0,0.0,-0.451154,1,0,0,0,0,0
95940000,-0.00598969,0.00549123,0.00766141,0.0,0.999984,-0.00300533,0.00273411,0.00383889,0.0,0.0,-0.459607,1,0,0,0,0,0
96032000,-0.00293264,0.00585646,0.00766141,0.0,0.999987,-0.00147752,0.00292259,0.00383497,0.0,0.0,-0.460127,1,0,0,0,0,0
96124000,-0.00396305,0.00495354,0.00766141,0.0,0.999988,-0.00199099,0.00246915,0.00383558,0.0,0.0,-0.459039,1,0,0,0,0,0
96220000,-0.0038397,0.00234728,0.00766141,0.0,0.99999,-0.00192433,0.00116628,0.00383294,0.0,0.0,-0.465113,1,0,0,0,0,0
96312000,-0.00213509,0.0017507,0.00766141,0.0,0.999992,-0.00107089,0.000871251,0.00383163,0.0,0.0,-0.462992,1,0,0,0,0,0
96404000,-0.00213228,0.00139902,0.00766141,0.0,0.999992,-0.00106881,0.000695418,0.00383144,0.0,0.0,-0.460961,1,0,0,0,0,0
96500000,-0.004007,0.00179237,0.00766141,0.0,0.99999,-0.00200692,0.000888501,0.00383248,0.0,0.0,-0.467063,1,0,0,0,0,0
96592000,-0.00526351,0.00122699,0.00766141,0.0,0.999989,-0.00263408,0.000603406,0.0038323,0.0,0.0,-0.464927,1,0,0,0,0,0
96684000,-0.00554653,0.00270891,0.00766141,0.0,0.999988,-0.00277843,0.00134382,0.00383443,0.0,0.0,-0.463651,1,0,0,0,0,0
96780000,-0.00412119,0.00214996,0.00766141,0.0,0.99999,-0.00206469,0.00106708,0.0038329,0.0,0.0,-0.469727,1,0,0,0,0,0
96872000,-0.00527163,0.000941381,0.00766141,0.0,0.999989,-0.0026376,0.000460589,0.00383192,0.0,0.0,-0.467163,1,0,0,0,0,0
96964000,-0.00411292,0.000978674,0.00766141,0.0,0.99999,-0.00205832,0.000481455,0.00383169,0.0,0.0,-0.465406,1,0,0,0,0,0
97060000,-0.00466562,0.000796433,0.00766141,0.0,0.99999,-0.00233432,0.000389276,0.00383161,0.0,0.0,-0.471562,1,0,0,0,0,0
97152000,-0.00322134,-0.00025415,0.00766141,0.0,0.999991,-0.00161017,-0.000133244,0.00383049,0.0,0.0,-0.471261,1,0,0,0,0,0
97244000,-0.00231805,0.000393408,0.00766141,0.0,0.999992,-0.00115977,0.000192262,0.00383092,0.0,0.0,-0.468812,1,0,0,0,0,0
97340000,-0.00257338,-0.00111358,0.00766141,0.0,0.999992,-0.00128455,-0.000561714,0.00382997,0.0,0.0,-0.474253,1,0,0,0,0,0
97432000,-0.00300673,-0.000745244,0.00766141,0.0,0.999991,-0.00150193,-0.000378378,0.00383013,0.0,0.0,-0.472353,1,0,0,0,0,0
97524000,-0.00304324,-0.00125446,0.00766141,0.0,0.999991,-0.00151921,-0.000633055,0.00382974,0.0,0.0,-0.472342,1,0,0,0,0,0
97620000,-0.00404465,-0.00132128,0.00766141,0.0,0.99999,-0.00201978,-0.000668382,0.00382935,0.0,0.0,-0.475324,1,0,0,0,0,0
97712000,-0.00380276,-0.00068624,0.00766141,0.0,0.999991,-0.00190005,-0.0003504,0.00383004,0.0,0.0,-0.474867,1,0,0,0,0,0
97804000,-0.00411759,-0.00157671,0.00766141,0.0,0.99999,-0.00205576,-0.000796233,0.00382906,0.0,0.0,-0.470678,1,0,0,0,0,0
97900000,-0.00497319,-0.00236899,0.00766141,0.0,0.999989,-0.00248203,-0.00119401,0.00382774,0.0,0.0,-0.475665,1,0,0,0,0,0
97992000,-0.00523901,-0.00203796,0.00766141,0.0,0.999989,-0.00261558,-0.00102901,0.00382801,0.0,0.0,-0.475627,1,0,0,0,0,0
98084000,-0.00579956,-0.00316862,0.00766141,0.0,0.999987,-0.00289368,-0.0015954,0.00382608,0.0,0.0,-0.472881,1,0,0,0,0,0
98180000,-0.00681318,-0.00378194,0.00766141,0.0,0.999985,-0.00339931,-0.001904,0.00382422,0.0,0.0,-0.477087,1,0,0,0,0,0
98272000,-0.00549131,-0.0023714,0.00766141,0.0,0.999988,-0.00274109,-0.0011962,0.00382742,0.0,0.0,-0.476103,1,0,0,0,0,0
98364000,-0.00436939,-0.00211261,0.00766141,0.0,0.99999,-0.00218063,-0.00106466,0.00382838,0.0,0.0,-0.473651,1,0,0,0,0,0
98460000,-0.00559636,-0.00195242,0.00766141,0.0,0.999988,-0.00279441,-0.000986918,0.00382795,0.0,0.0,-0.477579,1,0,0,0,0,0
98552000,-0.00602621,-0.00378092,0.00766141,0.0,0.999986,-0.00300583,-0.00190198,0.00382497,0.0,0.0,-0.478089,1,0,0,0,0,0
98644000,-0.00465037,-0.00336185,0.00766141,0.0,0.999989,-0.00231872,-0.00168981,0.00382677,0.0,0.0,-0.477237,1,0,0,0,0,0
98740000,-0.00503568,-0.00182005,0.00766141,0.0,0.999989,-0.00251433,-0.000919659,0.00382839,0.0,0.0,-0.478687,1,0,0,0,0,0
98832000,-0.00335061,-0.00241053,0.00766141,0.0,0.999991,-0.00167067,-0.00121167,0.00382867,0.0,0.0,-0.477329,1,0,0,0,0,0
98924000,-0.00333359,-0.0017528,0.00766141,0.0,0.999991,-0.00166342,-0.000882778,0.00382923,0.0,0.0,-0.476391,1,0,0,0,0,0
99020000,-0.0026744,-0.00184221,0.00766141,0.0,0.999991,-0.00133366,-0.000926222,0.00382946,0.0,0.0,-0.478945,1,0,0,0,0,0
99112000,-0.00250415,-0.00240891,0.00766141,0.0,0.999991,-0.00124745,-0.00120924,0.00382918,0.0,0.0,-0.479005,1,0,0,0,0,0
99204000,-0.00404057,-0.000901936,0.00766141,0.0,0.999991,-0.00201854,-0.000458703,0.00382978,0.0,0.0,-0.479517,1,0,0,0,0,0
99300000,-0.00431965,-0.000995927,0.00766141,0.0,0.99999,-0.0021579,-0.000506232,0.00382961,0.0,0.0,-0.481098,1,0,0,0,0,0
99392000,-0.00429719,-0.00190995,0.00766141,0.0,0.99999,-0.00214492,-0.000963197,0.00382863,0.0,0.0,-0.480723,1,0,0,0,0,0
99484000,-0.00480703,-0.00338943,0.00766141,0.0,0.999988,-0.002397,-0.00170391,0.00382661,0.0,0.0,-0.480079,1,0,0,0,0,0
99580000,-0.00336081,-0.00197519,0.00766141,0.0,0.999991,-0.00167661,-0.000994021,0.00382903,0.0,0.0,-0.483313,1,0,0,0,0,0
99672000,-0.00493753,-0.00343794,0.00766141,0.0,0.999988,-0.00246216,-0.00172841,0.00382643,0.0,0.0,-0.481313,1,0,0,0,0,0
99764000,-0.0042087,-0.00304684,0.00766141,0.0,0.999989,-0.00209849,-0.00153147,0.00382748,0.0,0.0,-0.480749,1,0,0,0,0,0
99860000,-0.00417103,-0.00219173,0.00766141,0.0,0.99999,-0.0020813,-0.00110384,0.0038284,0.0,0.0,-0.483078,1,0,0,0,0,0
99952000,-0.001956,-0.00209099,0.00766141,0.0,0.999992,-0.000973989,-0.00104923,0.00382967,0.0,0.0,-0.483573,1,0,0,0,0,0
100044000,-0.00262636,-0.002588,0.00766141,0.0,0.999991,-0.00130821,-0.00129902,0.00382899,0.0,0.0,-0.481486,1,0,0,0,0,0
100140000,-0.00323416,-0.00283683,0.00766141,0.0,0.99999,-0.00161163,-0.0014246,0.00382839,0.0,0.0,-0.484927,1,0,0,0,0,0
100232000,-0.00394134,-0.000938011,0.00766141,0.0,0.999991,-0.00196886,-0.00047655,0.00382976,0.0,0.0,-0.482634,1,0,0,0,0,0
100324000,-0.00319968,-0.000898419,0.00766141,0.0,0.999991,-0.00159811,-0.000455334,0.00382997,0.0,0.0,-0.483264,1,0,0,0,0,0
100420000,-0.00385498,-0.00156724,0.00766141,0.0,0.999991,-0.00192447,-0.000790997,0.00382918,0.0,0.0,-0.484279,1,0,0,0,0,0
100512000,-0.00212234,-0.00106414,0.00766141,0.0,0.999992,-0.00105912,-0.000536129,0.00383013,0.0,0.0,-0.481513,1,0,0,0,0,0
100604000,-0.00365201,-0.000235709,0.00766141,0.0,0.999991,-0.00182554,-0.000124848,0.00383047,0.0,0.0,-0.480828,1,0,0,0,0,0
100700000,-0.00283212,-0.00117111,0.00766141,0.0,0.999991,-0.00141381,-0.000590973,0.00382986,0.0,0.0,-0.482351,1,0,0,0,0,0
100792000,-0.00237612,-0.00124786,0.00766141,0.0,0.999992,-0.00118566,-0.000628476,0.00382995,0.0,0.0,-0.481578,1,0,0,0,0,0
100884000,-0.0022563,-0.00275947,0.00766141,0.0,0.999991,-0.00112285,-0.00138404,0.00382913,0.0,0.0,-0.483422,1,0,0,0,0,0
100980000,-0.00239776,-0.00263598,0.00766141,0.0,0.999991,-0.00119382,-0.00132257,0.00382911,0.0,0.0,-0.485037,1,0,0,0,0,0
101072000,-0.00236467,-0.00286893,0.00766141,0.0,0.999991,-0.00117683,-0.00143898,0.00382899,0.0,0.0,-0.48438,1,0,0,0,0,0
101164000,-0.00256613,-0.00208203,0.00766141,0.0,0.999991,-0.00127906,-0.00104592,0.00382935,0.0,0.0,-0.484226,1,0,0,0,0,0
101260000,-0.00219331,-0.000807468,0.00766141,0.0,0.999992,-0.0010951,-0.000407932,0.00383025,0.0,0.0,-0.485718,1,0,0,0,0,0
101352000,-0.00193059,-0.00104386,0.00766141,0.0,0.999992,-0.000963288,-0.000525624,0.00383019,0.0,0.0,-0.48386,1,0,0,0,0,0
101444000,-0.00491684,-0.000349818,0.00766141,0.0,0.99999,-0.00245773,-0.000184324,0.00383025,0.0,0.0,-0.483377,1,0,0,0,0,0
101540000,-0.00347992,-0.000576403,0.00766141,0.0,0.999991,-0.00173884,-0.000294864,0.00383019,0.0,0.0,-0.483864,1,0,0,0,0,0
101632000,-0.0031379,-0.000189981,0.00766141,0.0,0.999991,-0.00156857,-0.000101,0.00383054,0.0,0.0,-0.484403,1,0,0,0,0,0
101724000,-0.00390817,-0.000639158,0.00766141,0.0,0.999991,-0.00195285,-0.000327062,0.00383006,0.0,0.0,-0.484947,1,0,0,0,0,0
101820000,-0.00353213,-0.0017794,0.00766141,0.0,0.999991,-0.00176264,-0.000896459,0.00382912,0.0,0.0,-0.485704,1,0,0,0,0,0
101912000,-0.00338388,-0.00169579,0.00766141,0.0,0.999991,-0.00168868,-0.000854371,0.00382925,0.0,0.0,-0.484074,1,0,0,0,0,0
102004000,-0.00449765,-0.000607991,0.00766141,0.0,0.99999,-0.00224764,-0.000312607,0.00383,0.0,0.0,-0.48388,1,0,0,0,0,0
102100000,-0.0034392,-0.00240242,0.00766141,0.0,0.99999,-0.00171499,-0.00120778,0.00382862,0.0,0.0,-0.485331,1,0,0,0,0,0
102192000,-0.00294501,-0.00305338,0.00766141,0.0,0.99999,-0.00146664,-0.00153231,0.00382844,0.0,0.0,-0.484747,1,0,0,0,0,0
102284000,-0.0036825,-0.00375601,0.00766141,0.0,0.999989,-0.00183404,-0.00188504,0.00382722,0.0,0.0,-0.484028,1,0,0,0,0,0
102380000,-0.00365798,-0.0029602,0.00766141,0.0,0.99999,-0.0018233,-0.00148709,0.00382798,0.0,0.0,-0.486156,1,0,0,0,0,0
102472000,-0.00565745,-0.00447423,0.00766141,0.0,0.999986,-0.00282012,-0.00224792,0.00382434,0.0,0.0,-0.487632,1,0,0,0,0,0
102564000,-0.00542086,-0.00368864,0.00766141,0.0,0.999987,-0.00270334,-0.00185468,0.00382568,0.0,0.0,-0.48713,1,0,0,0,0,0
102660000,-0.0048867,-0.00302292,0.00766141,0.0,0.999989,-0.00243754,-0.00152081,0.00382699,0.0,0.0,-0.486514,1,0,0,0,0,0
102752000,-0.00347077,-0.00270013,0.00766141,0.0,0.99999,-0.0017302,-0.0013567,0.00382834,0.0,0.0,-0.4878,1,0,0,0,0,0
102844000,-0.00458859,-0.00333934,0.00766141,0.0,0.999989,-0.00228788,-0.00167844,0.00382685,0.0,0.0,-0.48635,1,0,0,0,0,0
102940000,-0.00408041,-0.00318182,0.00766141,0.0,0.999989,-0.00203409,-0.00159871,0.00382744,0.0,0.0,-0.487317,1,0,0,0,0,0
103032000,-0.00520561,-0.00419041,0.00766141,0.0,0.999987,-0.00259475,-0.00210515,0.00382522,0.0,0.0,-0.487988,1,0,0,0,0,0
103124000,-0.00625313,-0.00303473,0.0080451,0.0,0.999986,-0.00312043,-0.00152992,0.00401777,0.0,0.0,-0.487654,1,0,0,0,0,0
103220000,-0.0050983,-0.00174538,0.0080451,0.0,0.999988,-0.00254561,-0.000882933,0.0040203,0.0,0.0,-0.487268,1,0,0,0,0,0
103312000,-0.0053563,-0.00206964,0.0080451,0.0,0.999988,-0.00267396,-0.00104558,0.00401975,0.0,0.0,-0.486208,1,0,0,0,0,0
103404000,-0.00381817,-0.00259562,0.0080451,0.0,0.999989,-0.00190385,-0.00130548,0.00402005,0.0,0.0,-0.487857,1,0,0,0,0,0
103500000,-0.00514438,-0.00231202,0.0080451,0.0,0.999988,-0.00256751,-0.00116634,0.00401955,0.0,0.0,-0.487186,1,0,0,0,0,0
103592000,-0.00448634,-0.00188971,0.0080451,0.0,0.999989,-0.00223935,-0.000953867,0.00402041,0.0,0.0,-0.487999,1,0,0,0,0,0
103684000,-0.00385137,-0.000610882,0.0080451,0.0,0.99999,-0.00192444,-0.000313184,0.00402194,0.0,0.0,-0.486792,1,0,0,0,0,0
103780000,-0.00434905,2.0437e-05,0.0080451,0.0,0.99999,-0.00217455,1.4713e-06,0.00402255,0.0,0.0,-0.487213,1,0,0,0,0,0
103872000,-0.00580403,-0.000880427,0.0080451,0.0,0.999988,-0.00290022,-0.000451882,0.00402124,0.0,0.0,-0.487561,1,0,0,0,0,0
103968000,-0.00747924,-0.000913099,0.0080451,0.0,0.999985,-0.00373774,-0.000471586,0.0040208,0.0,0.0,-0.487421,1,0,0,0,0,0
104060000,-0.00750788,-0.000703355,0.0080451,0.0,0.999985,-0.00375249,-0.000366772,0.00402119,0.0,0.0,-0.487169,1,0,0,0,0,0
104156000,-0.00753689,-0.00104643,0.0080451,0.0,0.999985,-0.0037663,-0.000538365,0.00402054,0.0,0.0,-0.486756,1,0,0,0,0,0
104248000,-0.00707286,-0.00144218,0.0080451,0.0,0.999985,-0.00353349,-0.000735304,0.00401996,0.0,0.0,-0.488476,1,0,0,0,0,0
104340000,-0.0057564,-0.0029124,0.0080451,0.0,0.999987,-0.00287231,-0.00146776,0.00401833,0.0,0.0,-0.488883,1,0,0,0,0,0
104436000,-0.00488136,-0.00154631,0.0080451,0.0,0.999989,-0.00243755,-0.000782966,0.00402064,0.0,0.0,-0.488578,1,0,0,0,0,0
104528000,-0.0044412,-0.0014533,0.0080451,0.0,0.999989,-0.00221766,-0.000735576,0.00402091,0.0,0.0,-0.487957,1,0,0,0,0,0
104620000,-0.00499399,-0.00227875,0.0080451,0.0,0.999988,-0.00249239,-0.00114941,0.00401968,0.0,0.0,-0.488862,1,0,0,0,0,0
104716000,-0.0048056,-0.00260971,0.0080451,0.0,0.999988,-0.00239753,-0.0013145,0.00401939,0.0,0.0,-0.487949,1,0,0,0,0,0
104808000,-0.00470212,-0.00191266,0.0080451,0.0,0.999989,-0.00234719,-0.000965776,0.00402028,0.0,0.0,-0.487594,1,0,0,0,0,0
104900000,-0.00419739,-0.00302381,0.0080451,0.0,0.999989,-0.00209259,-0.00152033,0.00401935,0.0,0.0,-0.487643,1,0,0,0,0,0
104996000,-0.00308684,-0.00423001,0.0080451,0.0,0.999988,-0.00153489,-0.00212119,0.00401926,0.0,0.0,-0.487631,1,0,0,0,0,0
105088000,-0.0049026,-0.00407365,0.0080451,0.0,0.999987,-0.00244308,-0.00204666,0.00401752,0.0,0.0,-0.488367,1,0,0,0,0,0
105180000,-0.0054607,-0.00270453,0.0080451,0.0,0.999987,-0.00272488,-0.00136323,0.00401883,0.0,0.0,-0.488107,1,0,0,0,0,0
105276000,-0.0049114,-0.0033381,0.0080451,0.0,0.999988,-0.00244896,-0.00167891,0.00401842,0.0,0.0,-0.488132,1,0,0,0,0,0
105368000,-0.0047428,-0.0051618,0.0080451,0.0,0.999986,-0.00236099,-0.00259041,0.00401639,0.0,0.0,-0.486556,1,0,0,0,0,0
105460000,-0.0029991,-0.00243127,0.0080451,0.0,0.99999,-0.00149465,-0.00122166,0.00402071,0.0,0.0,-0.488751,1,0,0,0,0,0
105556000,-0.00226948,-0.003948,0.0080451,0.0,0.999989,-0.00112679,-0.00197855,0.00402029,0.0,0.0,-0.487708,1,0,0,0,0,0
105648000,-0.00282939,-0.0040924,0.0080451,0.0,0.999989,-0.00140645,-0.00205187,0.00401963,0.0,0.0,-0.487801,1,0,0,0,0,0
105740000,-0.00259338,-0.00486968,0.0080451,0.0,0.999988,-0.00128688,-0.00244003,0.00401937,0.0,0.0,-0.487065,1,0,0,0,0,0
105836000,-0.0029876,-0.00477114,0.0080451,0.0,0.999988,-0.00148418,-0.00239155,0.00401896,0.0,0.0,-0.487167,1,0,0,0,0,0
105928000,-0.00127209,-0.00457397,0.0080451,0.0,0.999989,-0.00062684,-0.00228952,0.00402107,0.0,0.0,-0.487663,1,0,0,0,0,0
