timestamp,x,y,z,yaw,yawspeed,vx,vy,vz,acc_x,acc_y,acc_z,jerk_x,jerk_y,jerk_z,thrust[0],thrust[1],thrust[2]
71700000,0.0269955,0.0213273,-0.917326,0.00766141,0.0,0.000926561,0.0040569,-0.546667,0.0,0.0,0.0,0.0,0.0,0.0,0.00150584,0.000239661,-0.553872
71796000,0.0268708,0.0213074,-1.06132,0.00766141,0.0,0.00146255,0.00430535,-0.669333,0.0,0.0,0.0,0.0,0.0,0.0,0.00219123,0.000587694,-0.561165
71888000,0.0267513,0.0213062,-1.19931,0.00766141,0.0,0.00228304,0.00471083,-0.786889,0.0,0.0,0.0,0.0,0.0,0.0,0.00184263,0.000966029,-0.558286
71980000,0.0266317,0.0213165,-1.33731,0.00766141,0.0,0.00331225,0.0048885,-0.904444,0.0,0.0,0.0,0.0,0.0,0.0,0.00132103,-0.000165008,-0.556265
72076000,0.0265057,0.0213273,-1.4813,0.00766141,0.0,0.00408789,0.00508594,-1.02711,0.0,0.0,0.0,0.0,0.0,0.0,0.00160004,-1.81861e-05,-0.561545
72168000,0.0263059,0.0213878,-1.6193,0.00766141,0.0,0.0042944,0.00623968,-1.14467,0.0,0.0,0.0,0.0,0.0,0.0,0.00171546,0.000716063,-0.558783
72260000,0.0261188,0.0214691,-1.75729,0.00766141,0.0,0.00474757,0.00638895,-1.26222,0.0,0.0,0.0,0.0,0.0,0.0,0.00177709,0.000348887,-0.555703
72356000,0.0259314,0.0215352,-1.90129,0.00766141,0.0,0.00511109,0.00681795,-1.38489,0.0,0.0,0.0,0.0,0.0,0.0,0.00131235,0.000401071,-0.562449
72448000,0.0257751,0.0215985,-2.03928,0.00766141,0.0,0.00529338,0.00724398,-1.50244,0.0,0.0,0.0,0.0,0.0,0.0,0.0015028,0.000490249,-0.558841
72540000,0.0256187,0.0216619,-2.17727,0.00766141,0.0,0.00568952,0.00760355,-1.62,0.0,0.0,0.0,0.0,0.0,0.0,0.00204047,0.000689802,-0.556016
72636000,0.025462,0.021728,-2.32127,0.00766141,0.0,0.00651116,0.00785626,-1.74267,0.0,0.0,0.0,0.0,0.0,0.0,0.00226513,0.00046976,-0.561781
72728000,0.0253351,0.0217902,-2.45926,0.00766141,0.0,0.00729377,0.00805715,-1.86022,0.0,0.0,0.0,0.0,0.0,0.0,0.00179402,0.00119209,-0.557997
72820000,0.0252082,0.0218252,-2.59726,0.00766141,0.0,0.00800822,0.00851563,-1.97778,0.0,0.0,0.0,0.0,0.0,0.0,0.00181732,0.00117254,-0.556078
72916000,0.0250758,0.0218606,-2.74125,0.00766141,0.0,0.00851572,0.0091101,-2.10045,0.0,0.0,0.0,0.0,0.0,0.0,0.00173775,0.000740769,-0.560904
73008000,0.02495,0.0218945,-2.87925,0.00766141,0.0,0.00918437,0.00934887,-2.218,0.0,0.0,0.0,0.0,0.0,0.0,0.00159946,0.000106907,-0.558535
73100000,0.0248515,0.0219284,-3.01724,0.00766141,0.0,0.00995248,0.00905745,-2.33556,0.0,0.0,0.0,0.0,0.0,0.0,0.00240989,0.000194623,-0.555858
73196000,0.0247498,0.0219637,-3.16123,0.00766141,0.0,0.0104522,0.00851135,-2.45822,0.0,0.0,0.0,0.0,0.0,0.0,0.00232347,-0.000116493,-0.56208
73288000,0.0246524,0.0219976,-3.29923,0.00766141,0.0,0.0111232,0.00771423,-2.46656,0.0,0.0,0.0,0.0,0.0,0.0,0.00198329,-0.000497334,-0.494909
73380000,0.0245549,0.0220315,-3.43722,0.00766141,0.0,0.0119505,0.00656286,-2.36477,0.0,0.0,0.0,0.0,0.0,0.0,0.00182735,-0.000128401,-0.444245
73476000,0.0244532,0.0220669,-3.58122,0.00766141,0.0,0.0125627,0.00546453,-2.29479,0.0,0.0,0.0,0.0,0.0,0.0,0.00237028,-0.000724697,-0.449578
73568000,0.0243737,0.0221008,-3.71921,0.00766141,0.0,0.0137434,0.0039027,-2.20786,0.0,0.0,0.0,0.0,0.0,0.0,0.00168743,-8.85929e-05,-0.451
73660000,0.0243057,0.0221347,-3.85721,0.00766141,0.0,0.0143295,0.00190139,-2.12604,0.0,0.0,0.0,0.0,0.0,0.0,0.00197127,-0.00110651,-0.449075
73756000,0.0242347,0.02217,-4.0012,0.00766141,0.0,0.0149463,-8.3347e-06,-2.07302,0.0,0.0,0.0,0.0,0.0,0.0,0.0022597,-0.00139753,-0.455217
73848000,0.0241667,0.0222039,-4.13919,0.00766141,0.0,0.0155786,-0.00207307,-2.00142,0.0,0.0,0.0,0.0,0.0,0.0,0.00196197,-0.00144022,-0.452603
73940000,0.0240987,0.0222378,-4.27719,0.00766141,0.0,0.0162023,-0.00423911,-1.93625,0.0,0.0,0.0,0.0,0.0,0.0,0.00192545,-0.00174817,-0.453601
74036000,0.0240278,0.0222489,-4.42118,0.00766141,0.0,0.016832,-0.00679238,-1.90039,0.0,0.0,0.0,0.0,0.0,0.0,0.00220131,-0.00227459,-0.464095
74128000,0.0239598,0.0222533,-4.55918,0.00766141,0.0,0.0174861,-0.00932066,-1.84712,0.0,0.0,0.0,0.0,0.0,0.0,0.00198791,-0.00193549,-0.462846
74220000,0.0239033,0.0222578,-4.69717,0.00766141,0.0,0.0182582,-0.0116574,-1.79865,0.0,0.0,0.0,0.0,0.0,0.0,0.00194757,-0.0018293,-0.462749
74316000,0.023863,0.0222625,-4.84117,0.00766141,0.0,0.0186194,-0.0137038,-1.77592,0.0,0.0,0.0,0.0,0.0,0.0,0.00233128,-0.00249141,-0.471683
74408000,0.0238245,0.0222669,-4.97916,0.00766141,0.0,0.0189284,-0.0157505,-1.73681,0.0,0.0,0.0,0.0,0.0,0.0,0.00235567,-0.00187177,-0.47128
74500000,0.0237859,0.0222714,-5.11716,0.00766141,0.0,0.0191427,-0.017532,-1.70177,0.0,0.0,0.0,0.0,0.0,0.0,0.00173092,-0.00224348,-0.469839
74596000,0.0237457,0.022276,-5.26115,0.00766141,0.0,0.0192493,-0.0189298,-1.69087,0.0,0.0,0.0,0.0,0.0,0.0,0.00219967,-0.00233707,-0.4797
74688000,0.0237071,0.0222805,-5.39915,0.00766141,0.0,0.0194106,-0.0204632,-1.66311,0.0,0.0,0.0,0.0,0.0,0.0,0.00172258,-0.0022513,-0.477576
74780000,0.0236685,0.0222849,-5.53714,0.00766141,0.0,0.0197045,-0.0221942,-1.63785,0.0,0.0,0.0,0.0,0.0,0.0,0.00240388,-0.00225953,-0.476479
74876000,0.0236283,0.0222896,-5.68113,0.00766141,0.0,0.0201102,-0.0240609,-1.63436,0.0,0.0,0.0,0.0,0.0,0.0,0.00202496,-0.00337617,-0.48478
74968000,0.0235897,0.022294,-5.81913,0.00766141,0.0,0.0206135,-0.026438,-1.61431,0.0,0.0,0.0,0.0,0.0,0.0,0.00203295,-0.00334366,-0.483511
75060000,0.0235511,0.0222985,-5.95712,0.00766141,0.0,0.0208503,-0.0291059,-1.59658,0.0,0.0,0.0,0.0,0.0,0.0,0.00171728,-0.00390587,-0.482079
75156000,0.0235109,0.0223031,-6.10112,0.00766141,0.0,0.0207302,-0.0313434,-1.59888,0.0,0.0,0.0,0.0,0.0,0.0,0.00184418,-0.00372835,-0.490532
75248000,0.0234723,0.0223076,-6.23911,0.00766141,0.0,0.0203372,-0.033481,-1.58333,0.0,0.0,0.0,0.0,0.0,0.0,0.00173992,-0.0038121,-0.486341
75340000,0.0234338,0.022312,-6.37711,0.00766141,0.0,0.0196785,-0.0357315,-1.56846,0.0,0.0,0.0,0.0,0.0,0.0,0.00136548,-0.00351383,-0.483089
75436000,0.0233935,0.0223167,-6.5211,0.00766141,0.0,0.0188416,-0.0378083,-1.57326,0.0,0.0,0.0,0.0,0.0,0.0,0.00187018,-0.00454562,-0.490908
75528000,0.023356,0.0223211,-6.6591,0.00766141,0.0,0.017886,-0.0401943,-1.5602,0.0,0.0,0.0,0.0,0.0,0.0,0.00151697,-0.00425019,-0.487517
75620000,0.0233458,0.0223256,-6.79709,0.00766141,0.0,0.0170565,-0.0425547,-1.54844,0.0,0.0,0.0,0.0,0.0,0.0,0.00158604,-0.00404858,-0.48657
75716000,0.0233363,0.0223303,-6.94109,0.00766141,0.0,0.0163305,-0.0447129,-1.55561,0.0,0.0,0.0,0.0,0.0,0.0,0.00125407,-0.00378828,-0.492666
75808000,0.0233272,0.0223347,-7.07908,0.00766141,0.0,0.0153888,-0.046825,-1.54511,0.0,0.0,0.0,0.0,0.0,0.0,0.00115439,-0.0039106,-0.489585
75900000,0.0233181,0.0223392,-7.21708,0.00766141,0.0,0.0141759,-0.0486459,-1.53441,0.0,0.0,0.0,0.0,0.0,0.0,0.000642719,-0.00371754,-0.485568
75996000,0.0233085,0.0223438,-7.36107,0.00766141,0.0,0.0131212,-0.0498273,-1.54363,0.0,0.0,0.0,0.0,0.0,0.0,0.000636555,-0.00332647,-0.49441
76088000,0.0232994,0.0223483,-7.49906,0.00766141,0.0,0.0120731,-0.0506422,-1.53527,0.0,0.0,0.0,0.0,0.0,0.0,0.00087893,-0.00290713,-0.491438
76180000,0.0232903,0.0223527,-7.63706,0.00766141,0.0,0.0111152,-0.0510063,-1.52786,0.0,0.0,0.0,0.0,0.0,0.0,0.000539812,-0.00246917,-0.488731
76276000,0.0232808,0.0223574,-7.78105,0.00766141,0.0,0.010182,-0.0513326,-1.53827,0.0,0.0,0.0,0.0,0.0,0.0,0.000557714,-0.00274989,-0.495564
76368000,0.0232716,0.0223618,-7.91905,0.00766141,0.0,0.00909378,-0.051853,-1.52972,0.0,0.0,0.0,0.0,0.0,0.0,0.000557099,-0.00291543,-0.490092
76460000,0.0232625,0.0223663,-8.05704,0.00766141,0.0,0.00756016,-0.0516775,-1.52183,0.0,0.0,0.0,0.0,0.0,0.0,0.000642251,-0.00220065,-0.488325
76556000,0.023253,0.0223709,-8.20104,0.00766141,0.0,0.00669044,-0.0510041,-1.53295,0.0,0.0,0.0,0.0,0.0,0.0,0.000741638,-0.00158709,-0.495478
76648000,0.0232439,0.0223754,-8.33903,0.00766141,0.0,0.00619041,-0.049726,-1.52615,0.0,0.0,0.0,0.0,0.0,0.0,0.000999619,-0.00093746,-0.49209
76740000,0.0232347,0.0223798,-8.47703,0.00766141,0.0,0.00590874,-0.0483168,-1.51952,0.0,0.0,0.0,0.0,0.0,0.0,0.00122465,-0.00117799,-0.48888
76836000,0.0232252,0.0223845,-8.62102,0.00766141,0.0,0.0055801,-0.0471064,-1.5305,0.0,0.0,0.0,0.0,0.0,0.0,0.000843248,-0.000951246,-0.496439
76928000,0.0232161,0.0223889,-8.75902,0.00766141,0.0,0.00507305,-0.045516,-1.52154,0.0,0.0,0.0,0.0,0.0,0.0,0.00150848,-0.0011543,-0.489379
77020000,0.023207,0.0223934,-8.89701,0.00766141,0.0,0.00446511,-0.0436084,-1.51263,0.0,0.0,0.0,0.0,0.0,0.0,0.00178138,-0.000987654,-0.485794
77116000,0.0231975,0.0223981,-9.04101,0.00766141,0.0,0.00396796,-0.0416803,-1.52345,0.0,0.0,0.0,0.0,0.0,0.0,0.001176,-0.00053851,-0.495037
77208000,0.0231883,0.0224025,-9.179,0.00766141,0.0,0.00376222,-0.0394977,-1.5166,0.0,0.0,0.0,0.0,0.0,0.0,0.00151937,-0.000742285,-0.490947
77300000,0.0231792,0.022407,-9.31699,0.00766141,0.0,0.0037787,-0.0372916,-1.51018,0.0,0.0,0.0,0.0,0.0,0.0,0.00198986,-0.000237104,-0.48851
77396000,0.0231697,0.0224116,-9.46099,0.00766141,0.0,0.00383793,-0.0350275,-1.52198,0.0,0.0,0.0,0.0,0.0,0.0,0.00167771,0.000611789,-0.497043
77488000,0.0231606,0.0224161,-9.59898,0.00766141,0.0,0.00404465,-0.0322618,-1.51622,0.0,0.0,0.0,0.0,0.0,0.0,0.00165651,-4.76752e-05,-0.492538
77580000,0.0231514,0.0224205,-9.73698,0.00766141,0.0,0.00407054,-0.0295521,-1.51057,0.0,0.0,0.0,0.0,0.0,0.0,0.00151049,0.000134716,-0.489588
77676000,0.0231419,0.0224252,-9.88097,0.00766141,0.0,0.00396543,-0.0268581,-1.52251,0.0,0.0,0.0,0.0,0.0,0.0,0.00130691,0.000873906,-0.4961
77768000,0.0231328,0.0224296,-10.019,0.00766141,0.0,0.00375092,-0.0236266,-1.51778,0.0,0.0,0.0,0.0,0.0,0.0,0.00119969,0.00072472,-0.492378
77860000,0.0231237,0.0224341,-10.1588,0.00766141,0.0,0.00369195,-0.0203708,-1.5614,0.0,0.0,0.0,0.0,0.0,0.0,0.00121144,0.000797559,-0.514587
77956000,0.0231141,0.0224387,-10.313,0.00766141,0.0,0.00377397,-0.0178294,-1.70339,0.0,0.0,0.0,0.0,0.0,0.0,0.00169038,0.00141522,-0.566606
78048000,0.023105,0.0224432,-10.4749,0.00766141,0.0,0.00369437,-0.0153113,-1.89546,0.0,0.0,0.0,0.0,0.0,0.0,0.00102048,0.00070684,-0.59957
78140000,0.0230959,0.0224476,-10.6573,0.00766141,0.0,0.00331782,-0.0129654,-2.15837,0.0,0.0,0.0,0.0,0.0,0.0,0.00110115,0.000808181,-0.63167
78236000,0.0230864,0.0224523,-10.8754,0.00766141,0.0,0.00291918,-0.0110737,-2.50882,0.0,0.0,0.0,0.0,0.0,0.0,0.00120636,0.000740708,-0.681983
78328000,0.0230772,0.0224567,-11.1104,0.00766141,0.0,0.00264173,-0.00906821,-2.76209,0.0,0.0,0.0,0.0,0.0,0.0,0.0012095,0.00104634,-0.643387
78420000,0.0230681,0.0224612,-11.3647,0.00766141,0.0,0.00256486,-0.0071175,-2.93941,0.0,0.0,0.0,0.0,0.0,0.0,0.00116386,0.000548987,-0.594721
78516000,0.0230586,0.0224659,-11.6437,0.00766141,0.0,0.00245539,-0.00546424,-3.0,0.0,0.0,0.0,0.0,0.0,0.0,0.00123092,0.000682218,-0.532041
78608000,0.0230495,0.0224703,-11.918,0.00766141,0.0,0.00227046,-0.00373539,-3.0,0.0,0.0,0.0,0.0,0.0,0.0,0.00116641,0.00116419,-0.502943
78700000,0.0230403,0.0224748,-12.1938,0.00766141,0.0,0.00206407,-0.00199529,-3.0,0.0,0.0,0.0,0.0,0.0,0.0,0.00180116,0.00055035,-0.501712
78796000,0.0230308,0.0224794,-12.4816,0.00766141,0.0,0.00180223,-0.00043513,-3.0,0.0,0.0,0.0,0.0,0.0,0.0,0.000599753,0.00100464,-0.500757
78888000,0.0230217,0.0224839,-12.7574,0.00766141,0.0,0.00127957,0.00161817,-3.0,0.0,0.0,0.0,0.0,0.0,0.0,0.00106443,0.000825312,-0.499153
78980000,0.0230126,0.0224883,-13.0328,0.00766141,0.0,0.000668347,0.00356906,-3.0,0.0,0.0,0.0,0.0,0.0,0.0,0.000661289,0.000110603,-0.498859
79076000,0.0230031,0.022493,-13.3198,0.00766141,0.0,3.03717e-05,0.00503288,-3.0,0.0,0.0,0.0,0.0,0.0,0.0,0.000338603,0.000254821,-0.496956
79168000,0.022994,0.0224974,-13.5947,0.00766141,0.0,-0.000956221,0.00619122,-3.0,0.0,0.0,0.0,0.0,0.0,0.0,0.000519447,3.67587e-06,-0.496175
79260000,0.0229849,0.0225018,-13.8693,0.00766141,0.0,-0.00204901,0.00686167,-3.0,0.0,0.0,0.0,0.0,0.0,0.0,0.000120489,-0.000460783,-0.495096
79356000,0.0229754,0.0225065,-14.1558,0.00766141,0.0,-0.0030491,0.00732437,-3.0,0.0,0.0,0.0,0.0,0.0,0.0,0.000274279,5.09082e-05,-0.49406
79448000,0.0229663,0.0225109,-14.4301,0.00766141,0.0,-0.00387446,0.00783777,-3.0,0.0,0.0,0.0,0.0,0.0,0.0,0.000498267,-0.000147915,-0.492487
79540000,0.0229573,0.0225153,-14.7044,0.00766141,0.0,-0.00441568,0.00832644,-3.0,0.0,0.0,0.0,0.0,0.0,0.0,0.0010962,6.33584e-05,-0.493141
79636000,0.0229478,0.0225199,-14.9905,0.00766141,0.0,-0.00460406,0.00888076,-3.0,0.0,0.0,0.0,0.0,0.0,0.0,0.00136126,0.000688894,-0.493246
79728000,0.0229387,0.0225244,-15.2645,0.00766141,0.0,-0.00466957,0.00963476,-3.0,0.0,0.0,0.0,0.0,0.0,0.0,0.00207737,0.000924599,-0.49371
79820000,0.0229297,0.0225288,-15.5384,0.00766141,0.0,-0.00472473,0.0104343,-3.0,0.0,0.0,0.0,0.0,0.0,0.0,0.00200597,0.00175131,-0.494485
79916000,0.0229202,0.0225334,-15.8241,0.00766141,0.0,-0.00492938,0.0112013,-3.0,0.0,0.0,0.0,0.0,0.0,0.0,0.00143043,0.00114034,-0.494025
80008000,0.0229111,0.0225378,-16.0978,0.00766141,0.0,-0.00536459,0.0117641,-3.0,0.0,0.0,0.0,0.0,0.0,0.0,0.00122106,0.00137993,-0.494101
80100000,0.0229021,0.0225422,-16.3713,0.00766141,0.0,-0.00593253,0.0120784,-3.0,0.0,0.0,0.0,0.0,0.0,0.0,0.00147009,0.00132246,-0.494399
80196000,0.0228926,0.0225469,-16.6567,0.00766141,0.0,-0.00649256,0.0123204,-3.0,0.0,0.0,0.0,0.0,0.0,0.0,0.00184894,0.00138064,-0.495091
80288000,0.0228836,0.0225513,-16.9301,0.00766141,0.0,-0.0068549,0.012589,-3.0,0.0,0.0,0.0,0.0,0.0,0.0,0.00190904,0.00121426,-0.494016
80380000,0.0228745,0.0225557,-17.2034,0.00766141,0.0,-0.00687131,0.012688,-3.0,0.0,0.0,0.0,0.0,0.0,0.0,0.00182682,0.00120095,-0.493713
80476000,0.0228651,0.0225603,-17.4887,0.00766141,0.0,-0.00666128,0.0126577,-3.0,0.0,0.0,0.0,0.0,0.0,0.0,0.00218917,0.00134964,-0.493544
80568000,0.0228561,0.0225647,-17.762,0.00766141,0.0,-0.00627875,0.0128156,-3.0,0.0,0.0,0.0,0.0,0.0,0.0,0.0025837,0.00168014,-0.494232
80660000,0.022847,0.0225691,-18.0354,0.00766141,0.0,-0.00573472,0.0126427,-2.98615,0.0,0.0,0.0,0.0,0.0,0.0,0.00315607,0.00148033,-0.48825
80756000,0.0228376,0.0225737,-18.3209,0.00766141,0.0,-0.00513233,0.0120877,-3.0,0.0,0.0,0.0,0.0,0.0,0.0,0.0027034,0.000906413,-0.498056
80848000,0.0228285,0.0225782,-18.5945,0.00766141,0.0,-0.00457999,0.0112343,-2.98638,0.0,0.0,0.0,0.0,0.0,0.0,0.00199602,0.000596177,-0.491923
80940000,0.0228194,0.0225826,-18.8684,0.00766141,0.0,-0.00400142,0.0101197,-2.97011,0.0,0.0,0.0,0.0,0.0,0.0,0.00260667,0.000378536,-0.485204
81036000,0.02281,0.0225872,-19.1544,0.00766141,0.0,-0.0038065,0.00902515,-2.99047,0.0,0.0,0.0,0.0,0.0,0.0,0.0028749,0.000173729,-0.499646
81128000,0.0228009,0.0225916,-19.4287,0.00766141,0.0,-0.00362512,0.00785181,-2.9766,0.0,0.0,0.0,0.0,0.0,0.0,0.00272161,-8.40427e-05,-0.493836
81220000,0.0227918,0.0225961,-19.7031,0.00766141,0.0,-0.00351219,0.00658993,-2.96395,0.0,0.0,0.0,0.0,0.0,0.0,0.00230872,9.9537e-05,-0.489557
81316000,0.0227823,0.0226007,-19.9897,0.00766141,0.0,-0.00377978,0.00531078,-2.98775,0.0,0.0,0.0,0.0,0.0,0.0,0.00236024,0.000237003,-0.503091
81408000,0.0227732,0.0226051,-20.2645,0.00766141,0.0,-0.00433004,0.00379583,-2.97594,0.0,0.0,0.0,0.0,0.0,0.0,0.0023588,-5.24498e-06,-0.495092
81500000,0.0227641,0.0226096,-20.5394,0.00766141,0.0,-0.004954,0.00226438,-2.96418,0.0,0.0,0.0,0.0,0.0,0.0,0.00152783,-0.000234084,-0.489652
81596000,0.0227546,0.0226142,-20.8262,0.00766141,0.0,-0.00555878,0.00102569,-2.98832,0.0,0.0,0.0,0.0,0.0,0.0,0.00135727,0.000228965,-0.504269
81688000,0.0227455,0.0226176,-21.101,0.00766141,0.0,-0.00626554,-5.41687e-05,-2.9763,0.0,0.0,0.0,0.0,0.0,0.0,0.00190953,0.00035178,-0.495561
81780000,0.0227365,0.0225938,-21.3757,0.00766141,0.0,-0.00663428,-0.000911679,-2.96467,0.0,0.0,0.0,0.0,0.0,0.0,0.00240621,0.000822162,-0.489732
81876000,0.022727,0.0225673,-21.6623,0.00766141,0.0,-0.00694977,-0.00133596,-2.98927,0.0,0.0,0.0,0.0,0.0,0.0,0.00170299,0.00106533,-0.504255
81968000,0.0227179,0.0225414,-21.9369,0.00766141,0.0,-0.00710875,-0.00199071,-2.97834,0.0,0.0,0.0,0.0,0.0,0.0,0.00238708,0.000215954,-0.496701
82060000,0.0227088,0.0225149,-22.2114,0.00766141,0.0,-0.00732386,-0.00277755,-2.9671,0.0,0.0,0.0,0.0,0.0,0.0,0.00204924,-0.000128768,-0.491176
82156000,0.0226993,0.0224868,-22.4978,0.00766141,0.0,-0.00761181,-0.0036468,-2.99134,0.0,0.0,0.0,0.0,0.0,0.0,0.0018581,-0.000924311,-0.503671
82248000,0.0226902,0.0224593,-22.7722,0.00766141,0.0,-0.007912,-0.00438439,-2.97937,0.0,0.0,0.0,0.0,0.0,0.0,0.00129909,-0.000258712,-0.496295
82340000,0.0226812,0.0224313,-23.0464,0.00766141,0.0,-0.00822044,-0.00493838,-2.96677,0.0,0.0,0.0,0.0,0.0,0.0,0.00100179,0.000233682,-0.489482
82436000,0.0226717,0.0224015,-23.3325,0.00766141,0.0,-0.00850603,-0.00546564,-2.98996,0.0,0.0,0.0,0.0,0.0,0.0,0.00125011,-0.000127723,-0.502187
82528000,0.0226626,0.0223725,-23.6065,0.00766141,0.0,-0.00888484,-0.00608226,-2.97759,0.0,0.0,0.0,0.0,0.0,0.0,0.00117841,-0.000878214,-0.494803
82620000,0.0226536,0.0223543,-23.8805,0.00766141,0.0,-0.00941361,-0.0064602,-2.96606,0.0,0.0,0.0,0.0,0.0,0.0,0.00153976,-0.0017312,-0.489774
82716000,0.0226441,0.0223542,-24.1662,0.00766141,0.0,-0.0100382,-0.00718435,-2.99009,0.0,0.0,0.0,0.0,0.0,0.0,0.000771812,-0.00182164,-0.503681
82808000,0.022635,0.0223551,-24.4398,0.00766141,0.0,-0.0108698,-0.00800965,-2.97734,0.0,0.0,0.0,0.0,0.0,0.0,4.11135e-05,-0.00121954,-0.495015
82900000,0.022626,0.0223568,-24.7131,0.00766141,0.0,-0.0121327,-0.00912512,-2.9645,0.0,0.0,0.0,0.0,0.0,0.0,0.00010886,-0.00197196,-0.487533
82996000,0.0226166,0.0223596,-24.998,0.00766141,0.0,-0.0134281,-0.0104187,-2.98756,0.0,0.0,0.0,0.0,0.0,0.0,-7.63495e-05,-0.00227038,-0.501045
83088000,0.0226075,0.0223632,-25.2706,0.00766141,0.0,-0.0151486,-0.0121618,-2.97473,0.0,0.0,0.0,0.0,0.0,0.0,-0.00108748,-0.00251161,-0.495881
83180000,0.0225985,0.0223677,-25.5429,0.00766141,0.0,-0.0167752,-0.0139241,-2.96141,0.0,0.0,0.0,0.0,0.0,0.0,-0.000546385,-0.00194399,-0.48859
83276000,0.0225891,0.0223734,-25.8266,0.00766141,0.0,-0.0178872,-0.0155971,-2.98276,0.0,0.0,0.0,0.0,0.0,0.0,-0.000482841,-0.00296733,-0.500522
83368000,0.0225802,0.0223797,-26.0981,0.00766141,0.0,-0.0187706,-0.0177094,-2.96832,0.0,0.0,0.0,0.0,0.0,0.0,-0.000719509,-0.00359649,-0.493934
83460000,0.0225712,0.0223869,-26.3692,0.00766141,0.0,-0.0192218,-0.0198921,-2.95352,0.0,0.0,0.0,0.0,0.0,0.0,-0.00114854,-0.00354918,-0.486511
83556000,0.0225618,0.0223954,-26.6541,0.00766141,0.0,-0.0194058,-0.0218555,-2.97676,0.0,0.0,0.0,0.0,0.0,0.0,-0.000589608,-0.00327976,-0.502548
83648000,0.0225526,0.0224046,-26.9299,0.00766141,0.0,-0.019413,-0.0236223,-2.96782,0.0,0.0,0.0,0.0,0.0,0.0,-0.000197013,-0.00354191,-0.496291
83740000,0.0225435,0.0224148,-27.2057,0.00766141,0.0,-0.0194371,-0.0250006,-2.95955,0.0,0.0,0.0,0.0,0.0,0.0,-1.3446e-07,-0.00338175,-0.491698
83836000,0.022534,0.0224264,-27.4935,0.00766141,0.0,-0.0193793,-0.0260688,-2.98671,0.0,0.0,0.0,0.0,0.0,0.0,-0.000313508,-0.00289687,-0.504653
83928000,0.0225249,0.0224384,-27.7694,0.00766141,0.0,-0.0193117,-0.0269307,-2.97677,0.0,0.0,0.0,0.0,0.0,0.0,0.000290998,-0.00239058,-0.496525
84020000,0.0225157,0.0224513,-28.0452,0.00766141,0.0,-0.0193212,-0.0273898,-2.96691,0.0,0.0,0.0,0.0,0.0,0.0,-0.000165339,-0.00238833,-0.49144
84116000,0.0225126,0.0224658,-28.333,0.00766141,0.0,-0.0191416,-0.0275454,-2.99268,0.0,0.0,0.0,0.0,0.0,0.0,-0.000171892,-0.00273225,-0.504049
84208000,0.0225328,0.0224628,-28.6065,0.00766141,0.0,-0.0194045,-0.0277991,-2.9805,0.0,0.0,0.0,0.0,0.0,0.0,-0.000617581,-0.00219953,-0.494886
84300000,0.0225529,0.0224483,-28.8801,0.00766141,0.0,-0.0196208,-0.0275031,-2.96846,0.0,0.0,0.0,0.0,0.0,0.0,0.000705444,-0.00178369,-0.48937
84396000,0.0225741,0.0224331,-29.1679,0.00766141,0.0,-0.0195312,-0.0269026,-2.9944,0.0,0.0,0.0,0.0,0.0,0.0,0.000846446,-0.0017328,-0.503796
84488000,0.0225944,0.0224185,-29.4437,0.00766141,0.0,-0.0195726,-0.0260807,-2.98454,0.0,0.0,0.0,0.0,0.0,0.0,0.0011056,-0.00107197,-0.497144
84580000,0.0226147,0.0224039,-29.7195,0.00766141,0.0,-0.0194862,-0.0251467,-2.97514,0.0,0.0,0.0,0.0,0.0,0.0,0.00063966,-0.000988649,-0.490226
84676000,0.0226359,0.0223887,-30.0073,0.00766141,0.0,-0.0194359,-0.0242983,-3.0,0.0,0.0,0.0,0.0,0.0,0.0,0.000507859,-0.00115137,-0.503278
84768000,0.0226562,0.0223741,-30.2831,0.00766141,0.0,-0.0197199,-0.0237442,-2.9909,0.0,0.0,0.0,0.0,0.0,0.0,-6.08035e-05,-0.00108487,-0.497304
84860000,0.0226765,0.0223595,-30.559,0.00766141,0.0,-0.0197532,-0.0230933,-2.98032,0.0,0.0,0.0,0.0,0.0,0.0,-0.000246626,-0.00126292,-0.491019
84956000,0.0226977,0.0223443,-30.8468,0.00766141,0.0,-0.0197661,-0.0224826,-3.0,0.0,0.0,0.0,0.0,0.0,0.0,0.00023347,-0.00104598,-0.501622
85048000,0.022718,0.0223297,-31.1226,0.00766141,0.0,-0.0197307,-0.0219626,-2.99331,0.0,0.0,0.0,0.0,0.0,0.0,0.000200724,-0.00113576,-0.4961
85140000,0.0227384,0.0223151,-31.3984,0.00766141,0.0,-0.0196215,-0.0213199,-2.98132,0.0,0.0,0.0,0.0,0.0,0.0,3.32142e-05,-0.00219627,-0.489769
85236000,0.0227596,0.0222999,-31.6862,0.00766141,0.0,-0.019253,-0.0206749,-3.0,0.0,0.0,0.0,0.0,0.0,0.0,0.000225503,-0.00190864,-0.500864
85328000,0.0227799,0.0222853,-31.9621,0.00766141,0.0,-0.0188205,-0.0198055,-2.99488,0.0,0.0,0.0,0.0,0.0,0.0,-5.05143e-05,-0.001513,-0.496599
85420000,0.0228002,0.0222707,-32.2379,0.00766141,0.0,-0.018317,-0.0190302,-2.98337,0.0,0.0,0.0,0.0,0.0,0.0,0.000280336,-0.00190691,-0.489896
85516000,0.0228214,0.0222555,-32.5257,0.00766141,0.0,-0.017742,-0.0187161,-3.0,0.0,0.0,0.0,0.0,0.0,0.0,0.000215686,-0.00198358,-0.499311
85608000,0.0228417,0.0222409,-32.8015,0.00766141,0.0,-0.0170861,-0.0187001,-2.99444,0.0,0.0,0.0,0.0,0.0,0.0,0.000257955,-0.00164896,-0.495022
85700000,0.022862,0.0222263,-33.0773,0.00766141,0.0,-0.0162153,-0.0187018,-2.98161,0.0,0.0,0.0,0.0,0.0,0.0,0.000646328,-0.00169413,-0.489167
85796000,0.0228832,0.0222111,-33.3651,0.00766141,0.0,-0.0152707,-0.0186735,-3.0,0.0,0.0,0.0,0.0,0.0,0.0,0.000758861,-0.00131444,-0.501588
85888000,0.0229035,0.0221965,-33.6409,0.00766141,0.0,-0.0140707,-0.018863,-2.99291,0.0,0.0,0.0,0.0,0.0,0.0,0.00179681,-0.0020816,-0.496113
85980000,0.0229237,0.022182,-33.9152,0.00766141,0.0,-0.0127774,-0.0189001,-2.97941,0.0,0.0,0.0,0.0,0.0,0.0,0.00141012,-0.00156911,-0.488513
86076000,0.0229446,0.0221669,-34.199,0.00766141,0.0,-0.0116422,-0.0188199,-3.0,0.0,0.0,0.0,0.0,0.0,0.0,0.00147544,-0.00113804,-0.501383
86168000,0.0229646,0.0221526,-34.4711,0.00766141,0.0,-0.0104977,-0.0184826,-2.98577,0.0,0.0,0.0,0.0,0.0,0.0,0.00150881,-0.00080357,-0.493792
86260000,0.0229847,0.0221382,-34.7434,0.00766141,0.0,-0.00926718,-0.0176785,-2.97212,0.0,0.0,0.0,0.0,0.0,0.0,0.00211517,-0.00020229,-0.487619
86356000,0.0230056,0.0221231,-35.0277,0.00766141,0.0,-0.00787769,-0.0168335,-2.99426,0.0,0.0,0.0,0.0,0.0,0.0,0.00200489,0.000180388,-0.502503
86448000,0.0230257,0.0221087,-35.3005,0.00766141,0.0,-0.00646105,-0.0157184,-2.98099,0.0,0.0,0.0,0.0,0.0,0.0,0.001609,-0.000343597,-0.494509
86540000,0.0230458,0.0220942,-35.5736,0.00766141,0.0,-0.00526209,-0.0147244,-2.96827,0.0,0.0,0.0,0.0,0.0,0.0,0.00110266,-0.00051466,-0.489978
86636000,0.0230668,0.0220791,-35.8587,0.00766141,0.0,-0.004244,-0.013837,-2.99211,0.0,0.0,0.0,0.0,0.0,0.0,0.00119087,-0.000958955,-0.503639
86728000,0.023087,0.0220647,-36.1322,0.00766141,0.0,-0.00321796,-0.0129491,-2.98108,0.0,0.0,0.0,0.0,0.0,0.0,0.00136508,-0.00113984,-0.496231
86820000,0.0231071,0.0220502,-36.4058,0.00766141,0.0,-0.00212931,-0.0120332,-2.97025,0.0,0.0,0.0,0.0,0.0,0.0,0.00207978,-0.000704285,-0.491367
86916000,0.0231041,0.0220351,-36.6916,0.00766141,0.0,-0.00150287,-0.0110891,-2.99531,0.0,0.0,0.0,0.0,0.0,0.0,0.00208233,-0.000651952,-0.505325
87008000,0.0230943,0.0220206,-36.9656,0.00766141,0.0,-0.000394148,-0.00994449,-2.9854,0.0,0.0,0.0,0.0,0.0,0.0,0.00162938,-0.000439236,-0.497539
87100000,0.0230835,0.0220061,-37.2399,0.00766141,0.0,0.000952518,-0.00889659,-2.97551,0.0,0.0,0.0,0.0,0.0,0.0,0.00181263,-0.00047813,-0.492543
87196000,0.0230712,0.0219909,-37.5262,0.00766141,0.0,0.00215278,-0.00806973,-3.0,0.0,0.0,0.0,0.0,0.0,0.0,0.0017636,-0.00112882,-0.505755
87288000,0.0230584,0.0219764,-37.8006,0.00766141,0.0,0.00318502,-0.00707526,-2.98892,0.0,0.0,0.0,0.0,0.0,0.0,0.00125672,-0.000798941,-0.495222
87380000,0.0230446,0.0219619,-38.0752,0.00766141,0.0,0.00372588,-0.00571124,-2.97662,0.0,0.0,0.0,0.0,0.0,0.0,0.000617639,-0.000544768,-0.489197
87476000,0.0230291,0.0219467,-38.3621,0.00766141,0.0,0.00387375,-0.00403535,-3.0,0.0,0.0,0.0,0.0,0.0,0.0,0.000868359,-0.000544525,-0.502479
87568000,0.0230133,0.0219321,-38.638,0.00766141,0.0,0.00362872,-0.00206359,-2.98997,0.0,0.0,0.0,0.0,0.0,0.0,0.00040007,0.000168862,-0.496941
87660000,0.0229964,0.0219175,-38.9138,0.00766141,0.0,0.00351745,0.000134505,-2.97937,0.0,0.0,0.0,0.0,0.0,0.0,0.00102767,0.000740068,-0.491134
87756000,0.0229778,0.0219023,-39.2016,0.00766141,0.0,0.00356229,0.00237925,-3.0,0.0,0.0,0.0,0.0,0.0,0.0,0.00138915,0.000924476,-0.501642
87848000,0.0229589,0.0218877,-39.4774,0.00766141,0.0,0.00394652,0.00470904,-2.99376,0.0,0.0,0.0,0.0,0.0,0.0,0.00154053,0.000759011,-0.49689
87940000,0.0229391,0.0218731,-39.7532,0.00766141,0.0,0.00461311,0.00694989,-2.98223,0.0,0.0,0.0,0.0,0.0,0.0,0.00189642,0.00017042,-0.491216
88036000,0.0229237,0.0218579,-40.041,0.00766141,0.0,0.005474,0.00898253,-3.0,0.0,0.0,0.0,0.0,0.0,0.0,0.0012393,0.00023669,-0.501229
88128000,0.0229319,0.0218444,-40.3168,0.00766141,0.0,0.00586024,0.0113696,-2.99477,0.0,0.0,0.0,0.0,0.0,0.0,0.00124764,0.000601716,-0.497012
88220000,0.02294,0.0218584,-40.5903,0.00766141,0.0,0.00613551,0.0137584,-2.98029,0.0,0.0,0.0,0.0,0.0,0.0,0.00169141,0.00116994,-0.488154
88316000,0.0229485,0.0218752,-40.8752,0.00766141,0.0,0.00629703,0.0158575,-3.0,0.0,0.0,0.0,0.0,0.0,0.0,0.00108209,0.00147976,-0.500813
88408000,0.0229566,0.0218917,-41.1479,0.00766141,0.0,0.00639397,0.0180802,-2.98624,0.0,0.0,0.0,0.0,0.0,0.0,0.00155695,0.00116086,-0.493701
88500000,0.0229646,0.0219083,-41.4202,0.00766141,0.0,0.00647305,0.0201414,-2.97082,0.0,0.0,0.0,0.0,0.0,0.0,0.00113877,0.00158843,-0.485989
88596000,0.0229731,0.0219255,-41.7041,0.00766141,0.0,0.00646097,0.0218394,-2.99118,0.0,0.0,0.0,0.0,0.0,0.0,0.00107098,0.00148249,-0.500749
88688000,0.0229811,0.0219421,-41.9759,0.00766141,0.0,0.00642004,0.0236736,-2.97678,0.0,0.0,0.0,0.0,0.0,0.0,0.00104358,0.00168141,-0.495552
88780000,0.0229892,0.0219586,-42.2473,0.00766141,0.0,0.00636929,0.0257552,-2.96274,0.0,0.0,0.0,0.0,0.0,0.0,0.000607492,0.00128244,-0.488825
88876000,0.0229976,0.0219758,-42.5302,0.00766141,0.0,0.00611191,0.027527,-2.96056,0.0,0.0,0.0,0.0,0.0,0.0,0.00081776,0.00142014,-0.489493
88972000,0.0230059,0.021993,-42.8128,0.00766141,0.0,0.00585798,0.0289981,-2.9819,0.0,0.0,0.0,0.0,0.0,0.0,0.000768841,0.000973294,-0.501455
89064000,0.023014,0.0220095,-43.0834,0.00766141,0.0,0.00553036,0.0305593,-2.96716,0.0,0.0,0.0,0.0,0.0,0.0,1.90225e-05,0.000502716,-0.494025
89156000,0.023022,0.022026,-43.3537,0.00766141,0.0,0.00507363,0.032355,-2.9526,0.0,0.0,0.0,0.0,0.0,0.0,0.000258251,0.000894868,-0.488167
89252000,0.0230303,0.0220432,-43.6355,0.00766141,0.0,0.0048474,0.0337553,-2.97376,0.0,0.0,0.0,0.0,0.0,0.0,0.000559808,0.000552439,-0.501939
89344000,0.0230383,0.0220597,-43.9054,0.00766141,0.0,0.00461043,0.035048,-2.95967,0.0,0.0,0.0,0.0,0.0,0.0,0.000273914,-0.000302659,-0.494501
89436000,0.0230463,0.0220762,-44.175,0.00766141,0.0,0.00414097,0.0359348,-2.94471,0.0,0.0,0.0,0.0,0.0,0.0,0.000127634,-0.000549843,-0.488043
89532000,0.0230547,0.0220934,-44.4563,0.00766141,0.0,0.00357685,0.0367864,-2.96539,0.0,0.0,0.0,0.0,0.0,0.0,0.000183658,0.000285068,-0.502076
89624000,0.0230627,0.0221099,-44.7257,0.00766141,0.0,0.00269743,0.0381985,-2.95028,0.0,0.0,0.0,0.0,0.0,0.0,-2.07016e-05,0.000608511,-0.492898
89716000,0.0230707,0.0221264,-44.9948,0.00766141,0.0,0.00158285,0.0396702,-2.93497,0.0,0.0,0.0,0.0,0.0,0.0,-0.000272413,0.000381954,-0.487136
89812000,0.023079,0.0221436,-45.2754,0.00766141,0.0,0.000672143,0.0407142,-2.95474,0.0,0.0,0.0,0.0,0.0,0.0,-0.00031046,0.000247114,-0.498959
89904000,0.0230869,0.0221601,-45.5441,0.00766141,0.0,-0.000362236,0.041764,-2.94086,0.0,0.0,0.0,0.0,0.0,0.0,-0.000475,-0.000202633,-0.494556
89996000,0.0230949,0.0221766,-45.8127,0.00766141,0.0,-0.00143721,0.0424956,-2.92793,0.0,0.0,0.0,0.0,0.0,0.0,-9.0464e-05,-0.000458342,-0.490048
90092000,0.0231032,0.0221938,-46.0928,0.00766141,0.0,-0.00243688,0.0430978,-2.94935,0.0,0.0,0.0,0.0,0.0,0.0,-7.67022e-05,0.000250522,-0.501958
90184000,0.0231112,0.0222103,-46.3611,0.00766141,0.0,-0.00330474,0.0437726,-2.93536,0.0,0.0,0.0,0.0,0.0,0.0,-2.9141e-05,0.000327831,-0.494552
90276000,0.0231191,0.0222268,-46.6293,0.00766141,0.0,-0.00409812,0.0443887,-2.92149,0.0,0.0,0.0,0.0,0.0,0.0,-0.000530523,-0.00088646,-0.487127
90372000,0.0231274,0.0222441,-46.9091,0.00766141,0.0,-0.00463702,0.0446794,-2.94211,0.0,0.0,0.0,0.0,0.0,0.0,-0.000832301,-0.00136053,-0.500297
90464000,0.0231354,0.0222606,-47.1772,0.00766141,0.0,-0.0055149,0.0447049,-2.92722,0.0,0.0,0.0,0.0,0.0,0.0,-0.00123265,-0.000702307,-0.492785
90556000,0.0231433,0.0222771,-47.4452,0.00766141,0.0,-0.00668154,0.0450849,-2.91251,0.0,0.0,0.0,0.0,0.0,0.0,-0.000785157,-0.000111722,-0.486459
90652000,0.0231516,0.0222943,-47.7248,0.00766141,0.0,-0.00751967,0.0458465,-2.93407,0.0,0.0,0.0,0.0,0.0,0.0,-0.000491878,0.000278548,-0.501468
90744000,0.0231597,0.0222939,-47.9957,0.00766141,0.0,-0.00817436,0.0464116,-2.92406,0.0,0.0,0.0,0.0,0.0,0.0,0.000142998,0.000648681,-0.496135
90836000,0.0231678,0.0222793,-48.2715,0.00766141,0.0,-0.00858437,0.0470613,-2.91794,0.0,0.0,0.0,0.0,0.0,0.0,0.000311341,0.000871849,-0.491654
90932000,0.0231764,0.02226,-48.5593,0.00766141,0.0,-0.00877225,0.0475645,-2.94649,0.0,0.0,0.0,0.0,0.0,0.0,0.000812094,0.000301347,-0.50503
91024000,0.0231846,0.0222376,-48.8352,0.00766141,0.0,-0.00893015,0.0478134,-2.94045,0.0,0.0,0.0,0.0,0.0,0.0,-9.51051e-05,0.000343283,-0.499147
91116000,0.0231927,0.0222113,-49.111,0.00766141,0.0,-0.00935896,0.0478883,-2.93431,0.0,0.0,0.0,0.0,0.0,0.0,-0.000985847,5.62596e-05,-0.492344
91212000,0.0232013,0.0222051,-49.3988,0.00766141,0.0,-0.0100037,0.0479381,-2.96269,0.0,0.0,0.0,0.0,0.0,0.0,-0.000859465,-0.000418179,-0.504417
91304000,0.0232095,0.0222051,-49.6746,0.00766141,0.0,-0.0107651,0.04727,-2.95524,0.0,0.0,0.0,0.0,0.0,0.0,-0.000605653,-0.000456221,-0.498503
91396000,0.0232177,0.022205,-49.9504,0.00766141,0.0,-0.0112791,0.0462663,-2.94714,0.0,0.0,0.0,0.0,0.0,0.0,-0.000319792,-0.00167994,-0.490762
91492000,0.0232262,0.022205,-50.2382,0.00766141,0.0,-0.0115357,0.0451992,-2.9734,0.0,0.0,0.0,0.0,0.0,0.0,-0.000409137,-0.00132646,-0.503272
91584000,0.0232344,0.022205,-50.514,0.00766141,0.0,-0.0114604,0.044246,-2.96454,0.0,0.0,0.0,0.0,0.0,0.0,0.000344146,-0.000672121,-0.496876
91676000,0.0232426,0.022205,-50.7899,0.00766141,0.0,-0.0110576,0.0439067,-2.95514,0.0,0.0,0.0,0.0,0.0,0.0,7.06305e-05,-0.000790438,-0.490218
91772000,0.0232511,0.0222049,-51.0777,0.00766141,0.0,-0.0104955,0.0436011,-2.98137,0.0,0.0,0.0,0.0,0.0,0.0,0.000638191,-0.000478049,-0.504928
91864000,0.0232593,0.0222049,-51.3535,0.00766141,0.0,-0.0101627,0.0433498,-2.9721,0.0,0.0,0.0,0.0,0.0,0.0,0.00101179,-0.000831347,-0.497603
91956000,0.0232675,0.0222049,-51.6293,0.00766141,0.0,-0.00961863,0.0432854,-2.96298,0.0,0.0,0.0,0.0,0.0,0.0,0.00122289,-0.000390522,-0.491007
92052000,0.023276,0.0222049,-51.9171,0.00766141,0.0,-0.00899349,0.0431937,-2.9894,0.0,0.0,0.0,0.0,0.0,0.0,0.000421145,-0.000694317,-0.505525
92144000,0.0232842,0.0222048,-52.1929,0.00766141,0.0,-0.00836741,0.0432935,-2.98015,0.0,0.0,0.0,0.0,0.0,0.0,0.000668602,-0.000568171,-0.498003
92236000,0.0232924,0.0222048,-52.4687,0.00766141,0.0,-0.00772524,0.0432644,-2.97091,0.0,0.0,0.0,0.0,0.0,0.0,0.000816127,-0.000416414,-0.491451
92332000,0.0233009,0.0222048,-52.7566,0.00766141,0.0,-0.0069547,0.0434144,-2.99738,0.0,0.0,0.0,0.0,0.0,0.0,0.000972086,-0.000482168,-0.505853
92424000,0.0233091,0.0222048,-53.0324,0.00766141,0.0,-0.0060617,0.0436224,-2.98874,0.0,0.0,0.0,0.0,0.0,0.0,0.00119751,-2.42402e-05,-0.499873
92516000,0.0233173,0.0222047,-53.3082,0.00766141,0.0,-0.0052565,0.0440206,-2.97863,0.0,0.0,0.0,0.0,0.0,0.0,0.00122386,-0.000157285,-0.491803
92612000,0.0233258,0.0222047,-53.596,0.00766141,0.0,-0.00484172,0.0442923,-3.0,0.0,0.0,0.0,0.0,0.0,0.0,0.000754523,-0.000512006,-0.501347
92704000,0.023334,0.0222047,-53.8718,0.00766141,0.0,-0.00488173,0.0444647,-2.99088,0.0,0.0,0.0,0.0,0.0,0.0,7.38457e-05,-0.000874688,-0.495638
92796000,0.0233422,0.0222047,-54.1476,0.00766141,0.0,-0.00509712,0.0443965,-2.97865,0.0,0.0,0.0,0.0,0.0,0.0,0.000175122,-0.000530912,-0.488501
92892000,0.0233507,0.0222046,-54.4354,0.00766141,0.0,-0.00517501,0.0441876,-3.0,0.0,0.0,0.0,0.0,0.0,0.0,-0.000158479,-0.00140713,-0.501504
92984000,0.0233589,0.0222046,-54.7113,0.00766141,0.0,-0.00516143,0.0436691,-2.98975,0.0,0.0,0.0,0.0,0.0,0.0,-0.00053627,-0.00114233,-0.494959
93076000,0.0233671,0.0222046,-54.9871,0.00766141,0.0,-0.00481849,0.043486,-2.97718,0.0,0.0,0.0,0.0,0.0,0.0,-0.000188605,-0.00126354,-0.487944
93172000,0.0233756,0.0222046,-55.2749,0.00766141,0.0,-0.00419101,0.0433905,-3.0,0.0,0.0,0.0,0.0,0.0,0.0,0.000640963,-0.00104664,-0.500768
93264000,0.0233838,0.0222045,-55.5507,0.00766141,0.0,-0.00339728,0.0430323,-2.98869,0.0,0.0,0.0,0.0,0.0,0.0,0.00127155,-0.000408409,-0.495163
93356000,0.023392,0.0222045,-55.8265,0.00766141,0.0,-0.00225278,0.0423789,-2.97725,0.0,0.0,0.0,0.0,0.0,0.0,0.00238078,-0.000623478,-0.488686
93452000,0.0234005,0.0222045,-56.1143,0.00766141,0.0,-0.00123774,0.0416168,-3.0,0.0,0.0,0.0,0.0,0.0,0.0,0.000948698,-0.000570602,-0.501467
93544000,0.0234087,0.0222045,-56.3901,0.00766141,0.0,-0.000373002,0.0405842,-2.98966,0.0,0.0,0.0,0.0,0.0,0.0,0.000633017,-0.00148316,-0.494832
93636000,0.0234169,0.0222044,-56.666,0.00766141,0.0,2.37148e-05,0.039107,-2.97725,0.0,0.0,0.0,0.0,0.0,0.0,0.000810445,-0.00224265,-0.488469
93732000,0.0234254,0.0222044,-56.9538,0.00766141,0.0,1.61733e-05,0.0375009,-3.0,0.0,0.0,0.0,0.0,0.0,0.0,0.000547074,-0.00258728,-0.502313
93824000,0.0234336,0.0222044,-57.2296,0.00766141,0.0,-0.000126973,0.035544,-2.98968,0.0,0.0,0.0,0.0,0.0,0.0,0.00112786,-0.00246399,-0.495638
93916000,0.0234418,0.0222044,-57.5054,0.00766141,0.0,-0.000331513,0.0334935,-2.9781,0.0,0.0,0.0,0.0,0.0,0.0,0.000607999,-0.00316095,-0.489153
94012000,0.0234503,0.0222043,-57.7932,0.00766141,0.0,-0.000687466,0.0314062,-3.0,0.0,0.0,0.0,0.0,0.0,0.0,0.000589751,-0.00371824,-0.501408
94104000,0.0234585,0.0222043,-58.069,0.00766141,0.0,-0.00130785,0.0289473,-2.99078,0.0,0.0,0.0,0.0,0.0,0.0,-0.000263074,-0.00384581,-0.496679
94196000,0.0234667,0.0222043,-58.3448,0.00766141,0.0,-0.00231282,0.0263872,-2.97976,0.0,0.0,0.0,0.0,0.0,0.0,-0.000989995,-0.00390203,-0.489213
94292000,0.0234752,0.0222043,-58.6327,0.00766141,0.0,-0.00357372,0.0242593,-3.0,0.0,0.0,0.0,0.0,0.0,0.0,-0.000725925,-0.00372444,-0.500791
94384000,0.0234834,0.0222042,-58.9085,0.00766141,0.0,-0.00514952,0.0219493,-2.99349,0.0,0.0,0.0,0.0,0.0,0.0,-0.000936645,-0.00362989,-0.497248
94476000,0.0234916,0.0222042,-59.1843,0.00766141,0.0,-0.00709875,0.0202118,-2.98222,0.0,0.0,0.0,0.0,0.0,0.0,-0.00145266,-0.00362973,-0.490076
94572000,0.0235001,0.0222042,-59.4721,0.00766141,0.0,-0.00901759,0.0186869,-3.0,0.0,0.0,0.0,0.0,0.0,0.0,-0.00140978,-0.00307158,-0.50113
94664000,0.0235083,0.0222042,-59.7479,0.00766141,0.0,-0.0110669,0.0170914,-2.99484,0.0,0.0,0.0,0.0,0.0,0.0,-0.00149352,-0.0029479,-0.495463
94756000,0.0235165,0.0222041,-60.0237,0.00766141,0.0,-0.0131595,0.0155076,-2.98323,0.0,0.0,0.0,0.0,0.0,0.0,-0.00113595,-0.00318175,-0.491476
94852000,0.023525,0.0222041,-60.311,0.00766141,0.0,-0.0151412,0.0140658,-2.98398,0.0,0.0,0.0,0.0,0.0,0.0,-0.00134756,-0.002564,-0.491901
94944000,0.0235153,0.0222041,-60.5792,0.00766141,0.0,-0.0175345,0.0127376,-2.89429,0.0,0.0,0.0,0.0,0.0,0.0,-0.00177783,-0.00209928,-0.455585
95036000,0.0234928,0.0222041,-60.839,0.00766141,0.0,-0.0192792,0.0117609,-2.79635,0.0,0.0,0.0,0.0,0.0,0.0,-0.00150732,-0.00231033,-0.445323
95132000,0.0234675,0.022204,-61.1023,0.00766141,0.0,-0.0206939,0.0107674,-2.72858,0.0,0.0,0.0,0.0,0.0,0.0,-0.00145604,-0.00235346,-0.452395
95224000,0.0234414,0.022204,-61.3474,0.00766141,0.0,-0.0220308,0.00941447,-2.63288,0.0,0.0,0.0,0.0,0.0,0.0,-0.00113612,-0.00314777,-0.447684
95316000,0.0234137,0.022204,-61.5856,0.00766141,0.0,-0.0233324,0.00799609,-2.54248,0.0,0.0,0.0,0.0,0.0,0.0,-0.000832746,-0.00334301,-0.445512
95412000,0.0233828,0.022204,-61.8272,0.00766141,0.0,-0.0243826,0.00671403,-2.47992,0.0,0.0,0.0,0.0,0.0,0.0,-0.00127588,-0.00331375,-0.453476
95508000,0.0233502,0.0222039,-62.0618,0.00766141,0.0,-0.0254824,0.00517975,-2.38296,0.0,0.0,0.0,0.0,0.0,0.0,-0.000489097,-0.00361638,-0.449213
95604000,0.0233217,0.0222039,-62.2897,0.00766141,0.0,-0.0259328,0.00392031,-2.32292,0.0,0.0,0.0,0.0,0.0,0.0,-0.0010929,-0.0037173,-0.454437
95696000,0.0233172,0.0222039,-62.5016,0.00766141,0.0,-0.0272433,0.0026248,-2.24062,0.0,0.0,0.0,0.0,0.0,0.0,-0.00103898,-0.00306727,-0.450895
95788000,0.0233147,0.0222039,-62.7073,0.00766141,0.0,-0.0288277,0.00159849,-2.16225,0.0,0.0,0.0,0.0,0.0,0.0,-0.00166049,-0.00311477,-0.449772
95884000,0.0233143,0.0222038,-62.9165,0.00766141,0.0,-0.0303416,0.000561848,-2.1097,0.0,0.0,0.0,0.0,0.0,0.0,-0.00200258,-0.00290437,-0.457758
95976000,0.0233162,0.0222038,-63.1141,0.00766141,0.0,-0.0320171,-0.000290585,-2.04066,0.0,0.0,0.0,0.0,0.0,0.0,-0.00244981,-0.00182203,-0.458735
96068000,0.0233202,0.0222038,-63.306,0.00766141,0.0,-0.033677,-0.000589032,-1.97555,0.0,0.0,0.0,0.0,0.0,0.0,-0.0020847,-0.00167867,-0.457838
96164000,0.0233266,0.0222038,-63.5005,0.00766141,0.0,-0.0350107,-0.000908109,-1.93237,0.0,0.0,0.0,0.0,0.0,0.0,-0.00181338,-0.00183265,-0.464346
96256000,0.023335,0.0222037,-63.6815,0.00766141,0.0,-0.0357753,-0.00123279,-1.87135,0.0,0.0,0.0,0.0,0.0,0.0,-0.00117941,-0.00168375,-0.4626
96348000,0.0233455,0.0222037,-63.8574,0.00766141,0.0,-0.0362418,-0.00154226,-1.81141,0.0,0.0,0.0,0.0,0.0,0.0,-0.000538391,-0.00128374,-0.460193
96444000,0.0233588,0.0222037,-64.0356,0.00766141,0.0,-0.0362985,-0.00182287,-1.77301,0.0,0.0,0.0,0.0,0.0,0.0,-0.000678632,-0.00190289,-0.466314
96536000,0.0233555,0.0222037,-64.1992,0.00766141,0.0,-0.0366007,-0.002388,-1.71565,0.0,0.0,0.0,0.0,0.0,0.0,-0.000768236,-0.00195275,-0.463416
96628000,0.0233387,0.0222036,-64.3568,0.00766141,0.0,-0.0365804,-0.00334817,-1.66058,0.0,0.0,0.0,0.0,0.0,0.0,-0.000973023,-0.00220553,-0.463031
96724000,0.0233181,0.0222036,-64.5166,0.00766141,0.0,-0.0366831,-0.00442924,-1.62379,0.0,0.0,0.0,0.0,0.0,0.0,-0.00112813,-0.00231892,-0.468372
96816000,0.0232954,0.0222036,-64.6654,0.00766141,0.0,-0.0368942,-0.00541696,-1.573,0.0,0.0,0.0,0.0,0.0,0.0,-0.000606043,-0.00205888,-0.468156
96908000,0.0232698,0.0222036,-64.8101,0.00766141,0.0,-0.0372962,-0.00628062,-1.52245,0.0,0.0,0.0,0.0,0.0,0.0,-0.000496813,-0.00215726,-0.464866
97004000,0.023246,0.0222035,-64.9567,0.00766141,0.0,-0.0374002,-0.00699782,-1.48901,0.0,0.0,0.0,0.0,0.0,0.0,-0.000327435,-0.00202998,-0.470025
97096000,0.0232455,0.0222035,-65.094,0.00766141,0.0,-0.0375987,-0.00776341,-1.44255,0.0,0.0,0.0,0.0,0.0,0.0,-0.000362011,-0.00187244,-0.470079
97188000,0.023248,0.0222035,-65.23,0.00766141,0.0,-0.0373109,-0.00824729,-1.40073,0.0,0.0,0.0,0.0,0.0,0.0,-0.000429323,-0.00162504,-0.469278
97284000,0.0232538,0.0222035,-65.3679,0.00766141,0.0,-0.0369735,-0.00826915,-1.3719,0.0,0.0,0.0,0.0,0.0,0.0,5.64881e-06,-0.000900525,-0.472505
97376000,0.0232626,0.0222034,-65.4962,0.00766141,0.0,-0.0364271,-0.00795492,-1.33001,0.0,0.0,0.0,0.0,0.0,0.0,0.000685884,-0.00100306,-0.471518
97468000,0.0232744,0.0222034,-65.6208,0.00766141,0.0,-0.0357239,-0.00836859,-1.28806,0.0,0.0,0.0,0.0,0.0,0.0,0.000759071,-0.00123902,-0.469759
97564000,0.0232836,0.0222034,-65.747,0.00766141,0.0,-0.0349875,-0.00908056,-1.26363,0.0,0.0,0.0,0.0,0.0,0.0,0.00072605,-0.00134607,-0.476623
97656000,0.0232707,0.0222034,-65.8618,0.00766141,0.0,-0.0336095,-0.0101739,-1.22439,0.0,0.0,0.0,0.0,0.0,0.0,0.000912125,-0.00181176,-0.473626
97748000,0.0232577,0.0222034,-65.9736,0.00766141,0.0,-0.0325541,-0.0112696,-1.18888,0.0,0.0,0.0,0.0,0.0,0.0,0.000361516,-0.00145854,-0.473058
97844000,0.0232442,0.0222033,-66.087,0.00766141,0.0,-0.0315896,-0.0124531,-1.16308,0.0,0.0,0.0,0.0,0.0,0.0,0.00122202,-0.00208703,-0.474795
97936000,0.0232313,0.0222033,-66.1927,0.00766141,0.0,-0.0304311,-0.0137881,-1.12549,0.0,0.0,0.0,0.0,0.0,0.0,0.00126032,-0.00203317,-0.473419
98028000,0.0232183,0.0222033,-66.2955,0.00766141,0.0,-0.029072,-0.0150646,-1.09205,0.0,0.0,0.0,0.0,0.0,0.0,0.000893317,-0.00277952,-0.47376
98124000,0.0232048,0.0222032,-66.3998,0.00766141,0.0,-0.0275845,-0.0163319,-1.06874,0.0,0.0,0.0,0.0,0.0,0.0,0.00164123,-0.00258129,-0.476953
98216000,0.0231919,0.0222032,-66.4971,0.00766141,0.0,-0.0258595,-0.0176031,-1.03646,0.0,0.0,0.0,0.0,0.0,0.0,0.0011612,-0.00284774,-0.475361
98308000,0.0231789,0.0222032,-66.5918,0.00766141,0.0,-0.0243029,-0.0186227,-1.00353,0.0,0.0,0.0,0.0,0.0,0.0,0.0015297,-0.00215493,-0.474111
98404000,0.0231654,0.0222032,-66.6878,0.00766141,0.0,-0.0229019,-0.0192657,-0.981297,0.0,0.0,0.0,0.0,0.0,0.0,0.000868301,-0.00223269,-0.477073
98496000,0.0231524,0.0222032,-66.7772,0.00766141,0.0,-0.0215248,-0.0198814,-0.952198,0.0,0.0,0.0,0.0,0.0,0.0,0.00135493,-0.00243149,-0.47763
98588000,0.0231394,0.0222031,-66.8643,0.00766141,0.0,-0.0200149,-0.0201629,-0.923147,0.0,0.0,0.0,0.0,0.0,0.0,0.00160362,-0.00252079,-0.476578
98684000,0.0231259,0.0222031,-66.9526,0.00766141,0.0,-0.0187023,-0.0201968,-0.904025,0.0,0.0,0.0,0.0,0.0,0.0,0.00167319,-0.00225883,-0.479642
98776000,0.0231129,0.0222031,-67.0348,0.00766141,0.0,-0.0175991,-0.0204423,-0.8762,0.0,0.0,0.0,0.0,0.0,0.0,0.00152991,-0.00174815,-0.477884
98868000,0.0230999,0.0222031,-67.115,0.00766141,0.0,-0.016348,-0.0206931,-0.848495,0.0,0.0,0.0,0.0,0.0,0.0,0.00104777,-0.0017887,-0.475478
98964000,0.0230863,0.022203,-67.1962,0.00766141,0.0,-0.0154211,-0.0208436,-0.831736,0.0,0.0,0.0,0.0,0.0,0.0,0.000959611,-0.00150373,-0.478689
99056000,0.0230733,0.022203,-67.2719,0.00766141,0.0,-0.0145656,-0.0209051,-0.804814,0.0,0.0,0.0,0.0,0.0,0.0,0.000939657,-0.00162759,-0.477837
99148000,0.0230603,0.022203,-67.3455,0.00766141,0.0,-0.0139013,-0.0208132,-0.779328,0.0,0.0,0.0,0.0,0.0,0.0,0.00111724,-0.00132394,-0.478065
99244000,0.0230468,0.022203,-67.4203,0.00766141,0.0,-0.0133347,-0.020771,-0.764558,0.0,0.0,0.0,0.0,0.0,0.0,0.000732301,-0.00204101,-0.480958
99336000,0.0230337,0.0222029,-67.4898,0.00766141,0.0,-0.0129165,-0.020785,-0.742171,0.0,0.0,0.0,0.0,0.0,0.0,0.000467177,-0.00199603,-0.481534
99428000,0.0230207,0.0222029,-67.5576,0.00766141,0.0,-0.0126439,-0.0210043,-0.719518,0.0,0.0,0.0,0.0,0.0,0.0,0.000922539,-0.00187255,-0.480522
99524000,0.0230071,0.0222029,-67.6263,0.00766141,0.0,-0.0121426,-0.0212925,-0.704678,0.0,0.0,0.0,0.0,0.0,0.0,0.00138251,-0.00219925,-0.482097
99616000,0.0229941,0.0222029,-67.6902,0.00766141,0.0,-0.0114443,-0.0214658,-0.685976,0.0,0.0,0.0,0.0,0.0,0.0,0.00116366,-0.00197885,-0.482778
99708000,0.0229811,0.0222028,-67.7525,0.00766141,0.0,-0.0104329,-0.0215291,-0.664544,0.0,0.0,0.0,0.0,0.0,0.0,0.00192797,-0.00246327,-0.479965
99804000,0.0229675,0.0222028,-67.8156,0.00766141,0.0,-0.00914733,-0.0214744,-0.651382,0.0,0.0,0.0,0.0,0.0,0.0,0.00124585,-0.002106,-0.482786
99896000,0.0229545,0.0222028,-67.8745,0.00766141,0.0,-0.00792879,-0.0211996,-0.630501,0.0,0.0,0.0,0.0,0.0,0.0,0.000523818,-0.00140605,-0.481803
99988000,0.0229415,0.0222028,-67.9317,0.00766141,0.0,-0.00711423,-0.0206759,-0.614177,0.0,0.0,0.0,0.0,0.0,0.0,0.00106269,-0.00073277,-0.482913
100084000,0.0229279,0.0222027,-67.9897,0.00766141,0.0,-0.00664577,-0.0200597,-0.603263,0.0,0.0,0.0,0.0,0.0,0.0,0.00133635,-0.00139247,-0.484253
100176000,0.0229148,0.0222027,-68.0439,0.00766141,0.0,-0.00614499,-0.0196968,-0.587237,0.0,0.0,0.0,0.0,0.0,0.0,0.000965848,-0.00179562,-0.483383
100268000,0.0229018,0.0222027,-68.0966,0.00766141,0.0,-0.00586107,-0.0192229,-0.57054,0.0,0.0,0.0,0.0,0.0,0.0,0.000191665,-0.00178293,-0.48312
100364000,0.0228882,0.0222027,-68.15,0.00766141,0.0,-0.00577786,-0.0189205,-0.560061,0.0,0.0,0.0,0.0,0.0,0.0,0.000737131,-0.00170051,-0.484261
100456000,0.0228751,0.0222026,-68.1999,0.00766141,0.0,-0.00564465,-0.0189254,-0.54416,0.0,0.0,0.0,0.0,0.0,0.0,0.000342286,-0.00115141,-0.482888
100548000,0.0228621,0.0222026,-68.2484,0.00766141,0.0,-0.00562277,-0.0189861,-0.527047,0.0,0.0,0.0,0.0,0.0,0.0,0.000305597,-0.00147588,-0.4805
100644000,0.0228484,0.0222026,-68.2976,0.00766141,0.0,-0.00565937,-0.0188093,-0.514779,0.0,0.0,0.0,0.0,0.0,0.0,0.000136694,-0.00165048,-0.482586
100736000,0.0228528,0.0222026,-68.3437,0.00766141,0.0,-0.00535188,-0.0184213,-0.498587,0.0,0.0,0.0,0.0,0.0,0.0,0.000818579,-0.00169653,-0.482633
100828000,0.0228685,0.0222025,-68.3887,0.00766141,0.0,-0.00525672,-0.0178057,-0.480901,0.0,0.0,0.0,0.0,0.0,0.0,0.00112187,-0.00110007,-0.480762
100924000,0.0228849,0.0222025,-68.4344,0.00766141,0.0,-0.00507264,-0.0172721,-0.47331,0.0,0.0,0.0,0.0,0.0,0.0,0.000848219,-0.00115888,-0.484813
101016000,0.0229006,0.0222025,-68.477,0.00766141,0.0,-0.00484803,-0.0169411,-0.459393,0.0,0.0,0.0,0.0,0.0,0.0,0.000989675,-0.00112764,-0.484071
101108000,0.0229163,0.0222025,-68.5184,0.00766141,0.0,-0.00458819,-0.0166803,-0.446185,0.0,0.0,0.0,0.0,0.0,0.0,0.000724074,-0.00115787,-0.483747
101204000,0.0229327,0.0222024,-68.5604,0.00766141,0.0,-0.00436805,-0.0163306,-0.437983,0.0,0.0,0.0,0.0,0.0,0.0,0.000787232,-0.000953487,-0.486146
101296000,0.0229483,0.0222024,-68.5994,0.00766141,0.0,-0.00421806,-0.0159085,-0.424554,0.0,0.0,0.0,0.0,0.0,0.0,0.000552543,-0.00089748,-0.484933
101388000,0.022964,0.0222024,-68.6373,0.00766141,0.0,-0.00436599,-0.0153099,-0.41289,0.0,0.0,0.0,0.0,0.0,0.0,0.000479549,-0.00141451,-0.484703
101484000,0.0229804,0.0222024,-68.6758,0.00766141,0.0,-0.00464346,-0.0149969,-0.403425,0.0,0.0,0.0,0.0,0.0,0.0,0.000351737,-0.00148837,-0.484306
101576000,0.0229961,0.0222023,-68.7116,0.00766141,0.0,-0.00488474,-0.0146549,-0.389635,0.0,0.0,0.0,0.0,0.0,0.0,0.000292401,-0.00126166,-0.483854
101668000,0.0230118,0.0222023,-68.7464,0.00766141,0.0,-0.00508774,-0.0145595,-0.379423,0.0,0.0,0.0,0.0,0.0,0.0,0.000253808,-0.00135696,-0.485792
101764000,0.0230282,0.0222023,-68.7817,0.00766141,0.0,-0.00521723,-0.0148292,-0.371026,0.0,0.0,0.0,0.0,0.0,0.0,0.000316288,-0.00181366,-0.485659
101856000,0.0230438,0.0222023,-68.8145,0.00766141,0.0,-0.00501124,-0.0150522,-0.36028,0.0,0.0,0.0,0.0,0.0,0.0,0.000850254,-0.0016201,-0.485169
101948000,0.0230595,0.0222022,-68.8464,0.00766141,0.0,-0.00474694,-0.0151921,-0.34874,0.0,0.0,0.0,0.0,0.0,0.0,0.000123742,-0.00198289,-0.484246
102044000,0.0230759,0.0222022,-68.8788,0.00766141,0.0,-0.00446868,-0.0154056,-0.341154,0.0,0.0,0.0,0.0,0.0,0.0,0.000520872,-0.00186289,-0.485358
102136000,0.0230916,0.0222022,-68.909,0.00766141,0.0,-0.00402279,-0.0153987,-0.328304,0.0,0.0,0.0,0.0,0.0,0.0,0.00129389,-0.00153127,-0.483879
102228000,0.0231073,0.0222022,-68.9383,0.00766141,0.0,-0.00338179,-0.0154928,-0.319167,0.0,0.0,0.0,0.0,0.0,0.0,0.00121858,-0.00182595,-0.484685
102324000,0.0231237,0.0222021,-68.9681,0.00766141,0.0,-0.00262815,-0.0159303,-0.31126,0.0,0.0,0.0,0.0,0.0,0.0,0.00163436,-0.00192881,-0.485636
102416000,0.0231393,0.0222021,-68.9958,0.00766141,0.0,-0.00167406,-0.0164143,-0.3025,0.0,0.0,0.0,0.0,0.0,0.0,0.00182574,-0.00261155,-0.486276
102508000,0.023155,0.0222021,-69.0227,0.00766141,0.0,-0.00054671,-0.016941,-0.294831,0.0,0.0,0.0,0.0,0.0,0.0,0.00184024,-0.00290459,-0.48704
102604000,0.0231713,0.0222021,-69.0499,0.00766141,0.0,0.000390531,-0.0174383,-0.290565,0.0,0.0,0.0,0.0,0.0,0.0,0.00162967,-0.00282421,-0.487125
102696000,0.0231868,0.022202,-69.0751,0.00766141,0.0,0.00107595,-0.0178751,-0.284123,0.0,0.0,0.0,0.0,0.0,0.0,0.00144075,-0.00188137,-0.487551
102788000,0.0232024,0.022202,-69.0996,0.00766141,0.0,0.00148999,-0.018036,-0.274225,0.0,0.0,0.0,0.0,0.0,0.0,0.00144907,-0.00180731,-0.486009
102884000,0.0232185,0.022202,-69.1244,0.00766141,0.0,0.00205586,-0.0182186,-0.269188,0.0,0.0,0.0,0.0,0.0,0.0,0.00139323,-0.00259837,-0.487716
102976000,0.0232165,0.022202,-69.1476,0.00766141,0.0,0.00263276,-0.0186408,-0.260082,0.0,0.0,0.0,0.0,0.0,0.0,0.00130622,-0.002274,-0.486631
103068000,0.0232019,0.0222019,-69.1704,0.00766141,0.0,0.00341743,-0.0192814,-0.254327,0.0,0.0,0.0,0.0,0.0,0.0,0.00197945,-0.00261182,-0.487647
103164000,0.0231849,0.0222019,-69.1935,0.0080451,0.0,0.00382626,-0.0198998,-0.250079,0.0,0.0,0.0,0.0,0.0,0.0,0.00127028,-0.00293935,-0.488853
103256000,0.0231671,0.0222019,-69.215,0.0080451,0.0,0.00411701,-0.02044,-0.243211,0.0,0.0,0.0,0.0,0.0,0.0,0.000993386,-0.00209319,-0.487843
103348000,0.0231477,0.0222019,-69.2358,0.0080451,0.0,0.00447936,-0.021001,-0.235709,0.0,0.0,0.0,0.0,0.0,0.0,0.000945783,-0.0025164,-0.487028
103444000,0.0231258,0.0222018,-69.2571,0.0080451,0.0,0.00489714,-0.0212544,-0.231735,0.0,0.0,0.0,0.0,0.0,0.0,0.00104795,-0.00216435,-0.488507
103536000,0.0231032,0.0222018,-69.2768,0.0080451,0.0,0.0053251,-0.0212506,-0.22476,0.0,0.0,0.0,0.0,0.0,0.0,0.000827039,-0.00258431,-0.487259
103628000,0.0230791,0.0222018,-69.296,0.0080451,0.0,0.00542732,-0.0212135,-0.21938,0.0,0.0,0.0,0.0,0.0,0.0,0.00072789,-0.00215663,-0.487961
103724000,0.0230769,0.0222018,-69.3153,0.0080451,0.0,0.00577304,-0.0211258,-0.212469,0.0,0.0,0.0,0.0,0.0,0.0,-0.000214232,-0.00178981,-0.48641
103816000,0.0230808,0.0222017,-69.3332,0.0080451,0.0,0.00579115,-0.0209654,-0.206609,0.0,0.0,0.0,0.0,0.0,0.0,0.000274952,-0.0024022,-0.487284
103908000,0.0230848,0.0222017,-69.3506,0.0080451,0.0,0.00579425,-0.0210206,-0.199961,0.0,0.0,0.0,0.0,0.0,0.0,0.000828018,-0.00318895,-0.487174
104004000,0.0230889,0.0222017,-69.3682,0.0080451,0.0,0.00569688,-0.0212241,-0.192888,0.0,0.0,0.0,0.0,0.0,0.0,0.00031765,-0.00398657,-0.486325
104100000,0.023093,0.0222017,-69.3854,0.0080451,0.0,0.00557,-0.021527,-0.188467,0.0,0.0,0.0,0.0,0.0,0.0,0.00056429,-0.00355437,-0.48736
104192000,0.0230969,0.0222016,-69.4013,0.0080451,0.0,0.00552256,-0.0219177,-0.183093,0.0,0.0,0.0,0.0,0.0,0.0,0.000595463,-0.00355172,-0.487608
104284000,0.0231009,0.0222016,-69.4168,0.0080451,0.0,0.00572262,-0.0222632,-0.178238,0.0,0.0,0.0,0.0,0.0,0.0,0.000178677,-0.00333555,-0.488014
104380000,0.023105,0.0222016,-69.4325,0.0080451,0.0,0.00606297,-0.022201,-0.174511,0.0,0.0,0.0,0.0,0.0,0.0,0.000933927,-0.00249535,-0.489455
104472000,0.0231089,0.0222016,-69.4472,0.0080451,0.0,0.00656533,-0.0221948,-0.169624,0.0,0.0,0.0,0.0,0.0,0.0,0.000969795,-0.00213341,-0.487828
104564000,0.0231129,0.0222015,-69.4615,0.0080451,0.0,0.00719461,-0.0225472,-0.164826,0.0,0.0,0.0,0.0,0.0,0.0,0.00115765,-0.00234544,-0.488227
104660000,0.023117,0.0222015,-69.4759,0.0080451,0.0,0.00765881,-0.023,-0.160624,0.0,0.0,0.0,0.0,0.0,0.0,0.0011297,-0.0019818,-0.48839
104752000,0.0231209,0.0222015,-69.4893,0.0080451,0.0,0.00809822,-0.0233612,-0.155465,0.0,0.0,0.0,0.0,0.0,0.0,0.000918449,-0.00226468,-0.487764
104844000,0.0231248,0.0222015,-69.5024,0.0080451,0.0,0.00868611,-0.0234712,-0.150534,0.0,0.0,0.0,0.0,0.0,0.0,0.00123715,-0.00229521,-0.488051
104940000,0.0231289,0.0222014,-69.5156,0.0080451,0.0,0.00959853,-0.0233555,-0.148223,0.0,0.0,0.0,0.0,0.0,0.0,0.00179433,-0.00182786,-0.48895
105032000,0.0231329,0.0222014,-69.5279,0.0080451,0.0,0.0106958,-0.0229036,-0.141795,0.0,0.0,0.0,0.0,0.0,0.0,0.00209159,-0.00167645,-0.488
105124000,0.0231368,0.0222014,-69.54,0.0080451,0.0,0.0119123,-0.0223781,-0.13689,0.0,0.0,0.0,0.0,0.0,0.0,0.00193113,-0.00255451,-0.487667
105220000,0.0231409,0.0222014,-69.5522,0.0080451,0.0,0.0129728,-0.0219525,-0.131595,0.0,0.0,0.0,0.0,0.0,0.0,0.0017129,-0.0025258,-0.487824
105312000,0.0231448,0.0222013,-69.5636,0.0080451,0.0,0.0143333,-0.0213949,-0.128336,0.0,0.0,0.0,0.0,0.0,0.0,0.00202635,-0.00227138,-0.488031
105404000,0.0231488,0.0222013,-69.5746,0.0080451,0.0,0.0159444,-0.0206078,-0.122408,0.0,0.0,0.0,0.0,0.0,0.0,0.00226869,-0.00191401,-0.486502
105500000,0.0231529,0.0222013,-69.5859,0.0080451,0.0,0.0172076,-0.0196936,-0.119331,0.0,0.0,0.0,0.0,0.0,0.0,0.00153348,-0.00132272,-0.488512
105592000,0.0231568,0.0222013,-69.5963,0.0080451,0.0,0.0184202,-0.0186838,-0.115207,0.0,0.0,0.0,0.0,0.0,0.0,0.00178268,-0.00126913,-0.488202
105684000,0.0231607,0.0222012,-69.6065,0.0080451,0.0,0.0197339,-0.0175897,-0.110221,0.0,0.0,0.0,0.0,0.0,0.0,0.0020452,-0.000761467,-0.487511
105780000,0.0231648,0.0222012,-69.6168,0.0080451,0.0,0.0210453,-0.0167421,-0.107301,0.0,0.0,0.0,0.0,0.0,0.0,0.00191144,-0.00107128,-0.487765
105872000,0.0231688,0.0222012,-69.6264,0.0080451,0.0,0.0224209,-0.0159765,-0.101381,0.0,0.0,0.0,0.0,0.0,0.0,0.00187022,-0.0013035,-0.486882
105964000,0.0231727,0.0222012,-69.6358,0.0080451,0.0,0.0234401,-0.0151562,-0.0988009,0.0,0.0,0.0,0.0,0.0,0.0,0.00201455,-0.00116202,-0.489277
106060000,0.0231768,0.0222011,-69.6453,0.0080451,0.0,0.0243036,-0.0142188,-0.0966533,0.0,0.0,0.0,0.0,0.0,0.0,0.00177653,-0.00121176,-0.488222
106152000,0.0231807,0.0222011,-69.6542,0.0080451,0.0,0.0251919,-0.0130678,-0.0928942,0.0,0.0,0.0,0.0,0.0,0.0,0.00214177,-0.000644683,-0.488227
106244000,0.0231846,0.0222011,-69.6628,0.0080451,0.0,0.0261373,-0.011487,-0.0899713,0.0,0.0,0.0,0.0,0.0,0.0,0.002028,-0.000573566,-0.489215
106340000,0.0231887,0.0222011,-69.6715,0.0080451,0.0,0.0271559,-0.00983416,-0.0885363,0.0,0.0,0.0,0.0,0.0,0.0,0.0017885,-0.000826618,-0.489183
106432000,0.0231926,0.022201,-69.6796,0.0080451,0.0,0.028291,-0.00799473,-0.0866519,0.0,0.0,0.0,0.0,0.0,0.0,0.00209381,-0.000659238,-0.49097
106524000,0.0231966,0.022201,-69.6875,0.0080451,0.0,0.0297332,-0.00616765,-0.0850352,0.0,0.0,0.0,0.0,0.0,0.0,0.00204543,-0.000265207,-0.490173
106620000,0.0232007,0.022201,-69.6955,0.0080451,0.0,0.0313665,-0.00452282,-0.0828432,0.0,0.0,0.0,0.0,0.0,0.0,0.00251156,-0.000456728,-0.488653
106712000,0.0232046,0.022201,-69.7029,0.0080451,0.0,0.0335583,-0.00286784,-0.0807095,0.0,0.0,0.0,0.0,0.0,0.0,0.00243027,-0.000243097,-0.488809
106804000,0.0232085,0.0222009,-69.7101,0.0080451,0.0,0.035999,-0.00158453,-0.0789962,0.0,0.0,0.0,0.0,0.0,0.0,0.00394659,-0.000599077,-0.489658
106900000,0.0232125,0.0222009,-69.7174,0.0080451,0.0,0.0384719,-0.000772064,-0.0771674,0.0,0.0,0.0,0.0,0.0,0.0,0.00414633,-0.000831163,-0.489631
106992000,0.0232164,0.0222009,-69.7242,0.0080451,0.0,0.0408709,-0.000332466,-0.0752891,0.0,0.0,0.0,0.0,0.0,0.0,0.00357615,-0.0015927,-0.489576
107084000,0.0232203,0.0222009,-69.7308,0.0080451,0.0,0.0430041,-0.000213969,-0.0756522,0.0,0.0,0.0,0.0,0.0,0.0,0.00375813,-0.00190284,-0.490057
107180000,0.0232244,0.0222008,-69.7376,0.0080451,0.0,0.044767,-0.00010597,-0.0745983,0.0,0.0,0.0,0.0,0.0,0.0,0.00253645,-0.00214439,-0.490337
107272000,0.0232283,0.0222008,-69.7438,0.0080451,0.0,0.0463876,0.000248102,-0.0719464,0.0,0.0,0.0,0.0,0.0,0.0,0.00220163,-0.00193859,-0.489537
107364000,0.0232321,0.0222008,-69.7499,0.0080451,0.0,0.048004,0.000647708,-0.0712148,0.0,0.0,0.0,0.0,0.0,0.0,0.00216248,-0.0017647,-0.490304
107460000,0.0232362,0.0222008,-69.7561,0.0080451,0.0,0.0492273,0.000851662,-0.0680024,0.0,0.0,0.0,0.0,0.0,0.0,0.00331242,-0.0018671,-0.488459
107552000,0.0232401,0.0222007,-69.7618,0.0080451,0.0,0.0506155,0.00119721,-0.0638906,0.0,0.0,0.0,0.0,0.0,0.0,0.00380484,-0.00161773,-0.487777
107644000,0.0232439,0.0222007,-69.7674,0.0080451,0.0,0.0518662,0.00182776,-0.0625958,0.0,0.0,0.0,0.0,0.0,0.0,0.00359414,-0.00147403,-0.489967
107740000,0.023248,0.0222007,-69.773,0.0080451,0.0,0.0529513,0.00274593,-0.0597562,0.0,0.0,0.0,0.0,0.0,0.0,0.00329382,-0.00120278,-0.489868
107832000,0.0232518,0.0222007,-69.7782,0.0080451,0.0,0.0537972,0.00381304,-0.0597516,0.0,0.0,0.0,0.0,0.0,0.0,0.00279447,-0.000690212,-0.490549
107924000,0.0232557,0.0222006,-69.7834,0.0080451,0.0,0.0544586,0.00491611,-0.0573382,0.0,0.0,0.0,0.0,0.0,0.0,0.0025634,5.5877e-06,-0.489406
108020000,0.0232597,0.0222006,-69.7886,0.0080451,0.0,0.054782,0.00588626,-0.0578504,0.0,0.0,0.0,0.0,0.0,0.0,0.00238189,-0.000674963,-0.489473
108112000,0.0232636,0.0222006,-69.7935,0.0080451,0.0,0.0551312,0.00693631,-0.0552732,0.0,0.0,0.0,0.0,0.0,0.0,0.00246073,5.1764e-05,-0.48942
108204000,0.0232674,0.0222006,-69.7982,0.0080451,0.0,0.0553678,0.0080134,-0.0557134,0.0,0.0,0.0,0.0,0.0,0.0,0.00232848,-0.000300967,-0.491001
108300000,0.0232714,0.0222005,-69.8031,0.0080451,0.0,0.0555123,0.00876262,-0.0537368,0.0,0.0,0.0,0.0,0.0,0.0,0.00248925,-0.000387135,-0.488941
108392000,0.0232753,0.0222005,-69.8075,0.0080451,0.0,0.0557476,0.00959991,-0.0528729,0.0,0.0,0.0,0.0,0.0,0.0,0.00227604,-0.000773024,-0.490126
108484000,0.0232791,0.0222005,-69.8119,0.0080451,0.0,0.0562031,0.0106685,-0.0517268,0.0,0.0,0.0,0.0,0.0,0.0,0.00192417,0.000174354,-0.489466
108580000,0.0232832,0.0222005,-69.8163,0.0080451,0.0,0.0564527,0.0115374,-0.0484597,0.0,0.0,0.0,0.0,0.0,0.0,0.00249031,7.4935e-05,-0.487825
108672000,0.023287,0.0222004,-69.8204,0.0080451,0.0,0.056872,0.012219,-0.0473277,0.0,0.0,0.0,0.0,0.0,0.0,0.00243743,-0.000266164,-0.489627
108764000,0.0232909,0.0222004,-69.8244,0.0080451,0.0,0.0576112,0.0127231,-0.043528,0.0,0.0,0.0,0.0,0.0,0.0,0.00255332,-0.00106472,-0.487987
108860000,0.0232949,0.0222004,-69.8284,0.0080451,0.0,0.0580685,0.0130491,-0.0434132,0.0,0.0,0.0,0.0,0.0,0.0,0.0023353,-0.000702501,-0.4897
108952000,0.0232987,0.0222004,-69.8322,0.0080451,0.0,0.0582824,0.0130955,-0.0433319,0.0,0.0,0.0,0.0,0.0,0.0,0.00221738,-0.00082416,-0.489511
109044000,0.0233026,0.0222003,-69.8359,0.0080451,0.0,0.0581199,0.0128895,-0.0436855,0.0,0.0,0.0,0.0,0.0,0.0,0.00169274,-0.00102595,-0.489773
109140000,0.0233066,0.0222003,-69.8396,0.0080451,0.0,0.057618,0.0125254,-0.0422861,0.0,0.0,0.0,0.0,0.0,0.0,0.00146454,-0.000926909,-0.490028
109232000,0.0233104,0.0222003,-69.8431,0.0080451,0.0,0.0567385,0.011989,-0.0433766,0.0,0.0,0.0,0.0,0.0,0.0,0.00129259,-0.00167848,-0.490871
109324000,-0.0468889,0.00755509,-39.8395,0.0,0.0,-0.000440577,-0.000319482,1.0,0.0,0.0,0.0,0.0,0.0,0.0,-0.00990797,-0.00335108,-0.12
109420000,-0.0468889,0.00755509,-39.8395,0.0,0.0,-0.00121477,-0.000944292,1.0,0.0,0.0,0.0,0.0,0.0,0.0,-0.00800393,-0.00421859,-0.229408
109512000,-0.0468889,0.00755509,-39.8395,0.0,0.0,-0.00104487,-0.00150065,1.0,0.0,0.0,0.0,0.0,0.0,0.0,-0.000324027,-0.0018322,-0.47237
109604000,-0.0468889,0.00755509,-39.8395,0.0,0.0,0.00103356,-0.00110858,1.0,0.0,0.0,0.0,0.0,0.0,0.0,0.0060355,0.00105024,-0.491136
109700000,-0.0468889,0.00755509,-39.8395,0.0,0.0,0.0038442,-0.000105858,1.0,0.0,0.0,0.0,0.0,0.0,0.0,0.00567594,0.00106629,-0.487758
109792000,-0.0468889,0.00755509,-39.8395,0.0,0.0,0.00689981,0.00117569,1.0,0.0,0.0,0.0,0.0,0.0,0.0,0.00475992,0.000513825,-0.486637
109884000,-0.0468889,0.00755509,-39.8395,0.0,0.0,0.0090702,0.0022937,1.0,0.0,0.0,0.0,0.0,0.0,0.0,0.00356508,0.000165301,-0.487823
109980000,-0.0468889,0.00755509,-39.8395,0.0,0.0,0.0103226,0.00310964,1.0,0.0,0.0,0.0,0.0,0.0,0.0,0.00289093,1.46413e-05,-0.487979
110076000,-0.0468889,0.00755509,-39.8395,0.0,0.0,0.0115222,0.00368922,1.0,0.0,0.0,0.0,0.0,0.0,0.0,0.0026053,-0.000385796,-0.488003
110168000,-0.0468889,0.00755509,-39.8395,0.0,0.0,0.0125339,0.00395938,1.0,0.0,0.0,0.0,0.0,0.0,0.0,0.00216479,-0.000646039,-0.489189
110260000,-0.0468889,0.00755509,-39.8395,0.0,0.0,0.0135798,0.00409687,1.0,0.0,0.0,0.0,0.0,0.0,0.0,0.00196456,-0.00140798,-0.489169
110356000,-0.0468889,0.00755509,-39.8395,0.0,0.0,0.0147272,0.00423624,1.0,0.0,0.0,0.0,0.0,0.0,0.0,0.00231456,-0.00123406,-0.490159
110448000,-0.0468889,0.00755509,-39.8395,0.0,0.0,0.0160403,0.00434742,1.0,0.0,0.0,0.0,0.0,0.0,0.0,0.00191044,-0.000589471,-0.490351
110540000,-0.0468889,0.00755509,-39.8395,0.0,0.0,0.0173182,0.00443813,1.0,0.0,0.0,0.0,0.0,0.0,0.0,0.00249881,-0.0010309,-0.489241
110636000,-0.0468889,0.00755509,-39.8395,0.0,0.0,0.0183649,0.00446283,1.0,0.0,0.0,0.0,0.0,0.0,0.0,0.00159927,-0.000976544,-0.490147
110728000,-0.0468889,0.00755509,-39.8395,0.0,0.0,0.019143,0.00446268,1.0,0.0,0.0,0.0,0.0,0.0,0.0,0.00144942,-0.0019333,-0.490317
110820000,-0.0468889,0.00755509,-39.8395,0.0,0.0,0.0195406,0.00424456,1.0,0.0,0.0,0.0,0.0,0.0,0.0,0.00129097,-0.00150523,-0.489899
110916000,-0.0468889,0.00755509,-39.8395,0.0,0.0,0.0198363,0.00404575,1.0,0.0,0.0,0.0,0.0,0.0,0.0,0.00156743,-0.00129874,-0.490436
111008000,-0.0468889,0.00755509,-39.8395,0.0,0.0,0.0201169,0.0038494,1.0,0.0,0.0,0.0,0.0,0.0,0.0,0.00146823,-0.00139022,-0.489349
111100000,-0.0468889,0.00755509,-39.8395,0.0,0.0,0.0201721,0.00361321,1.0,0.0,0.0,0.0,0.0,0.0,0.0,0.000575933,-0.00151848,-0.489683
111196000,-0.0468889,0.00755509,-39.8395,0.0,0.0,0.0198385,0.00330954,1.0,0.0,0.0,0.0,0.0,0.0,0.0,0.000676961,-0.00214108,-0.489945
111292000,-0.0468889,0.00755509,-39.8395,0.0,0.0,0.0194048,0.00292329,1.0,0.0,0.0,0.0,0.0,0.0,0.0,0.000738505,-0.00182523,-0.490084
111384000,-0.0468889,0.00755509,-39.8395,0.0,0.0,0.01898,0.00248201,1.0,0.0,0.0,0.0,0.0,0.0,0.0,0.000391821,-0.00193357,-0.490548
