timestamp,time_utc_usec,lat,lon,alt,alt_ellipsoid,s_variance_m_s,c_variance_rad,eph,epv,hdop,vdop,noise_per_ms,jamming_indicator,vel_m_s,vel_n_m_s,vel_e_m_s,vel_d_m_s,cog_rad,timestamp_time_relative,heading,heading_offset,fix_type,vel_ned_valid,satellites_used
0,0,0,0,0,0,0.25,0.0,655.35,655.35,0.0,0.0,0,0,0.0,0.0,0.0,0.0,0.0,0,nan,nan,0,0,0
4000,0,0,0,0,0,0.25,0.0,655.35,655.35,0.0,0.0,0,0,0.0,0.0,0.0,0.0,0.0,0,nan,nan,0,0,0
8000,0,0,0,0,0,0.25,0.0,655.35,655.35,0.0,0.0,0,0,0.0,0.0,0.0,0.0,0.0,0,nan,nan,0,0,0
12000,0,0,0,0,0,0.25,0.0,655.35,655.35,0.0,0.0,0,0,0.0,0.0,0.0,0.0,0.0,0,nan,nan,0,0,0
16000,0,0,0,0,0,0.25,0.0,655.35,655.35,0.0,0.0,0,0,0.0,0.0,0.0,0.0,0.0,0,nan,nan,0,0,0
20000,0,0,0,0,0,0.25,0.0,655.35,655.35,0.0,0.0,0,0,0.0,0.0,0.0,0.0,0.0,0,nan,nan,0,0,0
24000,0,0,0,0,0,0.25,0.0,655.35,655.35,0.0,0.0,0,0,0.0,0.0,0.0,0.0,0.0,0,nan,nan,0,0,0
28000,0,0,0,0,0,0.25,0.0,655.35,655.35,0.0,0.0,0,0,0.0,0.0,0.0,0.0,0.0,0,nan,nan,0,0,0
28000,0,0,0,0,0,0.25,0.0,655.35,655.35,0.0,0.0,0,0,0.0,0.0,0.0,0.0,0.0,0,nan,nan,0,0,0
32000,0,0,0,0,0,0.25,0.0,655.35,655.35,0.0,0.0,0,0,0.0,0.0,0.0,0.0,0.0,0,nan,nan,0,0,0
36000,0,0,0,0,0,0.25,0.0,655.35,655.35,0.0,0.0,0,0,0.0,0.0,0.0,0.0,0.0,0,nan,nan,0,0,0
40000,0,0,0,0,0,0.25,0.0,655.35,655.35,0.0,0.0,0,0,0.0,0.0,0.0,0.0,0.0,0,nan,nan,0,0,0
44000,0,0,0,0,0,0.25,0.0,655.35,655.35,0.0,0.0,0,0,0.0,0.0,0.0,0.0,0.0,0,nan,nan,0,0,0
48000,0,0,0,0,0,0.25,0.0,655.35,655.35,0.0,0.0,0,0,0.0,0.0,0.0,0.0,0.0,0,nan,nan,0,0,0
52000,0,0,0,0,0,0.25,0.0,655.35,655.35,0.0,0.0,0,0,0.0,0.0,0.0,0.0,0.0,0,nan,nan,0,0,0
56000,0,0,0,0,0,0.25,0.0,655.35,655.35,0.0,0.0,0,0,0.0,0.0,0.0,0.0,0.0,0,nan,nan,0,0,0
56000,0,0,0,0,0,0.25,0.0,655.35,655.35,0.0,0.0,0,0,0.0,0.0,0.0,0.0,0.0,0,nan,nan,0,0,0
60000,0,0,0,0,0,0.25,0.0,655.35,655.35,0.0,0.0,0,0,0.0,0.0,0.0,0.0,0.0,0,nan,nan,0,0,0
64000,0,0,0,0,0,0.25,0.0,655.35,655.35,0.0,0.0,0,0,0.0,0.0,0.0,0.0,0.0,0,nan,nan,0,0,0
68000,0,0,0,0,0,0.25,0.0,655.35,655.35,0.0,0.0,0,0,0.0,0.0,0.0,0.0,0.0,0,nan,nan,0,0,0
72000,0,0,0,0,0,0.25,0.0,655.35,655.35,0.0,0.0,0,0,0.0,0.0,0.0,0.0,0.0,0,nan,nan,0,0,0
76000,0,0,0,0,0,0.25,0.0,655.35,655.35,0.0,0.0,0,0,0.0,0.0,0.0,0.0,0.0,0,nan,nan,0,0,0
80000,0,0,0,0,0,0.25,0.0,655.35,655.35,0.0,0.0,0,0,0.0,0.0,0.0,0.0,0.0,0,nan,nan,0,0,0
84000,0,0,0,0,0,0.25,0.0,655.35,655.35,0.0,0.0,0,0,0.0,0.0,0.0,0.0,0.0,0,nan,nan,0,0,0
84000,0,0,0,0,0,0.25,0.0,655.35,655.35,0.0,0.0,0,0,0.0,0.0,0.0,0.0,0.0,0,nan,nan,0,0,0
88000,0,0,0,0,0,0.25,0.0,655.35,655.35,0.0,0.0,0,0,0.0,0.0,0.0,0.0,0.0,0,nan,nan,0,0,0
92000,0,0,0,0,0,0.25,0.0,655.35,655.35,0.0,0.0,0,0,0.0,0.0,0.0,0.0,0.0,0,nan,nan,0,0,0
96000,0,0,0,0,0,0.25,0.0,655.35,655.35,0.0,0.0,0,0,0.0,0.0,0.0,0.0,0.0,0,nan,nan,0,0,0
100000,0,0,0,0,0,0.25,0.0,655.35,655.35,0.0,0.0,0,0,0.0,0.0,0.0,0.0,0.0,0,nan,nan,0,0,0
104000,0,0,0,0,0,0.25,0.0,655.35,655.35,0.0,0.0,0,0,0.0,0.0,0.0,0.0,0.0,0,nan,nan,0,0,0
108000,0,0,0,0,0,0.25,0.0,655.35,655.35,0.0,0.0,0,0,0.0,0.0,0.0,0.0,0.0,0,nan,nan,0,0,0
112000,0,0,0,0,0,0.25,0.0,655.35,655.35,0.0,0.0,0,0,0.0,0.0,0.0,0.0,0.0,0,nan,nan,0,0,0
112000,0,0,0,0,0,0.25,0.0,655.35,655.35,0.0,0.0,0,0,0.0,0.0,0.0,0.0,0.0,0,nan,nan,0,0,0
116000,0,0,0,0,0,0.25,0.0,655.35,655.35,0.0,0.0,0,0,0.0,0.0,0.0,0.0,0.0,0,nan,nan,0,0,0
120000,0,0,0,0,0,0.25,0.0,655.35,655.35,0.0,0.0,0,0,0.0,0.0,0.0,0.0,0.0,0,nan,nan,0,0,0
124000,0,0,0,0,0,0.25,0.0,655.35,655.35,0.0,0.0,0,0,0.0,0.0,0.0,0.0,0.0,0,nan,nan,0,0,0
128000,0,0,0,0,0,0.25,0.0,655.35,655.35,0.0,0.0,0,0,0.0,0.0,0.0,0.0,0.0,0,nan,nan,0,0,0
132000,0,0,0,0,0,0.25,0.0,655.35,655.35,0.0,0.0,0,0,0.0,0.0,0.0,0.0,0.0,0,nan,nan,0,0,0
136000,0,0,0,0,0,0.25,0.0,655.35,655.35,0.0,0.0,0,0,0.0,0.0,0.0,0.0,0.0,0,nan,nan,0,0,0
140000,0,0,0,0,0,0.25,0.0,655.35,655.35,0.0,0.0,0,0,0.0,0.0,0.0,0.0,0.0,0,nan,nan,0,0,0
140000,0,0,0,0,0,0.25,0.0,655.35,655.35,0.0,0.0,0,0,0.0,0.0,0.0,0.0,0.0,0,nan,nan,0,0,0
144000,0,0,0,0,0,0.25,0.0,655.35,655.35,0.0,0.0,0,0,0.0,0.0,0.0,0.0,0.0,0,nan,nan,0,0,0
148000,0,0,0,0,0,0.25,0.0,655.35,655.35,0.0,0.0,0,0,0.0,0.0,0.0,0.0,0.0,0,nan,nan,0,0,0
152000,0,0,0,0,0,0.25,0.0,655.35,655.35,0.0,0.0,0,0,0.0,0.0,0.0,0.0,0.0,0,nan,nan,0,0,0
156000,0,0,0,0,0,0.25,0.0,655.35,655.35,0.0,0.0,0,0,0.0,0.0,0.0,0.0,0.0,0,nan,nan,0,0,0
160000,0,0,0,0,0,0.25,0.0,655.35,655.35,0.0,0.0,0,0,0.0,0.0,0.0,0.0,0.0,0,nan,nan,0,0,0
164000,0,0,0,0,0,0.25,0.0,655.35,655.35,0.0,0.0,0,0,0.0,0.0,0.0,0.0,0.0,0,nan,nan,0,0,0
168000,0,0,0,0,0,0.25,0.0,655.35,655.35,0.0,0.0,0,0,0.0,0.0,0.0,0.0,0.0,0,nan,nan,0,0,0
168000,0,0,0,0,0,0.25,0.0,655.35,655.35,0.0,0.0,0,0,0.0,0.0,0.0,0.0,0.0,0,nan,nan,0,0,0
172000,0,0,0,0,0,0.25,0.0,655.35,655.35,0.0,0.0,0,0,0.0,0.0,0.0,0.0,0.0,0,nan,nan,0,0,0
176000,0,0,0,0,0,0.25,0.0,655.35,655.35,0.0,0.0,0,0,0.0,0.0,0.0,0.0,0.0,0,nan,nan,0,0,0
180000,0,0,0,0,0,0.25,0.0,655.35,655.35,0.0,0.0,0,0,0.0,0.0,0.0,0.0,0.0,0,nan,nan,0,0,0
184000,0,0,0,0,0,0.25,0.0,655.35,655.35,0.0,0.0,0,0,0.0,0.0,0.0,0.0,0.0,0,nan,nan,0,0,0
188000,0,0,0,0,0,0.25,0.0,655.35,655.35,0.0,0.0,0,0,0.0,0.0,0.0,0.0,0.0,0,nan,nan,0,0,0
192000,0,0,0,0,0,0.25,0.0,655.35,655.35,0.0,0.0,0,0,0.0,0.0,0.0,0.0,0.0,0,nan,nan,0,0,0
196000,0,0,0,0,0,0.25,0.0,655.35,655.35,0.0,0.0,0,0,0.0,0.0,0.0,0.0,0.0,0,nan,nan,0,0,0
196000,0,0,0,0,0,0.25,0.0,655.35,655.35,0.0,0.0,0,0,0.0,0.0,0.0,0.0,0.0,0,nan,nan,0,0,0
200000,0,0,0,0,0,0.25,0.0,655.35,655.35,0.0,0.0,0,0,0.0,0.0,0.0,0.0,0.0,0,nan,nan,0,0,0
204000,0,0,0,0,0,0.25,0.0,655.35,655.35,0.0,0.0,0,0,0.0,0.0,0.0,0.0,0.0,0,nan,nan,0,0,0
208000,0,0,0,0,0,0.25,0.0,655.35,655.35,0.0,0.0,0,0,0.0,0.0,0.0,0.0,0.0,0,nan,nan,0,0,0
212000,0,0,0,0,0,0.25,0.0,655.35,655.35,0.0,0.0,0,0,0.0,0.0,0.0,0.0,0.0,0,nan,nan,0,0,0
216000,0,0,0,0,0,0.25,0.0,655.35,655.35,0.0,0.0,0,0,0.0,0.0,0.0,0.0,0.0,0,nan,nan,0,0,0
220000,0,0,0,0,0,0.25,0.0,655.35,655.35,0.0,0.0,0,0,0.0,0.0,0.0,0.0,0.0,0,nan,nan,0,0,0
224000,0,0,0,0,0,0.25,0.0,655.35,655.35,0.0,0.0,0,0,0.0,0.0,0.0,0.0,0.0,0,nan,nan,0,0,0
228000,0,0,0,0,0,0.25,0.0,655.35,655.35,0.0,0.0,0,0,0.0,0.0,0.0,0.0,0.0,0,nan,nan,0,0,0
232000,0,0,0,0,0,0.25,0.0,655.35,655.35,0.0,0.0,0,0,0.0,0.0,0.0,0.0,0.0,0,nan,nan,0,0,0
236000,0,0,0,0,0,0.25,0.0,655.35,655.35,0.0,0.0,0,0,0.0,0.0,0.0,0.0,0.0,0,nan,nan,0,0,0
240000,0,0,0,0,0,0.25,0.0,655.35,655.35,0.0,0.0,0,0,0.0,0.0,0.0,0.0,0.0,0,nan,nan,0,0,0
244000,0,0,0,0,0,0.25,0.0,655.35,655.35,0.0,0.0,0,0,0.0,0.0,0.0,0.0,0.0,0,nan,nan,0,0,0
248000,0,0,0,0,0,0.25,0.0,655.35,655.35,0.0,0.0,0,0,0.0,0.0,0.0,0.0,0.0,0,nan,nan,0,0,0
252000,0,0,0,0,0,0.25,0.0,655.35,655.35,0.0,0.0,0,0,0.0,0.0,0.0,0.0,0.0,0,nan,nan,0,0,0
252000,0,0,0,0,0,0.25,0.0,655.35,655.35,0.0,0.0,0,0,0.0,0.0,0.0,0.0,0.0,0,nan,nan,0,0,0
256000,0,0,0,0,0,0.25,0.0,655.35,655.35,0.0,0.0,0,0,0.0,0.0,0.0,0.0,0.0,0,nan,nan,0,0,0
260000,0,0,0,0,0,0.25,0.0,655.35,655.35,0.0,0.0,0,0,0.0,0.0,0.0,0.0,0.0,0,nan,nan,0,0,0
264000,0,0,0,0,0,0.25,0.0,655.35,655.35,0.0,0.0,0,0,0.0,0.0,0.0,0.0,0.0,0,nan,nan,0,0,0
268000,0,0,0,0,0,0.25,0.0,655.35,655.35,0.0,0.0,0,0,0.0,0.0,0.0,0.0,0.0,0,nan,nan,0,0,0
272000,0,0,0,0,0,0.25,0.0,655.35,655.35,0.0,0.0,0,0,0.0,0.0,0.0,0.0,0.0,0,nan,nan,0,0,0
276000,0,0,0,0,0,0.25,0.0,655.35,655.35,0.0,0.0,0,0,0.0,0.0,0.0,0.0,0.0,0,nan,nan,0,0,0
280000,0,0,0,0,0,0.25,0.0,655.35,655.35,0.0,0.0,0,0,0.0,0.0,0.0,0.0,0.0,0,nan,nan,0,0,0
280000,0,0,0,0,0,0.25,0.0,655.35,655.35,0.0,0.0,0,0,0.0,0.0,0.0,0.0,0.0,0,nan,nan,0,0,0
284000,0,0,0,0,0,0.25,0.0,655.35,655.35,0.0,0.0,0,0,0.0,0.0,0.0,0.0,0.0,0,nan,nan,0,0,0
288000,0,0,0,0,0,0.25,0.0,655.35,655.35,0.0,0.0,0,0,0.0,0.0,0.0,0.0,0.0,0,nan,nan,0,0,0
292000,0,0,0,0,0,0.25,0.0,655.35,655.35,0.0,0.0,0,0,0.0,0.0,0.0,0.0,0.0,0,nan,nan,0,0,0
296000,0,0,0,0,0,0.25,0.0,655.35,655.35,0.0,0.0,0,0,0.0,0.0,0.0,0.0,0.0,0,nan,nan,0,0,0
300000,0,0,0,0,0,0.25,0.0,655.35,655.35,0.0,0.0,0,0,0.0,0.0,0.0,0.0,0.0,0,nan,nan,0,0,0
304000,0,0,0,0,0,0.25,0.0,655.35,655.35,0.0,0.0,0,0,0.0,0.0,0.0,0.0,0.0,0,nan,nan,0,0,0
308000,0,0,0,0,0,0.25,0.0,655.35,655.35,0.0,0.0,0,0,0.0,0.0,0.0,0.0,0.0,0,nan,nan,0,0,0
308000,0,0,0,0,0,0.25,0.0,655.35,655.35,0.0,0.0,0,0,0.0,0.0,0.0,0.0,0.0,0,nan,nan,0,0,0
312000,0,0,0,0,0,0.25,0.0,655.35,655.35,0.0,0.0,0,0,0.0,0.0,0.0,0.0,0.0,0,nan,nan,0,0,0
316000,0,0,0,0,0,0.25,0.0,655.35,655.35,0.0,0.0,0,0,0.0,0.0,0.0,0.0,0.0,0,nan,nan,0,0,0
320000,0,0,0,0,0,0.25,0.0,655.35,655.35,0.0,0.0,0,0,0.0,0.0,0.0,0.0,0.0,0,nan,nan,0,0,0
324000,0,0,0,0,0,0.25,0.0,655.35,655.35,0.0,0.0,0,0,0.0,0.0,0.0,0.0,0.0,0,nan,nan,0,0,0
328000,0,0,0,0,0,0.25,0.0,655.35,655.35,0.0,0.0,0,0,0.0,0.0,0.0,0.0,0.0,0,nan,nan,0,0,0
332000,0,0,0,0,0,0.25,0.0,655.35,655.35,0.0,0.0,0,0,0.0,0.0,0.0,0.0,0.0,0,nan,nan,0,0,0
336000,0,0,0,0,0,0.25,0.0,655.35,655.35,0.0,0.0,0,0,0.0,0.0,0.0,0.0,0.0,0,nan,nan,0,0,0
340000,0,0,0,0,0,0.25,0.0,655.35,655.35,0.0,0.0,0,0,0.0,0.0,0.0,0.0,0.0,0,nan,nan,0,0,0
344000,0,0,0,0,0,0.25,0.0,655.35,655.35,0.0,0.0,0,0,0.0,0.0,0.0,0.0,0.0,0,nan,nan,0,0,0
348000,0,0,0,0,0,0.25,0.0,655.35,655.35,0.0,0.0,0,0,0.0,0.0,0.0,0.0,0.0,0,nan,nan,0,0,0
352000,0,0,0,0,0,0.25,0.0,655.35,655.35,0.0,0.0,0,0,0.0,0.0,0.0,0.0,0.0,0,nan,nan,0,0,0
356000,0,0,0,0,0,0.25,0.0,655.35,655.35,0.0,0.0,0,0,0.0,0.0,0.0,0.0,0.0,0,nan,nan,0,0,0
360000,0,0,0,0,0,0.25,0.0,655.35,655.35,0.0,0.0,0,0,0.0,0.0,0.0,0.0,0.0,0,nan,nan,0,0,0
364000,0,0,0,0,0,0.25,0.0,655.35,655.35,0.0,0.0,0,0,0.0,0.0,0.0,0.0,0.0,0,nan,nan,0,0,0
364000,0,0,0,0,0,0.25,0.0,655.35,655.35,0.0,0.0,0,0,0.0,0.0,0.0,0.0,0.0,0,nan,nan,0,0,0
368000,0,0,0,0,0,0.25,0.0,655.35,655.35,0.0,0.0,0,0,0.0,0.0,0.0,0.0,0.0,0,nan,nan,0,0,0
372000,0,0,0,0,0,0.25,0.0,655.35,655.35,0.0,0.0,0,0,0.0,0.0,0.0,0.0,0.0,0,nan,nan,0,0,0
376000,0,0,0,0,0,0.25,0.0,655.35,655.35,0.0,0.0,0,0,0.0,0.0,0.0,0.0,0.0,0,nan,nan,0,0,0
380000,0,0,0,0,0,0.25,0.0,655.35,655.35,0.0,0.0,0,0,0.0,0.0,0.0,0.0,0.0,0,nan,nan,0,0,0
384000,0,0,0,0,0,0.25,0.0,655.35,655.35,0.0,0.0,0,0,0.0,0.0,0.0,0.0,0.0,0,nan,nan,0,0,0
388000,0,0,0,0,0,0.25,0.0,655.35,655.35,0.0,0.0,0,0,0.0,0.0,0.0,0.0,0.0,0,nan,nan,0,0,0
392000,0,0,0,0,0,0.25,0.0,655.35,655.35,0.0,0.0,0,0,0.0,0.0,0.0,0.0,0.0,0,nan,nan,0,0,0
396000,0,0,0,0,0,0.25,0.0,655.35,655.35,0.0,0.0,0,0,0.0,0.0,0.0,0.0,0.0,0,nan,nan,0,0,0
400000,0,0,0,0,0,0.25,0.0,655.35,655.35,0.0,0.0,0,0,0.0,0.0,0.0,0.0,0.0,0,nan,nan,0,0,0
404000,0,0,0,0,0,0.25,0.0,655.35,655.35,0.0,0.0,0,0,0.0,0.0,0.0,0.0,0.0,0,nan,nan,0,0,0
408000,0,0,0,0,0,0.25,0.0,655.35,655.35,0.0,0.0,0,0,0.0,0.0,0.0,0.0,0.0,0,nan,nan,0,0,0
412000,0,0,0,0,0,0.25,0.0,655.35,655.35,0.0,0.0,0,0,0.0,0.0,0.0,0.0,0.0,0,nan,nan,0,0,0
416000,0,0,0,0,0,0.25,0.0,655.35,655.35,0.0,0.0,0,0,0.0,0.0,0.0,0.0,0.0,0,nan,nan,0,0,0
420000,0,0,0,0,0,0.25,0.0,655.35,655.35,0.0,0.0,0,0,0.0,0.0,0.0,0.0,0.0,0,nan,nan,0,0,0
420000,0,0,0,0,0,0.25,0.0,655.35,655.35,0.0,0.0,0,0,0.0,0.0,0.0,0.0,0.0,0,nan,nan,0,0,0
424000,0,0,0,0,0,0.25,0.0,655.35,655.35,0.0,0.0,0,0,0.0,0.0,0.0,0.0,0.0,0,nan,nan,0,0,0
428000,0,0,0,0,0,0.25,0.0,655.35,655.35,0.0,0.0,0,0,0.0,0.0,0.0,0.0,0.0,0,nan,nan,0,0,0
432000,0,0,0,0,0,0.25,0.0,655.35,655.35,0.0,0.0,0,0,0.0,0.0,0.0,0.0,0.0,0,nan,nan,0,0,0
436000,0,0,0,0,0,0.25,0.0,655.35,655.35,0.0,0.0,0,0,0.0,0.0,0.0,0.0,0.0,0,nan,nan,0,0,0
440000,0,0,0,0,0,0.25,0.0,655.35,655.35,0.0,0.0,0,0,0.0,0.0,0.0,0.0,0.0,0,nan,nan,0,0,0
444000,0,0,0,0,0,0.25,0.0,655.35,655.35,0.0,0.0,0,0,0.0,0.0,0.0,0.0,0.0,0,nan,nan,0,0,0
448000,0,0,0,0,0,0.25,0.0,655.35,655.35,0.0,0.0,0,0,0.0,0.0,0.0,0.0,0.0,0,nan,nan,0,0,0
448000,0,0,0,0,0,0.25,0.0,655.35,655.35,0.0,0.0,0,0,0.0,0.0,0.0,0.0,0.0,0,nan,nan,0,0,0
452000,0,0,0,0,0,0.25,0.0,655.35,655.35,0.0,0.0,0,0,0.0,0.0,0.0,0.0,0.0,0,nan,nan,0,0,0
456000,0,0,0,0,0,0.25,0.0,655.35,655.35,0.0,0.0,0,0,0.0,0.0,0.0,0.0,0.0,0,nan,nan,0,0,0
460000,0,0,0,0,0,0.25,0.0,655.35,655.35,0.0,0.0,0,0,0.0,0.0,0.0,0.0,0.0,0,nan,nan,0,0,0
464000,0,0,0,0,0,0.25,0.0,655.35,655.35,0.0,0.0,0,0,0.0,0.0,0.0,0.0,0.0,0,nan,nan,0,0,0
468000,0,0,0,0,0,0.25,0.0,655.35,655.35,0.0,0.0,0,0,0.0,0.0,0.0,0.0,0.0,0,nan,nan,0,0,0
472000,0,0,0,0,0,0.25,0.0,655.35,655.35,0.0,0.0,0,0,0.0,0.0,0.0,0.0,0.0,0,nan,nan,0,0,0
476000,0,0,0,0,0,0.25,0.0,655.35,655.35,0.0,0.0,0,0,0.0,0.0,0.0,0.0,0.0,0,nan,nan,0,0,0
476000,0,0,0,0,0,0.25,0.0,655.35,655.35,0.0,0.0,0,0,0.0,0.0,0.0,0.0,0.0,0,nan,nan,0,0,0
480000,0,0,0,0,0,0.25,0.0,655.35,655.35,0.0,0.0,0,0,0.0,0.0,0.0,0.0,0.0,0,nan,nan,0,0,0
484000,0,0,0,0,0,0.25,0.0,655.35,655.35,0.0,0.0,0,0,0.0,0.0,0.0,0.0,0.0,0,nan,nan,0,0,0
488000,0,0,0,0,0,0.25,0.0,655.35,655.35,0.0,0.0,0,0,0.0,0.0,0.0,0.0,0.0,0,nan,nan,0,0,0
492000,0,0,0,0,0,0.25,0.0,655.35,655.35,0.0,0.0,0,0,0.0,0.0,0.0,0.0,0.0,0,nan,nan,0,0,0
496000,0,0,0,0,0,0.25,0.0,655.35,655.35,0.0,0.0,0,0,0.0,0.0,0.0,0.0,0.0,0,nan,nan,0,0,0
500000,0,0,0,0,0,0.25,0.0,655.35,655.35,0.0,0.0,0,0,0.0,0.0,0.0,0.0,0.0,0,nan,nan,0,0,0
504000,0,0,0,0,0,0.25,0.0,655.35,655.35,0.0,0.0,0,0,0.0,0.0,0.0,0.0,0.0,0,nan,nan,0,0,0
504000,0,0,0,0,0,0.25,0.0,655.35,655.35,0.0,0.0,0,0,0.0,0.0,0.0,0.0,0.0,0,nan,nan,0,0,0
508000,0,0,0,0,0,0.25,0.0,655.35,655.35,0.0,0.0,0,0,0.0,0.0,0.0,0.0,0.0,0,nan,nan,0,0,0
512000,0,0,0,0,0,0.25,0.0,655.35,655.35,0.0,0.0,0,0,0.0,0.0,0.0,0.0,0.0,0,nan,nan,0,0,0
516000,0,0,0,0,0,0.25,0.0,655.35,655.35,0.0,0.0,0,0,0.0,0.0,0.0,0.0,0.0,0,nan,nan,0,0,0
520000,0,0,0,0,0,0.25,0.0,655.35,655.35,0.0,0.0,0,0,0.0,0.0,0.0,0.0,0.0,0,nan,nan,0,0,0
524000,0,0,0,0,0,0.25,0.0,655.35,655.35,0.0,0.0,0,0,0.0,0.0,0.0,0.0,0.0,0,nan,nan,0,0,0
528000,0,0,0,0,0,0.25,0.0,655.35,655.35,0.0,0.0,0,0,0.0,0.0,0.0,0.0,0.0,0,nan,nan,0,0,0
532000,0,0,0,0,0,0.25,0.0,655.35,655.35,0.0,0.0,0,0,0.0,0.0,0.0,0.0,0.0,0,nan,nan,0,0,0
532000,0,0,0,0,0,0.25,0.0,655.35,655.35,0.0,0.0,0,0,0.0,0.0,0.0,0.0,0.0,0,nan,nan,0,0,0
536000,0,0,0,0,0,0.25,0.0,655.35,655.35,0.0,0.0,0,0,0.0,0.0,0.0,0.0,0.0,0,nan,nan,0,0,0
540000,0,0,0,0,0,0.25,0.0,655.35,655.35,0.0,0.0,0,0,0.0,0.0,0.0,0.0,0.0,0,nan,nan,0,0,0
544000,0,0,0,0,0,0.25,0.0,655.35,655.35,0.0,0.0,0,0,0.0,0.0,0.0,0.0,0.0,0,nan,nan,0,0,0
548000,0,0,0,0,0,0.25,0.0,655.35,655.35,0.0,0.0,0,0,0.0,0.0,0.0,0.0,0.0,0,nan,nan,0,0,0
552000,0,0,0,0,0,0.25,0.0,655.35,655.35,0.0,0.0,0,0,0.0,0.0,0.0,0.0,0.0,0,nan,nan,0,0,0
556000,0,0,0,0,0,0.25,0.0,655.35,655.35,0.0,0.0,0,0,0.0,0.0,0.0,0.0,0.0,0,nan,nan,0,0,0
560000,0,0,0,0,0,0.25,0.0,655.35,655.35,0.0,0.0,0,0,0.0,0.0,0.0,0.0,0.0,0,nan,nan,0,0,0
560000,0,0,0,0,0,0.25,0.0,655.35,655.35,0.0,0.0,0,0,0.0,0.0,0.0,0.0,0.0,0,nan,nan,0,0,0
564000,0,0,0,0,0,0.25,0.0,655.35,655.35,0.0,0.0,0,0,0.0,0.0,0.0,0.0,0.0,0,nan,nan,0,0,0
568000,0,0,0,0,0,0.25,0.0,655.35,655.35,0.0,0.0,0,0,0.0,0.0,0.0,0.0,0.0,0,nan,nan,0,0,0
572000,0,0,0,0,0,0.25,0.0,655.35,655.35,0.0,0.0,0,0,0.0,0.0,0.0,0.0,0.0,0,nan,nan,0,0,0
576000,0,0,0,0,0,0.25,0.0,655.35,655.35,0.0,0.0,0,0,0.0,0.0,0.0,0.0,0.0,0,nan,nan,0,0,0
580000,0,0,0,0,0,0.25,0.0,655.35,655.35,0.0,0.0,0,0,0.0,0.0,0.0,0.0,0.0,0,nan,nan,0,0,0
584000,0,0,0,0,0,0.25,0.0,655.35,655.35,0.0,0.0,0,0,0.0,0.0,0.0,0.0,0.0,0,nan,nan,0,0,0
588000,0,0,0,0,0,0.25,0.0,655.35,655.35,0.0,0.0,0,0,0.0,0.0,0.0,0.0,0.0,0,nan,nan,0,0,0
588000,0,0,0,0,0,0.25,0.0,655.35,655.35,0.0,0.0,0,0,0.0,0.0,0.0,0.0,0.0,0,nan,nan,0,0,0
592000,0,0,0,0,0,0.25,0.0,655.35,655.35,0.0,0.0,0,0,0.0,0.0,0.0,0.0,0.0,0,nan,nan,0,0,0
596000,0,0,0,0,0,0.25,0.0,655.35,655.35,0.0,0.0,0,0,0.0,0.0,0.0,0.0,0.0,0,nan,nan,0,0,0
600000,0,0,0,0,0,0.25,0.0,655.35,655.35,0.0,0.0,0,0,0.0,0.0,0.0,0.0,0.0,0,nan,nan,0,0,0
604000,0,0,0,0,0,0.25,0.0,655.35,655.35,0.0,0.0,0,0,0.0,0.0,0.0,0.0,0.0,0,nan,nan,0,0,0
608000,0,0,0,0,0,0.25,0.0,655.35,655.35,0.0,0.0,0,0,0.0,0.0,0.0,0.0,0.0,0,nan,nan,0,0,0
612000,0,0,0,0,0,0.25,0.0,655.35,655.35,0.0,0.0,0,0,0.0,0.0,0.0,0.0,0.0,0,nan,nan,0,0,0
616000,0,0,0,0,0,0.25,0.0,655.35,655.35,0.0,0.0,0,0,0.0,0.0,0.0,0.0,0.0,0,nan,nan,0,0,0
616000,0,0,0,0,0,0.25,0.0,655.35,655.35,0.0,0.0,0,0,0.0,0.0,0.0,0.0,0.0,0,nan,nan,0,0,0
620000,0,0,0,0,0,0.25,0.0,655.35,655.35,0.0,0.0,0,0,0.0,0.0,0.0,0.0,0.0,0,nan,nan,0,0,0
624000,0,0,0,0,0,0.25,0.0,655.35,655.35,0.0,0.0,0,0,0.0,0.0,0.0,0.0,0.0,0,nan,nan,0,0,0
628000,0,0,0,0,0,0.25,0.0,655.35,655.35,0.0,0.0,0,0,0.0,0.0,0.0,0.0,0.0,0,nan,nan,0,0,0
632000,0,0,0,0,0,0.25,0.0,655.35,655.35,0.0,0.0,0,0,0.0,0.0,0.0,0.0,0.0,0,nan,nan,0,0,0
636000,0,0,0,0,0,0.25,0.0,655.35,655.35,0.0,0.0,0,0,0.0,0.0,0.0,0.0,0.0,0,nan,nan,0,0,0
640000,0,0,0,0,0,0.25,0.0,655.35,655.35,0.0,0.0,0,0,0.0,0.0,0.0,0.0,0.0,0,nan,nan,0,0,0
644000,0,0,0,0,0,0.25,0.0,655.35,655.35,0.0,0.0,0,0,0.0,0.0,0.0,0.0,0.0,0,nan,nan,0,0,0
644000,0,0,0,0,0,0.25,0.0,655.35,655.35,0.0,0.0,0,0,0.0,0.0,0.0,0.0,0.0,0,nan,nan,0,0,0
648000,0,0,0,0,0,0.25,0.0,655.35,655.35,0.0,0.0,0,0,0.0,0.0,0.0,0.0,0.0,0,nan,nan,0,0,0
652000,0,0,0,0,0,0.25,0.0,655.35,655.35,0.0,0.0,0,0,0.0,0.0,0.0,0.0,0.0,0,nan,nan,0,0,0
656000,0,0,0,0,0,0.25,0.0,655.35,655.35,0.0,0.0,0,0,0.0,0.0,0.0,0.0,0.0,0,nan,nan,0,0,0
660000,0,0,0,0,0,0.25,0.0,655.35,655.35,0.0,0.0,0,0,0.0,0.0,0.0,0.0,0.0,0,nan,nan,0,0,0
664000,0,0,0,0,0,0.25,0.0,655.35,655.35,0.0,0.0,0,0,0.0,0.0,0.0,0.0,0.0,0,nan,nan,0,0,0
668000,0,0,0,0,0,0.25,0.0,655.35,655.35,0.0,0.0,0,0,0.0,0.0,0.0,0.0,0.0,0,nan,nan,0,0,0
672000,0,0,0,0,0,0.25,0.0,655.35,655.35,0.0,0.0,0,0,0.0,0.0,0.0,0.0,0.0,0,nan,nan,0,0,0
676000,0,0,0,0,0,0.25,0.0,655.35,655.35,0.0,0.0,0,0,0.0,0.0,0.0,0.0,0.0,0,nan,nan,0,0,0
680000,0,0,0,0,0,0.25,0.0,655.35,655.35,0.0,0.0,0,0,0.0,0.0,0.0,0.0,0.0,0,nan,nan,0,0,0
684000,0,0,0,0,0,0.25,0.0,655.35,655.35,0.0,0.0,0,0,0.0,0.0,0.0,0.0,0.0,0,nan,nan,0,0,0
688000,0,0,0,0,0,0.25,0.0,655.35,655.35,0.0,0.0,0,0,0.0,0.0,0.0,0.0,0.0,0,nan,nan,0,0,0
692000,0,0,0,0,0,0.25,0.0,655.35,655.35,0.0,0.0,0,0,0.0,0.0,0.0,0.0,0.0,0,nan,nan,0,0,0
696000,0,0,0,0,0,0.25,0.0,655.35,655.35,0.0,0.0,0,0,0.0,0.0,0.0,0.0,0.0,0,nan,nan,0,0,0
700000,0,0,0,0,0,0.25,0.0,655.35,655.35,0.0,0.0,0,0,0.0,0.0,0.0,0.0,0.0,0,nan,nan,0,0,0
700000,0,0,0,0,0,0.25,0.0,655.35,655.35,0.0,0.0,0,0,0.0,0.0,0.0,0.0,0.0,0,nan,nan,0,0,0
704000,0,0,0,0,0,0.25,0.0,655.35,655.35,0.0,0.0,0,0,0.0,0.0,0.0,0.0,0.0,0,nan,nan,0,0,0
708000,0,0,0,0,0,0.25,0.0,655.35,655.35,0.0,0.0,0,0,0.0,0.0,0.0,0.0,0.0,0,nan,nan,0,0,0
712000,0,0,0,0,0,0.25,0.0,655.35,655.35,0.0,0.0,0,0,0.0,0.0,0.0,0.0,0.0,0,nan,nan,0,0,0
716000,0,0,0,0,0,0.25,0.0,655.35,655.35,0.0,0.0,0,0,0.0,0.0,0.0,0.0,0.0,0,nan,nan,0,0,0
720000,0,0,0,0,0,0.25,0.0,655.35,655.35,0.0,0.0,0,0,0.0,0.0,0.0,0.0,0.0,0,nan,nan,0,0,0
724000,0,0,0,0,0,0.25,0.0,655.35,655.35,0.0,0.0,0,0,0.0,0.0,0.0,0.0,0.0,0,nan,nan,0,0,0
728000,0,0,0,0,0,0.25,0.0,655.35,655.35,0.0,0.0,0,0,0.0,0.0,0.0,0.0,0.0,0,nan,nan,0,0,0
728000,0,0,0,0,0,0.25,0.0,655.35,655.35,0.0,0.0,0,0,0.0,0.0,0.0,0.0,0.0,0,nan,nan,0,0,0
732000,0,0,0,0,0,0.25,0.0,655.35,655.35,0.0,0.0,0,0,0.0,0.0,0.0,0.0,0.0,0,nan,nan,0,0,0
736000,0,0,0,0,0,0.25,0.0,655.35,655.35,0.0,0.0,0,0,0.0,0.0,0.0,0.0,0.0,0,nan,nan,0,0,0
740000,0,0,0,0,0,0.25,0.0,655.35,655.35,0.0,0.0,0,0,0.0,0.0,0.0,0.0,0.0,0,nan,nan,0,0,0
744000,0,0,0,0,0,0.25,0.0,655.35,655.35,0.0,0.0,0,0,0.0,0.0,0.0,0.0,0.0,0,nan,nan,0,0,0
748000,0,0,0,0,0,0.25,0.0,655.35,655.35,0.0,0.0,0,0,0.0,0.0,0.0,0.0,0.0,0,nan,nan,0,0,0
752000,0,0,0,0,0,0.25,0.0,655.35,655.35,0.0,0.0,0,0,0.0,0.0,0.0,0.0,0.0,0,nan,nan,0,0,0
756000,0,0,0,0,0,0.25,0.0,655.35,655.35,0.0,0.0,0,0,0.0,0.0,0.0,0.0,0.0,0,nan,nan,0,0,0
756000,0,0,0,0,0,0.25,0.0,655.35,655.35,0.0,0.0,0,0,0.0,0.0,0.0,0.0,0.0,0,nan,nan,0,0,0
760000,0,0,0,0,0,0.25,0.0,655.35,655.35,0.0,0.0,0,0,0.0,0.0,0.0,0.0,0.0,0,nan,nan,0,0,0
764000,0,0,0,0,0,0.25,0.0,655.35,655.35,0.0,0.0,0,0,0.0,0.0,0.0,0.0,0.0,0,nan,nan,0,0,0
768000,0,0,0,0,0,0.25,0.0,655.35,655.35,0.0,0.0,0,0,0.0,0.0,0.0,0.0,0.0,0,nan,nan,0,0,0
772000,0,0,0,0,0,0.25,0.0,655.35,655.35,0.0,0.0,0,0,0.0,0.0,0.0,0.0,0.0,0,nan,nan,0,0,0
776000,0,0,0,0,0,0.25,0.0,655.35,655.35,0.0,0.0,0,0,0.0,0.0,0.0,0.0,0.0,0,nan,nan,0,0,0
780000,0,0,0,0,0,0.25,0.0,655.35,655.35,0.0,0.0,0,0,0.0,0.0,0.0,0.0,0.0,0,nan,nan,0,0,0
784000,0,0,0,0,0,0.25,0.0,655.35,655.35,0.0,0.0,0,0,0.0,0.0,0.0,0.0,0.0,0,nan,nan,0,0,0
784000,0,0,0,0,0,0.25,0.0,655.35,655.35,0.0,0.0,0,0,0.0,0.0,0.0,0.0,0.0,0,nan,nan,0,0,0
788000,0,0,0,0,0,0.25,0.0,655.35,655.35,0.0,0.0,0,0,0.0,0.0,0.0,0.0,0.0,0,nan,nan,0,0,0
792000,0,0,0,0,0,0.25,0.0,655.35,655.35,0.0,0.0,0,0,0.0,0.0,0.0,0.0,0.0,0,nan,nan,0,0,0
796000,0,0,0,0,0,0.25,0.0,655.35,655.35,0.0,0.0,0,0,0.0,0.0,0.0,0.0,0.0,0,nan,nan,0,0,0
800000,0,0,0,0,0,0.25,0.0,655.35,655.35,0.0,0.0,0,0,0.0,0.0,0.0,0.0,0.0,0,nan,nan,0,0,0
804000,0,0,0,0,0,0.25,0.0,655.35,655.35,0.0,0.0,0,0,0.0,0.0,0.0,0.0,0.0,0,nan,nan,0,0,0
808000,0,0,0,0,0,0.25,0.0,655.35,655.35,0.0,0.0,0,0,0.0,0.0,0.0,0.0,0.0,0,nan,nan,0,0,0
812000,0,0,0,0,0,0.25,0.0,655.35,655.35,0.0,0.0,0,0,0.0,0.0,0.0,0.0,0.0,0,nan,nan,0,0,0
812000,0,0,0,0,0,0.25,0.0,655.35,655.35,0.0,0.0,0,0,0.0,0.0,0.0,0.0,0.0,0,nan,nan,0,0,0
816000,0,0,0,0,0,0.25,0.0,655.35,655.35,0.0,0.0,0,0,0.0,0.0,0.0,0.0,0.0,0,nan,nan,0,0,0
820000,0,0,0,0,0,0.25,0.0,655.35,655.35,0.0,0.0,0,0,0.0,0.0,0.0,0.0,0.0,0,nan,nan,0,0,0
824000,0,0,0,0,0,0.25,0.0,655.35,655.35,0.0,0.0,0,0,0.0,0.0,0.0,0.0,0.0,0,nan,nan,0,0,0
828000,0,0,0,0,0,0.25,0.0,655.35,655.35,0.0,0.0,0,0,0.0,0.0,0.0,0.0,0.0,0,nan,nan,0,0,0
832000,0,0,0,0,0,0.25,0.0,655.35,655.35,0.0,0.0,0,0,0.0,0.0,0.0,0.0,0.0,0,nan,nan,0,0,0
836000,0,0,0,0,0,0.25,0.0,655.35,655.35,0.0,0.0,0,0,0.0,0.0,0.0,0.0,0.0,0,nan,nan,0,0,0
840000,0,0,0,0,0,0.25,0.0,655.35,655.35,0.0,0.0,0,0,0.0,0.0,0.0,0.0,0.0,0,nan,nan,0,0,0
840000,0,0,0,0,0,0.25,0.0,655.35,655.35,0.0,0.0,0,0,0.0,0.0,0.0,0.0,0.0,0,nan,nan,0,0,0
844000,0,0,0,0,0,0.25,0.0,655.35,655.35,0.0,0.0,0,0,0.0,0.0,0.0,0.0,0.0,0,nan,nan,0,0,0
848000,0,0,0,0,0,0.25,0.0,655.35,655.35,0.0,0.0,0,0,0.0,0.0,0.0,0.0,0.0,0,nan,nan,0,0,0
852000,0,0,0,0,0,0.25,0.0,655.35,655.35,0.0,0.0,0,0,0.0,0.0,0.0,0.0,0.0,0,nan,nan,0,0,0
856000,0,0,0,0,0,0.25,0.0,655.35,655.35,0.0,0.0,0,0,0.0,0.0,0.0,0.0,0.0,0,nan,nan,0,0,0
860000,0,0,0,0,0,0.25,0.0,655.35,655.35,0.0,0.0,0,0,0.0,0.0,0.0,0.0,0.0,0,nan,nan,0,0,0
864000,0,0,0,0,0,0.25,0.0,655.35,655.35,0.0,0.0,0,0,0.0,0.0,0.0,0.0,0.0,0,nan,nan,0,0,0
868000,0,0,0,0,0,0.25,0.0,655.35,655.35,0.0,0.0,0,0,0.0,0.0,0.0,0.0,0.0,0,nan,nan,0,0,0
868000,0,0,0,0,0,0.25,0.0,655.35,655.35,0.0,0.0,0,0,0.0,0.0,0.0,0.0,0.0,0,nan,nan,0,0,0
872000,0,0,0,0,0,0.25,0.0,655.35,655.35,0.0,0.0,0,0,0.0,0.0,0.0,0.0,0.0,0,nan,nan,0,0,0
876000,0,0,0,0,0,0.25,0.0,655.35,655.35,0.0,0.0,0,0,0.0,0.0,0.0,0.0,0.0,0,nan,nan,0,0,0
880000,0,0,0,0,0,0.25,0.0,655.35,655.35,0.0,0.0,0,0,0.0,0.0,0.0,0.0,0.0,0,nan,nan,0,0,0
884000,0,0,0,0,0,0.25,0.0,655.35,655.35,0.0,0.0,0,0,0.0,0.0,0.0,0.0,0.0,0,nan,nan,0,0,0
888000,0,0,0,0,0,0.25,0.0,655.35,655.35,0.0,0.0,0,0,0.0,0.0,0.0,0.0,0.0,0,nan,nan,0,0,0
892000,0,0,0,0,0,0.25,0.0,655.35,655.35,0.0,0.0,0,0,0.0,0.0,0.0,0.0,0.0,0,nan,nan,0,0,0
896000,0,0,0,0,0,0.25,0.0,655.35,655.35,0.0,0.0,0,0,0.0,0.0,0.0,0.0,0.0,0,nan,nan,0,0,0
896000,0,0,0,0,0,0.25,0.0,655.35,655.35,0.0,0.0,0,0,0.0,0.0,0.0,0.0,0.0,0,nan,nan,0,0,0
900000,0,0,0,0,0,0.25,0.0,655.35,655.35,0.0,0.0,0,0,0.0,0.0,0.0,0.0,0.0,0,nan,nan,0,0,0
904000,0,0,0,0,0,0.25,0.0,655.35,655.35,0.0,0.0,0,0,0.0,0.0,0.0,0.0,0.0,0,nan,nan,0,0,0
908000,0,0,0,0,0,0.25,0.0,655.35,655.35,0.0,0.0,0,0,0.0,0.0,0.0,0.0,0.0,0,nan,nan,0,0,0
912000,0,0,0,0,0,0.25,0.0,655.35,655.35,0.0,0.0,0,0,0.0,0.0,0.0,0.0,0.0,0,nan,nan,0,0,0
916000,0,0,0,0,0,0.25,0.0,655.35,655.35,0.0,0.0,0,0,0.0,0.0,0.0,0.0,0.0,0,nan,nan,0,0,0
920000,0,0,0,0,0,0.25,0.0,655.35,655.35,0.0,0.0,0,0,0.0,0.0,0.0,0.0,0.0,0,nan,nan,0,0,0
924000,0,0,0,0,0,0.25,0.0,655.35,655.35,0.0,0.0,0,0,0.0,0.0,0.0,0.0,0.0,0,nan,nan,0,0,0
928000,0,0,0,0,0,0.25,0.0,655.35,655.35,0.0,0.0,0,0,0.0,0.0,0.0,0.0,0.0,0,nan,nan,0,0,0
932000,0,0,0,0,0,0.25,0.0,655.35,655.35,0.0,0.0,0,0,0.0,0.0,0.0,0.0,0.0,0,nan,nan,0,0,0
936000,0,0,0,0,0,0.25,0.0,655.35,655.35,0.0,0.0,0,0,0.0,0.0,0.0,0.0,0.0,0,nan,nan,0,0,0
940000,0,0,0,0,0,0.25,0.0,655.35,655.35,0.0,0.0,0,0,0.0,0.0,0.0,0.0,0.0,0,nan,nan,0,0,0
944000,0,0,0,0,0,0.25,0.0,655.35,655.35,0.0,0.0,0,0,0.0,0.0,0.0,0.0,0.0,0,nan,nan,0,0,0
948000,0,0,0,0,0,0.25,0.0,655.35,655.35,0.0,0.0,0,0,0.0,0.0,0.0,0.0,0.0,0,nan,nan,0,0,0
952000,0,0,0,0,0,0.25,0.0,655.35,655.35,0.0,0.0,0,0,0.0,0.0,0.0,0.0,0.0,0,nan,nan,0,0,0
952000,0,0,0,0,0,0.25,0.0,655.35,655.35,0.0,0.0,0,0,0.0,0.0,0.0,0.0,0.0,0,nan,nan,0,0,0
956000,0,0,0,0,0,0.25,0.0,655.35,655.35,0.0,0.0,0,0,0.0,0.0,0.0,0.0,0.0,0,nan,nan,0,0,0
960000,0,0,0,0,0,0.25,0.0,655.35,655.35,0.0,0.0,0,0,0.0,0.0,0.0,0.0,0.0,0,nan,nan,0,0,0
964000,0,0,0,0,0,0.25,0.0,655.35,655.35,0.0,0.0,0,0,0.0,0.0,0.0,0.0,0.0,0,nan,nan,0,0,0
968000,0,0,0,0,0,0.25,0.0,655.35,655.35,0.0,0.0,0,0,0.0,0.0,0.0,0.0,0.0,0,nan,nan,0,0,0
972000,0,0,0,0,0,0.25,0.0,655.35,655.35,0.0,0.0,0,0,0.0,0.0,0.0,0.0,0.0,0,nan,nan,0,0,0
976000,0,0,0,0,0,0.25,0.0,655.35,655.35,0.0,0.0,0,0,0.0,0.0,0.0,0.0,0.0,0,nan,nan,0,0,0
980000,0,0,0,0,0,0.25,0.0,655.35,655.35,0.0,0.0,0,0,0.0,0.0,0.0,0.0,0.0,0,nan,nan,0,0,0
980000,0,0,0,0,0,0.25,0.0,655.35,655.35,0.0,0.0,0,0,0.0,0.0,0.0,0.0,0.0,0,nan,nan,0,0,0
984000,0,0,0,0,0,0.25,0.0,655.35,655.35,0.0,0.0,0,0,0.0,0.0,0.0,0.0,0.0,0,nan,nan,0,0,0
988000,0,0,0,0,0,0.25,0.0,655.35,655.35,0.0,0.0,0,0,0.0,0.0,0.0,0.0,0.0,0,nan,nan,0,0,0
992000,0,0,0,0,0,0.25,0.0,655.35,655.35,0.0,0.0,0,0,0.0,0.0,0.0,0.0,0.0,0,nan,nan,0,0,0
996000,0,0,0,0,0,0.25,0.0,655.35,655.35,0.0,0.0,0,0,0.0,0.0,0.0,0.0,0.0,0,nan,nan,0,0,0
1000000,0,0,0,0,0,0.25,0.0,655.35,655.35,0.0,0.0,0,0,0.0,0.0,0.0,0.0,0.0,0,nan,nan,0,0,0
1004000,0,0,0,0,0,0.25,0.0,655.35,655.35,0.0,0.0,0,0,0.0,0.0,0.0,0.0,0.0,0,nan,nan,0,0,0
1008000,0,0,0,0,0,0.25,0.0,655.35,655.35,0.0,0.0,0,0,0.0,0.0,0.0,0.0,0.0,0,nan,nan,0,0,0
1008000,0,0,0,0,0,0.25,0.0,655.35,655.35,0.0,0.0,0,0,0.0,0.0,0.0,0.0,0.0,0,nan,nan,0,0,0
1012000,0,0,0,0,0,0.25,0.0,655.35,655.35,0.0,0.0,0,0,0.0,0.0,0.0,0.0,0.0,0,nan,nan,0,0,0
1016000,0,0,0,0,0,0.25,0.0,655.35,655.35,0.0,0.0,0,0,0.0,0.0,0.0,0.0,0.0,0,nan,nan,0,0,0
1020000,0,0,0,0,0,0.25,0.0,655.35,655.35,0.0,0.0,0,0,0.0,0.0,0.0,0.0,0.0,0,nan,nan,0,0,0
1024000,0,0,0,0,0,0.25,0.0,655.35,655.35,0.0,0.0,0,0,0.0,0.0,0.0,0.0,0.0,0,nan,nan,0,0,0
1028000,0,0,0,0,0,0.25,0.0,655.35,655.35,0.0,0.0,0,0,0.0,0.0,0.0,0.0,0.0,0,nan,nan,0,0,0
1032000,0,0,0,0,0,0.25,0.0,655.35,655.35,0.0,0.0,0,0,0.0,0.0,0.0,0.0,0.0,0,nan,nan,0,0,0
1036000,0,0,0,0,0,0.25,0.0,655.35,655.35,0.0,0.0,0,0,0.0,0.0,0.0,0.0,0.0,0,nan,nan,0,0,0
1040000,0,0,0,0,0,0.25,0.0,655.35,655.35,0.0,0.0,0,0,0.0,0.0,0.0,0.0,0.0,0,nan,nan,0,0,0
1044000,0,0,0,0,0,0.25,0.0,655.35,655.35,0.0,0.0,0,0,0.0,0.0,0.0,0.0,0.0,0,nan,nan,0,0,0
1048000,0,0,0,0,0,0.25,0.0,655.35,655.35,0.0,0.0,0,0,0.0,0.0,0.0,0.0,0.0,0,nan,nan,0,0,0
1052000,0,0,0,0,0,0.25,0.0,655.35,655.35,0.0,0.0,0,0,0.0,0.0,0.0,0.0,0.0,0,nan,nan,0,0,0
1056000,0,0,0,0,0,0.25,0.0,655.35,655.35,0.0,0.0,0,0,0.0,0.0,0.0,0.0,0.0,0,nan,nan,0,0,0
1060000,0,0,0,0,0,0.25,0.0,655.35,655.35,0.0,0.0,0,0,0.0,0.0,0.0,0.0,0.0,0,nan,nan,0,0,0
1064000,0,0,0,0,0,0.25,0.0,655.35,655.35,0.0,0.0,0,0,0.0,0.0,0.0,0.0,0.0,0,nan,nan,0,0,0
1064000,0,0,0,0,0,0.25,0.0,655.35,655.35,0.0,0.0,0,0,0.0,0.0,0.0,0.0,0.0,0,nan,nan,0,0,0
1068000,0,0,0,0,0,0.25,0.0,655.35,655.35,0.0,0.0,0,0,0.0,0.0,0.0,0.0,0.0,0,nan,nan,0,0,0
1072000,0,0,0,0,0,0.25,0.0,655.35,655.35,0.0,0.0,0,0,0.0,0.0,0.0,0.0,0.0,0,nan,nan,0,0,0
1076000,0,0,0,0,0,0.25,0.0,655.35,655.35,0.0,0.0,0,0,0.0,0.0,0.0,0.0,0.0,0,nan,nan,0,0,0
1080000,0,0,0,0,0,0.25,0.0,655.35,655.35,0.0,0.0,0,0,0.0,0.0,0.0,0.0,0.0,0,nan,nan,0,0,0
1084000,0,0,0,0,0,0.25,0.0,655.35,655.35,0.0,0.0,0,0,0.0,0.0,0.0,0.0,0.0,0,nan,nan,0,0,0
1088000,0,0,0,0,0,0.25,0.0,655.35,655.35,0.0,0.0,0,0,0.0,0.0,0.0,0.0,0.0,0,nan,nan,0,0,0
1092000,0,0,0,0,0,0.25,0.0,655.35,655.35,0.0,0.0,0,0,0.0,0.0,0.0,0.0,0.0,0,nan,nan,0,0,0
1092000,0,0,0,0,0,0.25,0.0,655.35,655.35,0.0,0.0,0,0,0.0,0.0,0.0,0.0,0.0,0,nan,nan,0,0,0
1096000,0,0,0,0,0,0.25,0.0,655.35,655.35,0.0,0.0,0,0,0.0,0.0,0.0,0.0,0.0,0,nan,nan,0,0,0
1100000,0,0,0,0,0,0.25,0.0,655.35,655.35,0.0,0.0,0,0,0.0,0.0,0.0,0.0,0.0,0,nan,nan,0,0,0
1104000,0,0,0,0,0,0.25,0.0,655.35,655.35,0.0,0.0,0,0,0.0,0.0,0.0,0.0,0.0,0,nan,nan,0,0,0
1108000,0,0,0,0,0,0.25,0.0,655.35,655.35,0.0,0.0,0,0,0.0,0.0,0.0,0.0,0.0,0,nan,nan,0,0,0
1112000,0,0,0,0,0,0.25,0.0,655.35,655.35,0.0,0.0,0,0,0.0,0.0,0.0,0.0,0.0,0,nan,nan,0,0,0
1116000,0,0,0,0,0,0.25,0.0,655.35,655.35,0.0,0.0,0,0,0.0,0.0,0.0,0.0,0.0,0,nan,nan,0,0,0
1120000,0,0,0,0,0,0.25,0.0,655.35,655.35,0.0,0.0,0,0,0.0,0.0,0.0,0.0,0.0,0,nan,nan,0,0,0
1120000,0,0,0,0,0,0.25,0.0,655.35,655.35,0.0,0.0,0,0,0.0,0.0,0.0,0.0,0.0,0,nan,nan,0,0,0
1124000,0,0,0,0,0,0.25,0.0,655.35,655.35,0.0,0.0,0,0,0.0,0.0,0.0,0.0,0.0,0,nan,nan,0,0,0
1128000,0,0,0,0,0,0.25,0.0,655.35,655.35,0.0,0.0,0,0,0.0,0.0,0.0,0.0,0.0,0,nan,nan,0,0,0
1132000,0,0,0,0,0,0.25,0.0,655.35,655.35,0.0,0.0,0,0,0.0,0.0,0.0,0.0,0.0,0,nan,nan,0,0,0
1136000,0,0,0,0,0,0.25,0.0,655.35,655.35,0.0,0.0,0,0,0.0,0.0,0.0,0.0,0.0,0,nan,nan,0,0,0
1140000,0,0,0,0,0,0.25,0.0,655.35,655.35,0.0,0.0,0,0,0.0,0.0,0.0,0.0,0.0,0,nan,nan,0,0,0
1144000,0,0,0,0,0,0.25,0.0,655.35,655.35,0.0,0.0,0,0,0.0,0.0,0.0,0.0,0.0,0,nan,nan,0,0,0
1148000,0,0,0,0,0,0.25,0.0,655.35,655.35,0.0,0.0,0,0,0.0,0.0,0.0,0.0,0.0,0,nan,nan,0,0,0
1148000,0,0,0,0,0,0.25,0.0,655.35,655.35,0.0,0.0,0,0,0.0,0.0,0.0,0.0,0.0,0,nan,nan,0,0,0
1152000,0,0,0,0,0,0.25,0.0,655.35,655.35,0.0,0.0,0,0,0.0,0.0,0.0,0.0,0.0,0,nan,nan,0,0,0
1156000,0,0,0,0,0,0.25,0.0,655.35,655.35,0.0,0.0,0,0,0.0,0.0,0.0,0.0,0.0,0,nan,nan,0,0,0
1160000,0,0,0,0,0,0.25,0.0,655.35,655.35,0.0,0.0,0,0,0.0,0.0,0.0,0.0,0.0,0,nan,nan,0,0,0
1164000,0,0,0,0,0,0.25,0.0,655.35,655.35,0.0,0.0,0,0,0.0,0.0,0.0,0.0,0.0,0,nan,nan,0,0,0
1168000,0,0,0,0,0,0.25,0.0,655.35,655.35,0.0,0.0,0,0,0.0,0.0,0.0,0.0,0.0,0,nan,nan,0,0,0
1172000,0,0,0,0,0,0.25,0.0,655.35,655.35,0.0,0.0,0,0,0.0,0.0,0.0,0.0,0.0,0,nan,nan,0,0,0
1176000,0,0,0,0,0,0.25,0.0,655.35,655.35,0.0,0.0,0,0,0.0,0.0,0.0,0.0,0.0,0,nan,nan,0,0,0
1176000,0,0,0,0,0,0.25,0.0,655.35,655.35,0.0,0.0,0,0,0.0,0.0,0.0,0.0,0.0,0,nan,nan,0,0,0
1180000,0,0,0,0,0,0.25,0.0,655.35,655.35,0.0,0.0,0,0,0.0,0.0,0.0,0.0,0.0,0,nan,nan,0,0,0
1184000,0,0,0,0,0,0.25,0.0,655.35,655.35,0.0,0.0,0,0,0.0,0.0,0.0,0.0,0.0,0,nan,nan,0,0,0
1188000,0,0,0,0,0,0.25,0.0,655.35,655.35,0.0,0.0,0,0,0.0,0.0,0.0,0.0,0.0,0,nan,nan,0,0,0
1192000,0,0,0,0,0,0.25,0.0,655.35,655.35,0.0,0.0,0,0,0.0,0.0,0.0,0.0,0.0,0,nan,nan,0,0,0
1196000,0,0,0,0,0,0.25,0.0,655.35,655.35,0.0,0.0,0,0,0.0,0.0,0.0,0.0,0.0,0,nan,nan,0,0,0
1200000,0,0,0,0,0,0.25,0.0,655.35,655.35,0.0,0.0,0,0,0.0,0.0,0.0,0.0,0.0,0,nan,nan,0,0,0
1204000,0,0,0,0,0,0.25,0.0,655.35,655.35,0.0,0.0,0,0,0.0,0.0,0.0,0.0,0.0,0,nan,nan,0,0,0
1204000,0,0,0,0,0,0.25,0.0,655.35,655.35,0.0,0.0,0,0,0.0,0.0,0.0,0.0,0.0,0,nan,nan,0,0,0
1208000,0,0,0,0,0,0.25,0.0,655.35,655.35,0.0,0.0,0,0,0.0,0.0,0.0,0.0,0.0,0,nan,nan,0,0,0
1212000,0,0,0,0,0,0.25,0.0,655.35,655.35,0.0,0.0,0,0,0.0,0.0,0.0,0.0,0.0,0,nan,nan,0,0,0
1216000,0,0,0,0,0,0.25,0.0,655.35,655.35,0.0,0.0,0,0,0.0,0.0,0.0,0.0,0.0,0,nan,nan,0,0,0
1216000,0,473977419,85455941,487977,0,0.25,0.0,97.78,97.78,0.0,0.0,0,0,0.0,0.0,0.0,0.0,0.0,0,nan,nan,0,0,10
1316000,0,473977419,85455940,487986,0,0.25,0.0,95.61,95.62,0.0,0.0,0,0,0.0,0.0,0.0,0.0,0.0,0,nan,nan,0,0,10
1416000,0,473977419,85455940,487986,0,0.25,0.0,91.42,91.43,0.0,0.0,0,0,0.0,0.0,0.0,0.0,0.0,0,nan,nan,0,0,10
1516000,0,473977419,85455941,487999,0,0.25,0.0,87.42,87.43,0.0,0.0,0,0,0.0,0.0,0.0,0.0,0.0,0,nan,nan,0,0,10
1616000,0,473977420,85455941,487998,0,0.25,0.0,83.59,83.61,0.0,0.0,0,0,0.0,0.0,0.0,0.0,0.0,0,nan,nan,0,0,10
1716000,0,473977419,85455939,488012,0,0.25,0.0,79.93,79.95,0.0,0.0,0,0,0.0,0.0,0.0,0.0,0.0,0,nan,nan,0,0,10
1816000,0,473977418,85455940,488012,0,0.25,0.0,76.43,76.45,0.0,0.0,0,0,0.0,0.0,0.0,0.0,0.0,0,nan,nan,0,0,10
1916000,0,473977419,85455938,488003,0,0.25,0.0,73.08,73.11,0.0,0.0,0,0,0.0,0.0,0.0,0.0,0.0,0,nan,nan,0,0,10
2016000,0,473977418,85455938,488004,0,0.25,0.0,69.88,69.91,0.0,0.0,0,0,0.0,0.0,0.0,0.0,0.0,0,nan,nan,0,0,10
2116000,0,473977418,85455939,488012,0,0.25,0.0,66.83,66.86,0.0,0.0,0,0,0.0,0.0,0.0,0.0,0.0,0,nan,nan,0,0,10
2216000,0,473977420,85455939,488016,0,0.25,0.0,63.9,63.94,0.0,0.0,0,0,0.0,0.0,0.0,0.0,0.0,0,nan,nan,0,0,10
2316000,0,473977421,85455940,488002,0,0.25,0.0,61.11,61.14,0.0,0.0,0,0,0.0,0.0,0.0,0.0,0.0,0,nan,nan,0,0,10
2416000,0,473977420,85455939,487998,0,0.25,0.0,58.43,58.47,0.0,0.0,0,0,0.0,0.0,0.0,0.0,0.0,0,nan,nan,0,0,10
2516000,0,473977420,85455938,487994,0,0.25,0.0,57.14,57.18,0.0,0.0,0,0,0.0,0.0,0.0,0.0,0.0,0,nan,nan,0,0,10
2616000,0,473977420,85455939,488010,0,0.25,0.0,54.64,54.69,0.0,0.0,0,0,0.0,0.0,0.0,0.0,0.0,0,nan,nan,0,0,10
2716000,0,473977420,85455939,488007,0,0.25,0.0,52.25,52.3,0.0,0.0,0,0,0.0,0.0,0.0,0.0,0.0,0,nan,nan,0,0,10
2816000,0,473977420,85455937,488010,0,0.25,0.0,49.97,50.02,0.0,0.0,0,0,0.0,0.0,0.0,0.0,0.0,0,nan,nan,0,0,10
2916000,0,473977419,85455938,488001,0,0.25,0.0,47.79,47.84,0.0,0.0,0,0,0.0,0.0,0.0,0.0,0.0,0,nan,nan,0,0,10
3016000,0,473977420,85455940,488003,0,0.25,0.0,45.7,45.75,0.0,0.0,0,0,0.0,0.0,0.0,0.0,0.0,0,nan,nan,0,0,10
3116000,0,473977419,85455938,487990,0,0.25,0.0,43.7,43.76,0.0,0.0,0,0,0.0,0.0,0.0,0.0,0.0,0,nan,nan,0,0,10
3216000,0,473977417,85455940,488003,0,0.25,0.0,41.8,41.85,0.0,0.0,0,0,0.0,0.0,0.0,0.0,0.0,0,nan,nan,0,0,10
3316000,0,473977420,85455940,487996,0,0.25,0.0,39.97,40.03,0.0,0.0,0,0,0.0,0.0,0.0,0.0,0.0,0,nan,nan,0,0,10
3416000,0,473977419,85455938,487991,0,0.25,0.0,38.23,38.29,0.0,0.0,0,0,0.0,0.0,0.0,0.0,0.0,0,nan,nan,0,0,10
3516000,0,473977419,85455940,488010,0,0.25,0.0,36.56,36.62,0.0,0.0,0,0,0.0,0.0,0.0,0.0,0.0,0,nan,nan,0,0,10
3616000,0,473977420,85455941,488011,0,0.25,0.0,34.97,35.03,0.0,0.0,0,0,0.0,0.0,0.0,0.0,0.0,0,nan,nan,0,0,10
3716000,0,473977419,85455941,487995,0,0.25,0.0,33.44,33.51,0.0,0.0,0,0,0.0,0.0,0.0,0.0,0.0,0,nan,nan,0,0,10
3816000,0,473977420,85455942,487999,0,0.25,0.0,32.71,32.77,0.0,0.0,0,0,0.0,0.0,0.0,0.0,0.0,0,nan,nan,0,0,10
3916000,0,473977420,85455940,487997,0,0.25,0.0,31.28,31.35,0.0,0.0,0,0,0.0,0.0,0.0,0.0,0.0,0,nan,nan,0,0,10
4016000,0,473977420,85455939,487998,0,0.25,0.0,29.92,29.99,0.0,0.0,0,0,0.0,0.0,0.0,0.0,0.0,0,nan,nan,0,0,10
4116000,0,473977419,85455939,488005,0,0.25,0.0,28.62,28.69,0.0,0.0,0,0,0.0,0.0,0.0,0.0,0.0,0,nan,nan,0,0,10
4216000,0,473977419,85455938,488002,0,0.25,0.0,27.37,27.45,0.0,0.0,0,0,0.0,0.0,0.0,0.0,0.0,0,nan,nan,0,0,10
4316000,0,473977421,85455940,487991,0,0.25,0.0,26.18,26.26,0.0,0.0,0,0,0.0,0.0,0.0,0.0,0.0,0,nan,nan,0,0,10
4416000,0,473977419,85455939,487995,0,0.25,0.0,25.05,25.12,0.0,0.0,0,0,0.0,0.0,0.0,0.0,0.0,0,nan,nan,0,0,10
4516000,0,473977418,85455940,487989,0,0.25,0.0,23.96,24.03,0.0,0.0,0,0,0.0,0.0,0.0,0.0,0.0,0,nan,nan,0,0,10
4616000,0,473977419,85455938,487993,0,0.25,0.0,22.92,23.0,0.0,0.0,0,0,0.0,0.0,0.0,0.0,0.0,0,nan,nan,0,0,10
4720000,0,473977419,85455940,488001,0,0.25,0.0,21.92,22.0,0.0,0.0,0,0,0.0,0.0,0.0,0.0,0.0,0,nan,nan,0,0,10
4820000,0,473977419,85455940,487986,0,0.25,0.0,20.97,21.05,0.0,0.0,0,0,0.0,0.0,0.0,0.0,0.0,0,nan,nan,0,0,10
4920000,0,473977420,85455940,487999,0,0.25,0.0,20.06,20.14,0.0,0.0,0,0,0.0,0.0,0.0,0.0,0.0,0,nan,nan,0,0,10
5020000,0,473977420,85455940,488007,0,0.25,0.0,19.2,19.28,0.0,0.0,0,0,0.0,0.0,0.0,0.0,0.0,0,nan,nan,0,0,10
5120000,0,473977422,85455939,488007,0,0.25,0.0,18.36,18.45,0.0,0.0,0,0,0.0,0.0,0.0,0.0,0.0,0,nan,nan,0,0,10
5220000,0,473977421,85455939,487998,0,0.25,0.0,17.96,18.05,0.0,0.0,0,0,0.0,0.0,0.0,0.0,0.0,0,nan,nan,0,0,10
5320000,0,473977419,85455938,487983,0,0.25,0.0,17.19,17.27,0.0,0.0,0,0,0.0,0.0,0.0,0.0,0.0,0,nan,nan,0,0,10
5420000,0,473977421,85455937,488006,0,0.25,0.0,16.44,16.53,0.0,0.0,0,0,0.0,0.0,0.0,0.0,0.0,0,nan,nan,0,0,10
5520000,0,473977419,85455940,487988,0,0.25,0.0,15.73,15.82,0.0,0.0,0,0,0.0,0.0,0.0,0.0,0.0,0,nan,nan,0,0,10
5620000,0,473977419,85455939,487976,0,0.25,0.0,15.06,15.14,0.0,0.0,0,0,0.0,0.0,0.0,0.0,0.0,0,nan,nan,0,0,10
5720000,0,473977420,85455940,487978,0,0.25,0.0,14.41,14.49,0.0,0.0,0,0,0.0,0.0,0.0,0.0,0.0,0,nan,nan,0,0,10
5820000,0,473977420,85455938,487999,0,0.25,0.0,13.79,13.87,0.0,0.0,0,0,0.0,0.0,0.0,0.0,0.0,0,nan,nan,0,0,10
5920000,0,473977419,85455941,487994,0,0.25,0.0,13.19,13.28,0.0,0.0,0,0,0.0,0.0,0.0,0.0,0.0,0,nan,nan,0,0,10
6020000,0,473977420,85455942,488017,0,0.25,0.0,12.63,12.71,0.0,0.0,0,0,0.0,0.0,0.0,0.0,0.0,0,nan,nan,0,0,10
6120000,0,473977420,85455941,488008,0,0.25,0.0,12.08,12.17,0.0,0.0,0,0,0.0,0.0,0.0,0.0,0.0,0,nan,nan,0,0,10
6220000,0,473977421,85455939,488015,0,0.25,0.0,11.57,11.66,0.0,0.0,0,0,0.0,0.0,0.0,0.0,0.0,0,nan,nan,0,0,10
6320000,0,473977419,85455940,488022,0,0.25,0.0,11.07,11.16,0.0,0.0,0,0,0.0,0.0,0.0,0.0,0.0,0,nan,nan,0,0,10
6420000,0,473977419,85455940,488023,0,0.25,0.0,10.6,10.69,0.0,0.0,0,0,0.0,0.0,0.0,0.0,0.0,0,nan,nan,0,0,10
6520000,0,473977418,85455939,488009,0,0.25,0.0,10.37,10.46,0.0,0.0,0,0,0.0,0.0,0.0,0.0,0.0,0,nan,nan,0,0,10
6620000,0,473977419,85455941,488011,0,0.25,0.0,9.93,10.02,0.0,0.0,0,0,0.0,0.0,0.0,0.0,0.0,0,nan,nan,0,0,10
6720000,0,473977420,85455941,487990,0,0.25,0.0,9.5,9.59,0.0,0.0,0,0,0.0,0.0,0.0,0.0,0.0,0,nan,nan,0,0,10
6820000,0,473977420,85455939,488012,0,0.25,0.0,9.1,9.19,0.0,0.0,0,0,0.0,0.0,0.0,0.0,0.0,0,nan,nan,0,0,10
6920000,0,473977419,85455939,488018,0,0.25,0.0,8.71,8.8,0.0,0.0,0,0,0.0,0.0,0.0,0.0,0.0,0,nan,nan,0,0,10
7020000,0,473977419,85455941,488011,0,0.25,0.0,8.34,8.43,0.0,0.0,0,0,0.0,0.0,0.0,0.0,0.0,0,nan,nan,0,0,10
7120000,0,473977419,85455938,487999,0,0.25,0.0,7.99,8.08,0.0,0.0,0,0,0.0,0.0,0.0,0.0,0.0,0,nan,nan,0,0,10
7220000,0,473977418,85455939,488011,0,0.25,0.0,7.65,7.74,0.0,0.0,0,0,0.0,0.0,0.0,0.0,0.0,0,nan,nan,0,0,10
7320000,0,473977420,85455940,488005,0,0.25,0.0,7.33,7.42,0.0,0.0,0,0,0.0,0.0,0.0,0.0,0.0,0,nan,nan,0,0,10
7420000,0,473977420,85455940,488007,0,0.25,0.0,7.02,7.11,0.0,0.0,0,0,0.0,0.0,0.0,0.0,0.0,0,nan,nan,0,0,10
7520000,0,473977421,85455939,488014,0,0.25,0.0,6.72,6.82,0.0,0.0,0,0,0.0,0.0,0.0,0.0,0.0,0,nan,nan,0,0,10
7620000,0,473977420,85455941,488002,0,0.25,0.0,6.44,6.53,0.0,0.0,0,0,0.0,0.0,0.0,0.0,0.0,0,nan,nan,0,0,10
7720000,0,473977420,85455943,487997,0,0.25,0.0,6.17,6.26,0.0,0.0,0,0,0.0,0.0,0.0,0.0,0.0,0,nan,nan,0,0,10
7820000,0,473977419,85455943,487984,0,0.25,0.0,6.04,6.13,0.0,0.0,0,0,0.0,0.0,0.0,0.0,0.0,0,nan,nan,0,0,10
7920000,0,473977421,85455940,487999,0,0.25,0.0,5.79,5.88,0.0,0.0,0,0,0.0,0.0,0.0,0.0,0.0,0,nan,nan,0,0,10
8020000,0,473977419,85455940,487987,0,0.25,0.0,5.54,5.64,0.0,0.0,0,0,0.0,0.0,0.0,0.0,0.0,0,nan,nan,0,0,10
8120000,0,473977419,85455938,488001,0,0.25,0.0,5.31,5.41,0.0,0.0,0,0,0.0,0.0,0.0,0.0,0.0,0,nan,nan,0,0,10
8220000,0,473977420,85455939,487995,0,0.25,0.0,5.09,5.19,0.0,0.0,0,0,0.0,0.0,0.0,0.0,0.0,0,nan,nan,0,0,10
8320000,0,473977419,85455941,488005,0,0.25,0.0,4.88,4.98,0.0,0.0,0,0,0.0,0.0,0.0,0.0,0.0,0,nan,nan,0,0,10
8420000,0,473977418,85455938,488007,0,0.25,0.0,4.68,4.78,0.0,0.0,0,0,0.0,0.0,0.0,0.0,0.0,0,nan,nan,0,0,10
8520000,0,473977420,85455938,488005,0,0.25,0.0,4.49,4.58,0.0,0.0,0,0,0.0,0.0,0.0,0.0,0.0,0,nan,nan,0,0,10
8620000,0,473977420,85455941,487993,0,0.25,0.0,4.3,4.4,0.0,0.0,0,0,0.0,0.0,0.0,0.0,0.0,0,nan,nan,0,0,10
8720000,0,473977419,85455939,488005,0,0.25,0.0,4.13,4.22,0.0,0.0,0,0,0.0,0.0,0.0,0.0,0.0,0,nan,nan,0,0,10
8820000,0,473977419,85455941,488006,0,0.25,0.0,3.96,4.06,0.0,0.0,0,0,0.0,0.0,0.0,0.0,0.0,0,nan,nan,2,0,10
8920000,0,473977421,85455939,488008,0,0.25,0.0,3.8,3.89,0.0,0.0,0,0,0.0,0.0,0.0,0.0,0.0,0,nan,nan,2,0,10
9020000,0,473977419,85455940,487993,0,0.25,0.0,3.64,3.74,0.0,0.0,0,0,0.0,0.0,0.0,0.0,0.0,0,nan,nan,2,0,10
9120000,0,473977419,85455941,487976,0,0.25,0.0,3.57,3.67,0.0,0.0,0,0,0.0,0.0,0.0,0.0,0.0,0,nan,nan,2,0,10
9220000,0,473977418,85455942,487982,0,0.25,0.0,3.43,3.52,0.0,0.0,0,0,0.0,0.0,0.0,0.0,0.0,0,nan,nan,2,0,10
9320000,0,473977418,85455940,488000,0,0.25,0.0,3.29,3.39,0.0,0.0,0,0,0.0,0.0,0.0,0.0,0.0,0,nan,nan,2,0,10
9420000,0,473977419,85455941,488007,0,0.25,0.0,3.16,3.25,0.0,0.0,0,0,0.0,0.0,0.0,0.0,0.0,0,nan,nan,2,0,10
9520000,0,473977419,85455941,488003,0,0.25,0.0,3.03,3.13,0.0,0.0,0,0,0.0,0.0,0.0,0.0,0.0,0,nan,nan,2,0,10
9620000,0,473977419,85455940,488002,0,0.25,0.0,2.91,3.01,0.0,0.0,0,0,0.0,0.0,0.0,0.0,0.0,0,nan,nan,3,0,10
9720000,0,473977420,85455939,488000,0,0.25,0.0,2.8,2.89,0.0,0.0,0,0,0.0,0.0,0.0,0.0,0.0,0,nan,nan,3,0,10
9820000,0,473977420,85455938,487983,0,0.25,0.0,2.69,2.78,0.0,0.0,0,0,0.0,0.0,0.0,0.0,0.0,0,nan,nan,3,0,10
9920000,0,473977418,85455940,487997,0,0.25,0.0,2.58,2.68,0.0,0.0,0,0,0.0,0.0,0.0,0.0,0.0,0,nan,nan,3,0,10
10020000,0,473977419,85455940,488004,0,0.25,0.0,2.48,2.58,0.0,0.0,0,0,0.0,0.0,0.0,0.0,0.0,0,nan,nan,3,0,10
10120000,0,473977418,85455939,488012,0,0.25,0.0,2.38,2.48,0.0,0.0,0,0,0.0,0.0,0.0,0.0,0.0,0,nan,nan,3,0,10
10220000,0,473977418,85455939,488013,0,0.25,0.0,2.29,2.39,0.0,0.0,0,0,0.0,0.0,0.0,0.0,0.0,0,nan,nan,3,0,10
10320000,0,473977417,85455938,487998,0,0.25,0.0,2.2,2.3,0.0,0.0,0,0,0.0,0.0,0.0,0.0,0.0,0,nan,nan,3,0,10
10420000,0,473977418,85455941,487989,0,0.25,0.0,2.16,2.26,0.0,0.0,0,0,0.0,0.0,0.0,0.0,0.0,0,nan,nan,3,0,10
10520000,0,473977418,85455941,487982,0,0.25,0.0,2.08,2.18,0.0,0.0,0,0,0.0,0.0,0.0,0.0,0.0,0,nan,nan,3,0,10
10620000,0,473977419,85455938,487993,0,0.25,0.0,2.0,2.1,0.0,0.0,0,0,0.0,0.0,0.0,0.0,0.0,0,nan,nan,3,0,10
10720000,0,473977419,85455940,487986,0,0.25,0.0,1.93,2.03,0.0,0.0,0,0,0.0,0.0,0.0,0.0,0.0,0,nan,nan,3,0,10
10820000,0,473977419,85455939,487972,0,0.25,0.0,1.86,1.95,0.0,0.0,0,0,0.0,0.0,0.0,0.0,0.0,0,nan,nan,3,0,10
10920000,0,473977419,85455941,488000,0,0.25,0.0,1.79,1.88,0.0,0.0,0,0,0.0,0.0,0.0,0.0,0.0,0,nan,nan,3,0,10
11020000,0,473977420,85455942,488008,0,0.25,0.0,1.72,1.82,0.0,0.0,0,0,0.0,0.0,0.0,0.0,0.0,0,nan,nan,3,0,10
11120000,0,473977419,85455940,488001,0,0.25,0.0,1.66,1.76,0.0,0.0,0,0,0.0,0.0,0.0,0.0,0.0,0,nan,nan,3,0,10
11220000,0,473977421,85455938,488003,0,0.25,0.0,1.6,1.7,0.0,0.0,0,0,0.0,0.0,0.0,0.0,0.0,0,nan,nan,3,0,10
11320000,0,473977419,85455940,488023,0,0.25,0.0,1.54,1.64,0.0,0.0,0,0,0.0,0.0,0.0,0.0,0.0,0,nan,nan,3,0,10
11420000,0,473977420,85455939,487998,0,0.25,0.0,1.49,1.59,0.0,0.0,0,0,0.0,0.0,0.0,0.0,0.0,0,nan,nan,3,0,10
11520000,0,473977419,85455940,488004,0,0.25,0.0,1.43,1.53,0.0,0.0,0,0,0.0,0.0,0.0,0.0,0.0,0,nan,nan,3,0,10
11620000,0,473977420,85455940,488010,0,0.25,0.0,1.38,1.48,0.0,0.0,0,0,0.0,0.0,0.0,0.0,0.0,0,nan,nan,3,0,10
11720000,0,473977420,85455941,488008,0,0.25,0.0,1.36,1.46,0.0,0.0,0,0,0.0,0.0,0.0,0.0,0.0,0,nan,nan,3,0,10
11820000,0,473977420,85455940,488001,0,0.25,0.0,1.31,1.41,0.0,0.0,0,0,0.0,0.0,0.0,0.0,0.0,0,nan,nan,3,0,10
11920000,0,473977419,85455941,488019,0,0.25,0.0,1.27,1.37,0.0,0.0,0,0,0.0,0.0,0.0,0.0,0.0,0,nan,nan,3,0,10
12020000,0,473977419,85455939,487998,0,0.25,0.0,1.23,1.32,0.0,0.0,0,0,0.0,0.0,0.0,0.0,0.0,0,nan,nan,3,0,10
12120000,0,473977419,85455941,488012,0,0.25,0.0,1.18,1.28,0.0,0.0,0,0,0.0,0.0,0.0,0.0,0.0,0,nan,nan,3,0,10
12220000,0,473977419,85455939,488007,0,0.25,0.0,1.15,1.24,0.0,0.0,0,0,0.0,0.0,0.0,0.0,0.0,0,nan,nan,3,0,10
12320000,0,473977419,85455939,488001,0,0.25,0.0,1.11,1.21,0.0,0.0,0,0,0.0,0.0,0.0,0.0,0.0,0,nan,nan,3,0,10
12420000,0,473977419,85455938,488005,0,0.25,0.0,1.07,1.17,0.0,0.0,0,0,0.0,0.0,0.0,0.0,0.0,0,nan,nan,3,0,10
12520000,0,473977420,85455939,488006,0,0.25,0.0,1.04,1.14,0.0,0.0,0,0,0.0,0.0,0.0,0.0,0.0,0,nan,nan,3,0,10
12620000,0,473977421,85455938,488007,0,0.25,0.0,1.01,1.1,0.0,0.0,0,0,0.0,0.0,0.0,0.0,0.0,0,nan,nan,3,0,10
12720000,0,473977421,85455938,488011,0,0.25,0.0,0.97,1.07,0.0,0.0,0,0,0.0,0.0,0.0,0.0,0.0,0,nan,nan,3,0,10
12820000,0,473977419,85455940,488003,0,0.25,0.0,0.94,1.04,0.0,0.0,0,0,0.0,0.0,0.0,0.0,0.0,0,nan,nan,3,0,10
12920000,0,473977420,85455940,488007,0,0.25,0.0,0.92,1.02,0.0,0.0,0,0,0.0,0.0,0.0,0.0,0.0,0,nan,nan,3,0,10
13020000,0,473977419,85455940,488004,0,0.25,0.0,0.9,1.0,0.0,0.0,0,0,0.0,0.0,0.0,0.0,0.0,0,nan,nan,3,0,10
13120000,0,473977420,85455938,488003,0,0.25,0.0,0.88,0.97,0.0,0.0,0,0,0.0,0.0,0.0,0.0,0.0,0,nan,nan,3,0,10
13220000,0,473977420,85455939,487978,0,0.25,0.0,0.85,0.95,0.0,0.0,0,0,0.0,0.0,0.0,0.0,0.0,0,nan,nan,3,0,10
13320000,0,473977420,85455940,488004,0,0.25,0.0,0.83,0.92,0.0,0.0,0,0,0.0,0.0,0.0,0.0,0.0,0,nan,nan,3,0,10
13420000,0,473977420,85455941,488005,0,0.25,0.0,0.8,0.9,0.0,0.0,0,0,0.0,0.0,0.0,0.0,0.0,0,nan,nan,3,0,10
13520000,0,473977420,85455940,488004,0,0.25,0.0,0.78,0.88,0.0,0.0,0,0,0.0,0.0,0.0,0.0,0.0,0,nan,nan,3,0,10
13620000,0,473977420,85455939,487994,0,0.25,0.0,0.76,0.86,0.0,0.0,0,0,0.0,0.0,0.0,0.0,0.0,0,nan,nan,3,0,10
13720000,0,473977419,85455940,487992,0,0.25,0.0,0.74,0.84,0.0,0.0,0,0,0.0,0.0,0.0,0.0,0.0,0,nan,nan,3,0,10
13820000,0,473977420,85455942,488002,0,0.25,0.0,0.72,0.82,0.0,0.0,0,0,0.0,0.0,0.0,0.0,0.0,0,nan,nan,3,0,10
13920000,0,473977419,85455942,488000,0,0.25,0.0,0.7,0.8,0.0,0.0,0,0,0.0,0.0,0.0,0.0,0.0,0,nan,nan,3,0,10
14020000,0,473977420,85455938,488010,0,0.25,0.0,0.68,0.78,0.0,0.0,0,0,0.0,0.0,0.0,0.0,0.0,0,nan,nan,3,0,10
14120000,0,473977420,85455938,488007,0,0.25,0.0,0.67,0.76,0.0,0.0,0,0,0.0,0.0,0.0,0.0,0.0,0,nan,nan,3,0,10
14220000,0,473977418,85455939,488010,0,0.25,0.0,0.65,0.75,0.0,0.0,0,0,0.0,0.0,0.0,0.0,0.0,0,nan,nan,3,0,10
14320000,0,473977418,85455939,488001,0,0.25,0.0,0.64,0.74,0.0,0.0,0,0,0.0,0.0,0.0,0.0,0.0,0,nan,nan,3,0,10
14420000,0,473977420,85455939,488005,0,0.25,0.0,0.63,0.73,0.0,0.0,0,0,0.0,0.0,0.0,0.0,0.0,0,nan,nan,3,0,10
14520000,0,473977418,85455940,488018,0,0.25,0.0,0.61,0.71,0.0,0.0,0,0,0.0,0.0,0.0,0.0,0.0,0,nan,nan,3,0,10
14620000,0,473977420,85455941,487999,0,0.25,0.0,0.6,0.7,0.0,0.0,0,0,0.0,0.0,0.0,0.0,0.0,0,nan,nan,3,0,10
14720000,0,473977420,85455942,488001,0,0.25,0.0,0.58,0.68,0.0,0.0,0,0,0.0,0.0,0.0,0.0,0.0,0,nan,nan,3,0,10
14820000,0,473977419,85455938,487998,0,0.25,0.0,0.57,0.67,0.0,0.0,0,0,0.0,0.0,0.0,0.0,0.0,0,nan,nan,3,0,10
14920000,0,473977420,85455940,487980,0,0.25,0.0,0.56,0.66,0.0,0.0,0,0,0.0,0.0,0.0,0.0,0.0,0,nan,nan,3,0,10
15020000,0,473977421,85455940,487986,0,0.25,0.0,0.55,0.65,0.0,0.0,0,0,0.0,0.0,0.0,0.0,0.0,0,nan,nan,3,0,10
15120000,0,473977420,85455940,487997,0,0.25,0.0,0.54,0.64,0.0,0.0,0,0,0.0,0.0,0.0,0.0,0.0,0,nan,nan,3,0,10
15220000,0,473977420,85455940,487995,0,0.25,0.0,0.53,0.63,0.0,0.0,0,0,0.0,0.0,0.0,0.0,0.0,0,nan,nan,3,0,10
15320000,0,473977419,85455939,487987,0,0.25,0.0,0.52,0.62,0.0,0.0,0,0,0.0,0.0,0.0,0.0,0.0,0,nan,nan,3,0,10
15420000,0,473977420,85455939,487987,0,0.25,0.0,0.51,0.61,0.0,0.0,0,0,0.0,0.0,0.0,0.0,0.0,0,nan,nan,3,0,10
15520000,0,473977421,85455940,487996,0,0.25,0.0,0.5,0.6,0.0,0.0,0,0,0.0,0.0,0.0,0.0,0.0,0,nan,nan,3,0,10
15620000,0,473977421,85455941,488004,0,0.25,0.0,0.49,0.59,0.0,0.0,0,0,0.0,0.0,0.0,0.0,0.0,0,nan,nan,3,0,10
15720000,0,473977420,85455940,488004,0,0.25,0.0,0.48,0.58,0.0,0.0,0,0,0.0,0.0,0.0,0.0,0.0,0,nan,nan,3,0,10
15820000,0,473977419,85455940,487996,0,0.25,0.0,0.48,0.58,0.0,0.0,0,0,0.0,0.0,0.0,0.0,0.0,0,nan,nan,3,0,10
15920000,0,473977420,85455941,487985,0,0.25,0.0,0.47,0.57,0.0,0.0,0,0,0.0,0.0,0.0,0.0,0.0,0,nan,nan,3,0,10
16020000,0,473977419,85455940,487996,0,0.25,0.0,0.46,0.56,0.0,0.0,0,0,0.0,0.0,0.0,0.0,0.0,0,nan,nan,3,0,10
16120000,0,473977419,85455938,488003,0,0.25,0.0,0.45,0.55,0.0,0.0,0,0,0.0,0.0,0.0,0.0,0.0,0,nan,nan,3,0,10
16220000,0,473977420,85455940,488005,0,0.25,0.0,0.45,0.55,0.0,0.0,0,0,0.0,0.0,0.0,0.0,0.0,0,nan,nan,3,0,10
16320000,0,473977419,85455941,488001,0,0.25,0.0,0.44,0.54,0.0,0.0,0,0,0.0,0.0,0.0,0.0,0.0,0,nan,nan,3,0,10
16420000,0,473977421,85455941,488019,0,0.25,0.0,0.43,0.53,0.0,0.0,0,0,0.0,0.0,0.0,0.0,0.0,0,nan,nan,3,0,10
16520000,0,473977420,85455941,488005,0,0.25,0.0,0.43,0.53,0.0,0.0,0,0,0.0,0.0,0.0,0.0,0.0,0,nan,nan,3,0,10
16620000,0,473977420,85455941,487985,0,0.25,0.0,0.42,0.52,0.0,0.0,0,0,0.0,0.0,0.0,0.0,0.0,0,nan,nan,3,0,10
16720000,0,473977421,85455942,487990,0,0.25,0.0,0.42,0.52,0.0,0.0,0,0,0.0,0.0,0.0,0.0,0.0,0,nan,nan,3,0,10
16820000,0,473977419,85455941,488004,0,0.25,0.0,0.41,0.51,0.0,0.0,0,0,0.0,0.0,0.0,0.0,0.0,0,nan,nan,3,0,10
16920000,0,473977419,85455939,488004,0,0.25,0.0,0.41,0.51,0.0,0.0,0,0,0.0,0.0,0.0,0.0,0.0,0,nan,nan,3,0,10
17020000,0,473977419,85455940,488013,0,0.25,0.0,0.4,0.5,0.0,0.0,0,0,0.0,0.0,0.0,0.0,0.0,0,nan,nan,3,0,10
17120000,0,473977420,85455941,487992,0,0.25,0.0,0.4,0.5,0.0,0.0,0,0,0.0,0.0,0.0,0.0,0.0,0,nan,nan,3,0,10
17220000,0,473977419,85455940,487983,0,0.25,0.0,0.39,0.49,0.0,0.0,0,0,0.0,0.0,0.0,0.0,0.0,0,nan,nan,3,0,10
17320000,0,473977417,85455941,487989,0,0.25,0.0,0.39,0.49,0.0,0.0,0,0,0.0,0.0,0.0,0.0,0.0,0,nan,nan,3,0,10
17420000,0,473977417,85455941,487981,0,0.25,0.0,0.38,0.48,0.0,0.0,0,0,0.0,0.0,0.0,0.0,0.0,0,nan,nan,3,0,10
17520000,0,473977420,85455941,487984,0,0.25,0.0,0.38,0.48,0.0,0.0,0,0,0.0,0.0,0.0,0.0,0.0,0,nan,nan,3,0,10
17620000,0,473977420,85455941,488004,0,0.25,0.0,0.38,0.48,0.0,0.0,0,0,0.0,0.0,0.0,0.0,0.0,0,nan,nan,3,0,10
17720000,0,473977419,85455940,488016,0,0.25,0.0,0.37,0.47,0.0,0.0,0,0,0.0,0.0,0.0,0.0,0.0,0,nan,nan,3,0,10
17820000,0,473977420,85455937,488018,0,0.25,0.0,0.37,0.47,0.0,0.0,0,0,0.0,0.0,0.0,0.0,0.0,0,nan,nan,3,0,10
17920000,0,473977418,85455940,488019,0,0.25,0.0,0.37,0.47,0.0,0.0,0,0,0.0,0.0,0.0,0.0,0.0,0,nan,nan,3,0,10
18020000,0,473977419,85455941,488007,0,0.25,0.0,0.36,0.46,0.0,0.0,0,0,0.0,0.0,0.0,0.0,0.0,0,nan,nan,3,0,10
18120000,0,473977417,85455937,488007,0,0.25,0.0,0.36,0.46,0.0,0.0,0,0,0.0,0.0,0.0,0.0,0.0,0,nan,nan,3,0,10
18220000,0,473977418,85455940,488002,0,0.25,0.0,0.36,0.46,0.0,0.0,0,0,0.0,0.0,0.0,0.0,0.0,0,nan,nan,3,0,10
18320000,0,473977419,85455939,488002,0,0.25,0.0,0.36,0.46,0.0,0.0,0,0,0.0,0.0,0.0,0.0,0.0,0,nan,nan,3,0,10
18420000,0,473977419,85455939,488005,0,0.25,0.0,0.35,0.45,0.0,0.0,0,0,0.0,0.0,0.0,0.0,0.0,0,nan,nan,3,0,10
18520000,0,473977420,85455938,488011,0,0.25,0.0,0.35,0.45,0.0,0.0,0,0,0.0,0.0,0.0,0.0,0.0,0,nan,nan,3,0,10
18620000,0,473977418,85455941,488010,0,0.25,0.0,0.35,0.45,0.0,0.0,0,0,0.0,0.0,0.0,0.0,0.0,0,nan,nan,3,0,10
18720000,0,473977418,85455941,488001,0,0.25,0.0,0.35,0.45,0.0,0.0,0,0,0.0,0.0,0.0,0.0,0.0,0,nan,nan,3,0,10
18820000,0,473977419,85455940,487997,0,0.25,0.0,0.34,0.44,0.0,0.0,0,0,0.0,0.0,0.0,0.0,0.0,0,nan,nan,3,0,10
18920000,0,473977418,85455938,487995,0,0.25,0.0,0.34,0.44,0.0,0.0,0,0,0.0,0.0,0.0,0.0,0.0,0,nan,nan,3,0,10
19020000,0,473977417,85455939,488003,0,0.25,0.0,0.34,0.44,0.0,0.0,0,0,0.0,0.0,0.0,0.0,0.0,0,nan,nan,3,0,10
19120000,0,473977420,85455940,487987,0,0.25,0.0,0.34,0.44,0.0,0.0,0,0,0.0,0.0,0.0,0.0,0.0,0,nan,nan,3,0,10
19220000,0,473977419,85455942,488010,0,0.25,0.0,0.34,0.44,0.0,0.0,0,0,0.0,0.0,0.0,0.0,0.0,0,nan,nan,3,0,10
19320000,0,473977419,85455940,488007,0,0.25,0.0,0.33,0.43,0.0,0.0,0,0,0.0,0.0,0.0,0.0,0.0,0,nan,nan,3,0,10
19420000,0,473977419,85455940,487995,0,0.25,0.0,0.33,0.43,0.0,0.0,0,0,0.0,0.0,0.0,0.0,0.0,0,nan,nan,3,0,10
19520000,0,473977419,85455940,487985,0,0.25,0.0,0.33,0.43,0.0,0.0,0,0,0.0,0.0,0.0,0.0,0.0,0,nan,nan,3,0,10
19620000,0,473977419,85455939,487994,0,0.25,0.0,0.33,0.43,0.0,0.0,0,0,0.0,0.0,0.0,0.0,0.0,0,nan,nan,3,0,10
19720000,0,473977419,85455941,488007,0,0.25,0.0,0.33,0.43,0.0,0.0,0,0,0.0,0.0,0.0,0.0,0.0,0,nan,nan,3,0,10
19820000,0,473977419,85455941,488000,0,0.25,0.0,0.33,0.43,0.0,0.0,0,0,0.0,0.0,0.0,0.0,0.0,0,nan,nan,3,0,10
19920000,0,473977420,85455938,487993,0,0.25,0.0,0.33,0.43,0.0,0.0,0,0,0.0,0.0,0.0,0.0,0.0,0,nan,nan,3,0,10
20020000,0,473977419,85455938,487995,0,0.25,0.0,0.32,0.42,0.0,0.0,0,0,0.0,0.0,0.0,0.0,0.0,0,nan,nan,3,0,10
20120000,0,473977420,85455939,487990,0,0.25,0.0,0.32,0.42,0.0,0.0,0,0,0.0,0.0,0.0,0.0,0.0,0,nan,nan,3,0,10
20220000,0,473977419,85455937,488008,0,0.25,0.0,0.32,0.42,0.0,0.0,0,0,0.0,0.0,0.0,0.0,0.0,0,nan,nan,3,0,10
20320000,0,473977419,85455939,487998,0,0.25,0.0,0.32,0.42,0.0,0.0,0,0,0.0,0.0,0.0,0.0,0.0,0,nan,nan,3,0,10
20420000,0,473977418,85455938,487989,0,0.25,0.0,0.32,0.42,0.0,0.0,0,0,0.0,0.0,0.0,0.0,0.0,0,nan,nan,3,0,10
20520000,0,473977419,85455937,487991,0,0.25,0.0,0.32,0.42,0.0,0.0,0,0,0.0,0.0,0.0,0.0,0.0,0,nan,nan,3,0,10
20620000,0,473977420,85455939,487994,0,0.25,0.0,0.32,0.42,0.0,0.0,0,0,0.0,0.0,0.0,0.0,0.0,0,nan,nan,3,0,10
20720000,0,473977420,85455940,487997,0,0.25,0.0,0.32,0.42,0.0,0.0,0,0,0.0,0.0,0.0,0.0,0.0,0,nan,nan,3,0,10
20820000,0,473977420,85455940,488000,0,0.25,0.0,0.32,0.42,0.0,0.0,0,0,0.0,0.0,0.0,0.0,0.0,0,nan,nan,3,0,10
20920000,0,473977420,85455939,487990,0,0.25,0.0,0.31,0.41,0.0,0.0,0,0,0.0,0.0,0.0,0.0,0.0,0,nan,nan,3,0,10
21020000,0,473977418,85455940,488018,0,0.25,0.0,0.31,0.41,0.0,0.0,0,0,0.0,0.0,0.0,0.0,0.0,0,nan,nan,3,0,10
21120000,0,473977419,85455939,488011,0,0.25,0.0,0.31,0.41,0.0,0.0,0,0,0.0,0.0,0.0,0.0,0.0,0,nan,nan,3,0,10
21220000,0,473977419,85455939,488005,0,0.25,0.0,0.31,0.41,0.0,0.0,0,0,0.0,0.0,0.0,0.0,0.0,0,nan,nan,3,0,10
21320000,0,473977420,85455939,488011,0,0.25,0.0,0.31,0.41,0.0,0.0,0,0,0.0,0.0,0.0,0.0,0.0,0,nan,nan,3,0,10
21420000,0,473977420,85455938,488014,0,0.25,0.0,0.31,0.41,0.0,0.0,0,0,0.0,0.0,0.0,0.0,0.0,0,nan,nan,3,0,10
21520000,0,473977421,85455938,488019,0,0.25,0.0,0.31,0.41,0.0,0.0,0,0,0.0,0.0,0.0,0.0,0.0,0,nan,nan,3,0,10
21620000,0,473977419,85455940,488003,0,0.25,0.0,0.31,0.41,0.0,0.0,0,0,0.0,0.0,0.0,0.0,0.0,0,nan,nan,3,0,10
21720000,0,473977420,85455940,487998,0,0.25,0.0,0.31,0.41,0.0,0.0,0,0,0.0,0.0,0.0,0.0,0.0,0,nan,nan,3,0,10
21820000,0,473977419,85455940,487997,0,0.25,0.0,0.31,0.41,0.0,0.0,0,0,0.0,0.0,0.0,0.0,0.0,0,nan,nan,3,0,10
21920000,0,473977418,85455941,488010,0,0.25,0.0,0.31,0.41,0.0,0.0,0,0,0.0,0.0,0.0,0.0,0.0,0,nan,nan,3,0,10
22020000,0,473977419,85455941,488010,0,0.25,0.0,0.31,0.41,0.0,0.0,0,0,0.0,0.0,0.0,0.0,0.0,0,nan,nan,3,0,10
22120000,0,473977419,85455941,488010,0,0.25,0.0,0.31,0.41,0.0,0.0,0,0,0.0,0.0,0.0,0.0,0.0,0,nan,nan,3,0,10
22220000,0,473977420,85455941,488013,0,0.25,0.0,0.31,0.41,0.0,0.0,0,0,0.0,0.0,0.0,0.0,0.0,0,nan,nan,3,0,10
22320000,0,473977420,85455939,487991,0,0.25,0.0,0.31,0.41,0.0,0.0,0,0,0.0,0.0,0.0,0.0,0.0,0,nan,nan,3,0,10
22420000,0,473977420,85455939,487996,0,0.25,0.0,0.31,0.41,0.0,0.0,0,0,0.0,0.0,0.0,0.0,0.0,0,nan,nan,3,0,10
22520000,0,473977419,85455940,487996,0,0.25,0.0,0.3,0.4,0.0,0.0,0,0,0.0,0.0,0.0,0.0,0.0,0,nan,nan,3,0,10
22620000,0,473977419,85455941,488012,0,0.25,0.0,0.3,0.4,0.0,0.0,0,0,0.0,0.0,0.0,0.0,0.0,0,nan,nan,3,0,10
22720000,0,473977420,85455939,488009,0,0.25,0.0,0.3,0.4,0.0,0.0,0,0,0.0,0.0,0.0,0.0,0.0,0,nan,nan,3,0,10
22820000,0,473977420,85455939,488017,0,0.25,0.0,0.3,0.4,0.0,0.0,0,0,0.0,0.0,0.0,0.0,0.0,0,nan,nan,3,0,10
22920000,0,473977419,85455940,487994,0,0.25,0.0,0.3,0.4,0.0,0.0,0,0,0.0,0.0,0.0,0.0,0.0,0,nan,nan,3,0,10
23020000,0,473977419,85455940,488003,0,0.25,0.0,0.3,0.4,0.0,0.0,0,0,0.0,0.0,0.0,0.0,0.0,0,nan,nan,3,0,10
23120000,0,473977419,85455939,488002,0,0.25,0.0,0.3,0.4,0.0,0.0,0,0,0.0,0.0,0.0,0.0,0.0,0,nan,nan,3,0,10
23220000,0,473977419,85455940,487999,0,0.25,0.0,0.3,0.4,0.0,0.0,0,0,0.0,0.0,0.0,0.0,0.0,0,nan,nan,3,0,10
23320000,0,473977421,85455940,488002,0,0.25,0.0,0.3,0.4,0.0,0.0,0,0,0.0,0.0,0.0,0.0,0.0,0,nan,nan,3,0,10
23420000,0,473977420,85455941,488000,0,0.25,0.0,0.3,0.4,0.0,0.0,0,0,0.0,0.0,0.0,0.0,0.0,0,nan,nan,3,0,10
23520000,0,473977419,85455940,488007,0,0.25,0.0,0.3,0.4,0.0,0.0,0,0,0.0,0.0,0.0,0.0,0.0,0,nan,nan,3,0,10
23620000,0,473977419,85455939,487997,0,0.25,0.0,0.3,0.4,0.0,0.0,0,0,0.0,0.0,0.0,0.0,0.0,0,nan,nan,3,0,10
23720000,0,473977419,85455937,488002,0,0.25,0.0,0.3,0.4,0.0,0.0,0,0,0.0,0.0,0.0,0.0,0.0,0,nan,nan,3,0,10
23820000,0,473977420,85455939,487992,0,0.25,0.0,0.3,0.4,0.0,0.0,0,0,0.0,0.0,0.0,0.0,0.0,0,nan,nan,3,0,10
23920000,0,473977420,85455939,487993,0,0.25,0.0,0.3,0.4,0.0,0.0,0,0,0.0,0.0,0.0,0.0,0.0,0,nan,nan,3,0,10
24020000,0,473977418,85455939,487999,0,0.25,0.0,0.3,0.4,0.0,0.0,0,0,0.0,0.0,0.0,0.0,0.0,0,nan,nan,3,0,10
24120000,0,473977419,85455939,487995,0,0.25,0.0,0.3,0.4,0.0,0.0,0,0,0.0,0.0,0.0,0.0,0.0,0,nan,nan,3,0,10
24220000,0,473977420,85455940,487992,0,0.25,0.0,0.3,0.4,0.0,0.0,0,0,0.0,0.0,0.0,0.0,0.0,0,nan,nan,3,0,10
24320000,0,473977421,85455940,487993,0,0.25,0.0,0.3,0.4,0.0,0.0,0,0,0.0,0.0,0.0,0.0,0.0,0,nan,nan,3,0,10
24420000,0,473977419,85455939,487994,0,0.25,0.0,0.3,0.4,0.0,0.0,0,0,0.0,0.0,0.0,0.0,0.0,0,nan,nan,3,0,10
24520000,0,473977418,85455938,487987,0,0.25,0.0,0.3,0.4,0.0,0.0,0,0,0.0,0.0,0.0,0.0,0.0,0,nan,nan,3,0,10
24620000,0,473977420,85455940,487998,0,0.25,0.0,0.3,0.4,0.0,0.0,0,0,0.0,0.0,0.0,0.0,0.0,0,nan,nan,3,0,10
24720000,0,473977422,85455942,488011,0,0.25,0.0,0.3,0.4,0.0,0.0,0,0,0.0,0.0,0.0,0.0,0.0,0,nan,nan,3,0,10
24820000,0,473977419,85455940,488005,0,0.25,0.0,0.3,0.4,0.0,0.0,0,0,0.0,0.0,0.0,0.0,0.0,0,nan,nan,3,0,10
24920000,0,473977420,85455939,487998,0,0.25,0.0,0.3,0.4,0.0,0.0,0,0,0.0,0.0,0.0,0.0,0.0,0,nan,nan,3,0,10
25020000,0,473977419,85455939,487991,0,0.25,0.0,0.3,0.4,0.0,0.0,0,0,0.0,0.0,0.0,0.0,0.0,0,nan,nan,3,0,10
25120000,0,473977418,85455941,487994,0,0.25,0.0,0.3,0.4,0.0,0.0,0,0,0.0,0.0,0.0,0.0,0.0,0,nan,nan,3,0,10
25220000,0,473977418,85455940,488003,0,0.25,0.0,0.3,0.4,0.0,0.0,0,0,0.0,0.0,0.0,0.0,0.0,0,nan,nan,3,0,10
25320000,0,473977418,85455941,488006,0,0.25,0.0,0.3,0.4,0.0,0.0,0,0,0.0,0.0,0.0,0.0,0.0,0,nan,nan,3,0,10
25420000,0,473977420,85455939,488008,0,0.25,0.0,0.3,0.4,0.0,0.0,0,0,0.0,0.0,0.0,0.0,0.0,0,nan,nan,3,0,10
25520000,0,473977419,85455939,487994,0,0.25,0.0,0.3,0.4,0.0,0.0,0,0,0.0,0.0,0.0,0.0,0.0,0,nan,nan,3,0,10
25620000,0,473977420,85455939,487997,0,0.25,0.0,0.3,0.4,0.0,0.0,0,0,0.0,0.0,0.0,0.0,0.0,0,nan,nan,3,0,10
25720000,0,473977421,85455939,487981,0,0.25,0.0,0.3,0.4,0.0,0.0,0,0,0.0,0.0,0.0,0.0,0.0,0,nan,nan,3,0,10
25820000,0,473977420,85455939,487984,0,0.25,0.0,0.3,0.4,0.0,0.0,0,0,0.0,0.0,0.0,0.0,0.0,0,nan,nan,3,0,10
25920000,0,473977420,85455939,488010,0,0.25,0.0,0.3,0.4,0.0,0.0,0,0,0.0,0.0,0.0,0.0,0.0,0,nan,nan,3,0,10
26020000,0,473977420,85455937,488010,0,0.25,0.0,0.3,0.4,0.0,0.0,0,0,0.0,0.0,0.0,0.0,0.0,0,nan,nan,3,0,10
26120000,0,473977420,85455936,488013,0,0.25,0.0,0.3,0.4,0.0,0.0,0,0,0.0,0.0,0.0,0.0,0.0,0,nan,nan,3,0,10
26220000,0,473977420,85455939,488005,0,0.25,0.0,0.3,0.4,0.0,0.0,0,0,0.0,0.0,0.0,0.0,0.0,0,nan,nan,3,0,10
26320000,0,473977418,85455937,487999,0,0.25,0.0,0.3,0.4,0.0,0.0,0,0,0.0,0.0,0.0,0.0,0.0,0,nan,nan,3,0,10
26420000,0,473977419,85455936,488021,0,0.25,0.0,0.3,0.4,0.0,0.0,0,0,0.0,0.0,0.0,0.0,0.0,0,nan,nan,3,0,10
26520000,0,473977420,85455938,487984,0,0.25,0.0,0.3,0.4,0.0,0.0,0,0,0.0,0.0,0.0,0.0,0.0,0,nan,nan,3,0,10
26620000,0,473977420,85455937,487984,0,0.25,0.0,0.3,0.4,0.0,0.0,0,0,0.0,0.0,0.0,0.0,0.0,0,nan,nan,3,0,10
26720000,0,473977420,85455938,488002,0,0.25,0.0,0.3,0.4,0.0,0.0,0,0,0.0,0.0,0.0,0.0,0.0,0,nan,nan,3,0,10
26820000,0,473977420,85455938,488016,0,0.25,0.0,0.3,0.4,0.0,0.0,0,0,0.0,0.0,0.0,0.0,0.0,0,nan,nan,3,0,10
26920000,0,473977419,85455941,488004,0,0.25,0.0,0.3,0.4,0.0,0.0,0,0,0.0,0.0,0.0,0.0,0.0,0,nan,nan,3,0,10
27020000,0,473977421,85455942,488018,0,0.25,0.0,0.3,0.4,0.0,0.0,0,0,0.0,0.0,0.0,0.0,0.0,0,nan,nan,3,0,10
27120000,0,473977420,85455939,487982,0,0.25,0.0,0.3,0.4,0.0,0.0,0,0,0.0,0.0,0.0,0.0,0.0,0,nan,nan,3,0,10
27220000,0,473977420,85455939,487993,0,0.25,0.0,0.3,0.4,0.0,0.0,0,0,0.0,0.0,0.0,0.0,0.0,0,nan,nan,3,0,10
27320000,0,473977420,85455939,488014,0,0.25,0.0,0.3,0.4,0.0,0.0,0,0,0.0,0.0,0.0,0.0,0.0,0,nan,nan,3,0,10
27420000,0,473977419,85455940,488004,0,0.25,0.0,0.3,0.4,0.0,0.0,0,0,0.0,0.0,0.0,0.0,0.0,0,nan,nan,3,0,10
27520000,0,473977419,85455941,488010,0,0.25,0.0,0.3,0.4,0.0,0.0,0,0,0.0,0.0,0.0,0.0,0.0,0,nan,nan,3,0,10
27620000,0,473977419,85455941,488012,0,0.25,0.0,0.3,0.4,0.0,0.0,0,0,0.0,0.0,0.0,0.0,0.0,0,nan,nan,3,0,10
27720000,0,473977420,85455941,488008,0,0.25,0.0,0.3,0.4,0.0,0.0,0,0,0.0,0.0,0.0,0.0,0.0,0,nan,nan,3,0,10
27820000,0,473977421,85455940,487993,0,0.25,0.0,0.3,0.4,0.0,0.0,0,0,0.0,0.0,0.0,0.0,0.0,0,nan,nan,3,0,10
27920000,0,473977419,85455937,488007,0,0.25,0.0,0.3,0.4,0.0,0.0,0,0,0.0,0.0,0.0,0.0,0.0,0,nan,nan,3,0,10
28020000,0,473977421,85455939,487997,0,0.25,0.0,0.3,0.4,0.0,0.0,0,0,0.0,0.0,0.0,0.0,0.0,0,nan,nan,3,0,10
28120000,0,473977420,85455939,488001,0,0.25,0.0,0.3,0.4,0.0,0.0,0,0,0.0,0.0,0.0,0.0,0.0,0,nan,nan,3,0,10
28220000,0,473977420,85455939,487999,0,0.25,0.0,0.3,0.4,0.0,0.0,0,0,0.0,0.0,0.0,0.0,0.0,0,nan,nan,3,0,10
28320000,0,473977420,85455941,487997,0,0.25,0.0,0.3,0.4,0.0,0.0,0,0,0.0,0.0,0.0,0.0,0.0,0,nan,nan,3,0,10
28420000,0,473977420,85455941,487982,0,0.25,0.0,0.3,0.4,0.0,0.0,0,0,0.0,0.0,0.0,0.0,0.0,0,nan,nan,3,0,10
28520000,0,473977420,85455940,487988,0,0.25,0.0,0.3,0.4,0.0,0.0,0,0,0.0,0.0,0.0,0.0,0.0,0,nan,nan,3,0,10
28620000,0,473977421,85455940,487990,0,0.25,0.0,0.3,0.4,0.0,0.0,0,0,0.0,0.0,0.0,0.0,0.0,0,nan,nan,3,0,10
28720000,0,473977420,85455939,487988,0,0.25,0.0,0.3,0.4,0.0,0.0,0,0,0.0,0.0,0.0,0.0,0.0,0,nan,nan,3,0,10
28820000,0,473977420,85455938,487989,0,0.25,0.0,0.3,0.4,0.0,0.0,0,0,0.0,0.0,0.0,0.0,0.0,0,nan,nan,3,0,10
28920000,0,473977420,85455940,487991,0,0.25,0.0,0.3,0.4,0.0,0.0,0,0,0.0,0.0,0.0,0.0,0.0,0,nan,nan,3,0,10
