timestamp,ref_timestamp,ref_lat,ref_lon,x,y,z,delta_xy[0],delta_xy[1],delta_z,vx,vy,vz,z_deriv,delta_vxy[0],delta_vxy[1],delta_vz,ax,ay,az,yaw,ref_alt,dist_bottom,dist_bottom_rate,eph,epv,evh,evv,vxy_max,vz_max,hagl_min,hagl_max,xy_valid,z_valid,v_xy_valid,v_z_valid,xy_reset_counter,z_reset_counter,vxy_reset_counter,vz_reset_counter,xy_global,z_global,dist_bottom_valid
1332000,0,0.0,0.0,-8.57475e-05,0.00044341,0.0402213,1.20923e-06,-9.17782e-07,0.0,-0.00123986,0.0031539,-0.00247843,0.0281223,0.000302308,-0.000229445,0.0,0.0278191,0.00472119,0.0225808,0.00893711,0.0,0.1,0.00247843,0.272493,0.442884,0.889407,0.726364,inf,inf,inf,inf,1,1,1,1,1,0,1,1,0,0,0
1428000,0,0.0,0.0,-0.000158002,0.000669994,0.0427797,1.20923e-06,-9.17782e-07,0.0,6.92051e-05,0.00133216,-0.00139338,0.0292295,0.000302308,-0.000229445,0.0,-0.00584528,0.000214167,0.012232,0.00890369,0.0,0.104384,0.00139338,0.259632,0.433172,0.717879,0.713181,inf,inf,inf,inf,1,1,1,1,1,0,1,1,0,0,0
1524000,0,0.0,0.0,-0.000106633,0.000701662,0.0454828,1.20923e-06,-9.17782e-07,0.0,0.000892803,0.000631084,-0.00169501,0.0288643,0.000302308,-0.000229445,0.0,0.0658032,0.00771139,0.0076713,0.00884308,0.0,0.1,0.00169501,0.24821,0.430355,0.598478,0.696771,inf,inf,inf,inf,1,1,1,1,1,0,1,1,0,0,0
1620000,0,0.0,0.0,4.48506e-05,0.000650751,0.0446201,1.20923e-06,-9.17782e-07,0.0,0.00296277,-0.000699953,-0.00365224,0.0231733,0.000302308,-0.000229445,0.0,0.0196103,-0.0345165,0.0303173,0.00873627,0.0,0.1,0.00365224,0.22572,0.422001,0.493628,0.671151,inf,inf,inf,inf,1,1,1,1,1,0,1,1,0,0,0
1716000,0,0.0,0.0,0.000447625,0.000414699,0.0417551,1.20923e-06,-9.17782e-07,0.0,0.00391205,-0.00052268,-0.00651464,0.0152303,0.000302308,-0.000229445,0.0,-0.00203624,0.0206829,-0.00685267,0.00862113,0.0,0.1,0.00651464,0.21853,0.425468,0.436542,0.648901,inf,inf,inf,inf,1,1,1,1,1,0,1,1,0,0,0
1812000,0,0.0,0.0,0.00086572,0.000202726,0.0388859,1.20923e-06,-9.17782e-07,0.0,0.00495516,-0.000652614,-0.00943179,0.00834727,0.000302308,-0.000229445,0.0,0.0648652,0.00217077,-0.0340296,0.0085417,0.0,0.1,0.00943179,0.212233,0.429651,0.395712,0.625168,inf,inf,inf,inf,1,1,1,1,1,0,1,1,0,0,0
1908000,0,0.0,0.0,0.00130333,1.92066e-05,0.0365582,1.20923e-06,-9.17782e-07,0.0,0.00473136,-0.000840188,-0.0122086,0.00288369,0.000302308,-0.000229445,0.0,0.000751303,-0.0250469,0.0287378,0.00841355,0.0,0.1,0.0122086,0.198528,0.423831,0.357428,0.592999,inf,inf,inf,inf,1,1,1,1,1,0,1,1,0,0,0
2004000,0,0.0,0.0,0.00181119,-0.000213665,0.0331014,1.20923e-06,-9.17782e-07,0.0,0.00607137,-0.00126996,-0.0158514,-0.00401939,0.000302308,-0.000229445,0.0,0.00224055,0.0456763,-0.0863299,0.0080912,0.0,0.1,0.0158514,0.194749,0.427136,0.340333,0.568394,inf,inf,inf,inf,1,1,1,1,1,0,1,1,0,0,0
2100000,0,0.0,0.0,0.00229528,-0.000392972,0.02916,1.20923e-06,-9.17782e-07,0.0,0.00554259,-0.001306,-0.017583,-0.00898195,0.000302308,-0.000229445,0.0,-0.0222404,-0.0189435,0.0123354,0.00785253,0.0,0.1,0.017583,0.185098,0.420018,0.323355,0.536988,inf,inf,inf,inf,1,1,1,1,1,0,1,1,0,0,0
2196000,0,0.0,0.0,0.00262873,-0.000529428,0.0253399,1.20923e-06,-9.17782e-07,0.0,0.00602402,-0.00139417,-0.0206902,-0.0144669,0.000302308,-0.000229445,0.0,0.0141059,0.00671542,0.0346117,0.0077133,0.0,0.1,0.0206902,0.183337,0.421621,0.319781,0.514326,inf,inf,inf,inf,1,1,1,1,1,0,1,1,0,0,0
2292000,0,0.0,0.0,0.00299304,-0.000706304,0.0234129,1.20923e-06,-9.17782e-07,0.0,0.00663769,-0.0021541,-0.0214805,-0.015277,0.000302308,-0.000229445,0.0,-0.0012593,0.00927297,0.00679959,0.0073765,0.0,0.101168,0.0214805,0.182245,0.422281,0.319954,0.492997,inf,inf,inf,inf,1,1,1,1,1,0,1,1,0,0,0
2388000,0,0.0,0.0,0.00329195,-0.000948462,0.0198706,1.20923e-06,-9.17782e-07,0.0,0.00733843,-0.00367549,-0.0229803,-0.0185996,0.000302308,-0.000229445,0.0,0.0424421,-0.00805707,-0.0828607,0.00718242,0.0,0.1,0.0229803,0.181875,0.422132,0.322828,0.473274,inf,inf,inf,inf,1,1,1,1,1,0,1,1,0,0,0
2484000,0,0.0,0.0,0.00358808,-0.00126393,0.0173802,1.20923e-06,-9.17782e-07,0.0,0.00835409,-0.00484614,-0.0221545,-0.0181811,0.000302308,-0.000229445,0.0,0.0421996,-0.00401006,0.0564558,0.00705843,0.0,0.108808,0.0221545,0.176559,0.412387,0.321418,0.44896,inf,inf,inf,inf,1,1,1,1,1,0,1,1,0,0,0
2580000,0,0.0,0.0,0.0038939,-0.00163284,0.0179864,1.20923e-06,-9.17782e-07,0.0,0.0086694,-0.0051974,-0.0187063,-0.0123359,0.000302308,-0.000229445,0.0,0.0437542,-0.00502147,0.074286,0.00705358,0.0,0.109957,0.0187063,0.177793,0.41147,0.327021,0.433344,inf,inf,inf,inf,1,1,1,1,1,0,1,1,0,0,0
2676000,0,0.0,0.0,0.0042487,-0.00202401,0.0177578,1.20923e-06,-9.17782e-07,0.0,0.00977064,-0.00544045,-0.0163023,-0.00922937,0.000302308,-0.000229445,0.0,0.069012,0.0288615,-0.0208039,0.00729029,0.0,0.10314,0.0163023,0.179409,0.410053,0.332379,0.419373,inf,inf,inf,inf,1,1,1,1,1,0,1,1,0,0,0
2772000,0,0.0,0.0,0.00461229,-0.00239708,0.0182819,1.20923e-06,-9.17782e-07,0.0,0.0100306,-0.00590772,-0.0153937,-0.00712875,0.000302308,-0.000229445,0.0,0.0250496,0.000831617,-0.0266787,0.00690121,0.0,0.107089,0.0153937,0.175841,0.400227,0.330913,0.401794,inf,inf,inf,inf,1,1,1,1,1,0,1,1,0,0,0
2868000,0,0.0,0.0,0.00493873,-0.00281132,0.0191207,1.20923e-06,-9.17782e-07,0.0,0.0100614,-0.00796248,-0.0133677,-0.00398553,0.000302308,-0.000229445,0.0,0.00961436,-0.0153049,-0.0274423,0.0068109,0.0,0.103322,0.0133677,0.178256,0.398799,0.335081,0.391657,inf,inf,inf,inf,1,1,1,1,1,0,1,1,0,0,0
2964000,0,0.0,0.0,0.00509518,-0.00317446,0.0191738,1.20923e-06,-9.17782e-07,0.0,0.00895684,-0.00711448,-0.0119454,-0.00250609,0.000302308,-0.000229445,0.0,0.00904989,-0.0584431,0.0277441,0.00706501,0.0,0.1,0.0119454,0.180894,0.397377,0.338294,0.383082,inf,inf,inf,inf,1,1,1,1,1,0,1,1,0,0,0
3060000,0,0.0,0.0,0.00524567,-0.00346764,0.0188497,1.20923e-06,-9.17782e-07,0.0,0.0110389,-0.00672082,-0.0114797,-0.00255856,0.000302308,-0.000229445,0.0,0.0101312,-0.0041594,-0.030838,0.00722795,0.0,0.102295,0.0114797,0.177867,0.388569,0.333481,0.371374,inf,inf,inf,inf,1,1,1,1,1,0,1,1,0,0,0
3156000,0,0.0,0.0,0.00546839,-0.00362399,0.0182197,1.20923e-06,-9.17782e-07,0.0,0.0105041,-0.00595092,-0.0124194,-0.00413607,0.000302308,-0.000229445,0.0,0.0439664,-0.0148523,-0.0269469,0.00692914,0.0,0.100691,0.0124194,0.180716,0.38765,0.334702,0.365845,inf,inf,inf,inf,1,1,1,1,1,0,1,1,0,0,0
3252000,0,0.0,0.0,0.0055755,-0.00372356,0.0178014,1.20923e-06,-9.17782e-07,0.0,0.0106145,-0.00627646,-0.0123033,-0.00416865,0.000302308,-0.000229445,0.0,0.0317554,-0.0202432,0.0254875,0.0069565,0.0,0.106164,0.0123033,0.177674,0.379893,0.327779,0.357277,inf,inf,inf,inf,1,1,1,1,1,0,1,1,0,0,0
3348000,0,0.0,0.0,0.0056793,-0.00375075,0.0194053,1.20923e-06,-9.17782e-07,0.0,0.010491,-0.00649808,-0.00988658,-1.1745e-05,0.000302308,-0.000229445,0.0,0.0330375,-0.0247767,-0.0199527,0.00685272,0.0,0.107399,0.00988658,0.180204,0.379441,0.326965,0.353966,inf,inf,inf,inf,1,1,1,1,1,0,1,1,0,0,0
3444000,0,0.0,0.0,0.00564628,-0.00374955,0.0210526,1.20923e-06,-9.17782e-07,0.0,0.00868818,-0.00645141,-0.0074618,0.00364865,0.000302308,-0.000229445,0.0,-0.0242849,-0.0456757,0.0372278,0.00681681,0.0,0.106538,0.0074618,0.17685,0.372595,0.318396,0.347649,inf,inf,inf,inf,1,1,1,1,1,0,1,1,0,0,0
3540000,0,0.0,0.0,0.00533776,-0.0037731,0.0227414,1.20923e-06,-9.17782e-07,0.0,0.00641962,-0.00687441,-0.00557998,0.00646607,0.000302308,-0.000229445,0.0,-0.0280105,-0.0226999,0.0259997,0.00663154,0.0,0.103174,0.00557998,0.178715,0.372495,0.315772,0.345794,inf,inf,inf,inf,1,1,1,1,1,0,1,1,0,0,0
3636000,0,0.0,0.0,0.00491976,-0.00370483,0.0236305,1.20923e-06,-9.17782e-07,0.0,0.00613989,-0.00567867,-0.00556852,0.0064017,0.000302308,-0.000229445,0.0,0.0460894,0.00299845,0.00951625,0.00671646,0.0,0.104379,0.00556852,0.180399,0.372593,0.312819,0.344482,inf,inf,inf,inf,1,1,1,1,1,0,1,1,0,0,0
3732000,0,0.0,0.0,0.00451155,-0.00361144,0.025449,1.20923e-06,-9.17782e-07,0.0,0.00602675,-0.0057135,-0.00456944,0.00817965,0.000302308,-0.000229445,0.0,-0.00183185,-0.0308219,-0.0534495,0.0066909,0.0,0.102643,0.00456944,0.176297,0.36665,0.302951,0.340045,inf,inf,inf,inf,1,1,1,1,1,0,1,1,0,0,0
3828000,0,0.0,0.0,0.00410362,-0.00344759,0.0263697,1.20923e-06,-9.17782e-07,0.0,0.00566494,-0.00501204,-0.00284624,0.00957813,0.000302308,-0.000229445,0.0,-0.02583,-0.0294006,0.013331,0.00629985,0.0,0.100455,0.00284624,0.177758,0.367269,0.299967,0.339599,inf,inf,inf,inf,1,1,1,1,1,0,1,1,0,0,0
3924000,0,0.0,0.0,0.0036833,-0.00329725,0.027495,1.20923e-06,-9.17782e-07,0.0,0.00502633,-0.00533951,-4.4144e-05,0.0121268,0.000302308,-0.000229445,0.0,0.0230323,0.00690245,0.0401521,0.00633956,0.0,0.100708,4.4144e-05,0.179079,0.368074,0.296966,0.339374,inf,inf,inf,inf,1,1,1,1,1,0,1,1,0,0,0
4020000,0,0.0,0.0,0.00334532,-0.00319354,0.0288919,1.20923e-06,-9.17782e-07,0.0,0.0056745,-0.00560144,0.00104269,0.0131757,0.000302308,-0.000229445,0.0,-0.0245842,0.0485172,0.0454318,0.00601908,0.0,0.103078,-0.00104269,0.174696,0.362929,0.287505,0.335768,inf,inf,inf,inf,1,1,1,1,1,0,1,1,0,0,0
4116000,0,0.0,0.0,0.00304518,-0.00319187,0.0310466,1.20923e-06,-9.17782e-07,0.0,0.00532551,-0.00657137,0.00499784,0.0176322,0.000302308,-0.000229445,0.0,-0.042157,0.0335047,0.0243708,0.0060796,0.0,0.100931,-0.00499784,0.175823,0.364091,0.284832,0.335767,inf,inf,inf,inf,1,1,1,1,1,0,1,1,0,0,0
4212000,0,0.0,0.0,0.00273801,-0.00318996,0.0338758,1.20923e-06,-9.17782e-07,0.0,0.00416449,-0.00602565,0.00632572,0.0197811,0.000302308,-0.000229445,0.0,-0.0047594,0.0243924,0.027,0.0063603,0.0,0.103575,-0.00632572,0.176781,0.36533,0.282226,0.335707,inf,inf,inf,inf,1,1,1,1,1,0,1,1,0,0,0
4308000,0,0.0,0.0,0.00247673,-0.0030694,0.0343691,1.20923e-06,-9.17782e-07,0.0,0.00356126,-0.00477937,0.00687395,0.0184368,0.000302308,-0.000229445,0.0,-0.0203032,0.0116997,-0.0143424,0.00629525,0.0,0.1,-0.00687395,0.172557,0.360821,0.27413,0.332235,inf,inf,inf,inf,1,1,1,1,1,0,1,1,0,0,0
4404000,0,0.0,0.0,0.00219714,-0.00289572,0.0334296,1.20923e-06,-9.17782e-07,0.0,0.00336506,-0.00382525,0.00643881,0.015129,0.000302308,-0.000229445,0.0,-0.0111932,-0.0484664,0.0607241,0.00641905,0.0,0.1,-0.00643881,0.173674,0.362424,0.272459,0.332146,inf,inf,inf,inf,1,1,1,1,1,0,1,1,0,0,0
4500000,0,0.0,0.0,0.00189287,-0.00279097,0.0328956,1.20923e-06,-9.17782e-07,0.0,0.00287974,-0.00547602,0.00569719,0.0123138,0.000302308,-0.000229445,0.0,0.00809517,-0.0448171,0.0210665,0.00630606,0.0,0.1,-0.00569719,0.169657,0.358218,0.265413,0.328478,inf,inf,inf,inf,1,1,1,1,1,0,1,1,0,0,0
4596000,0,0.0,0.0,0.00157912,-0.00267529,0.0336605,1.20923e-06,-9.17782e-07,0.0,0.00176957,-0.00392331,0.0076159,0.013773,0.000302308,-0.000229445,0.0,0.00258936,0.0626828,0.0332799,0.00603648,0.0,0.1,-0.0076159,0.170743,0.359941,0.26421,0.328069,inf,inf,inf,inf,1,1,1,1,1,0,1,1,0,0,0
4692000,0,0.0,0.0,0.00114828,-0.00244644,0.034174,1.20923e-06,-9.17782e-07,0.0,-0.000527867,-0.0028723,0.00712231,0.0125028,0.000302308,-0.000229445,0.0,-0.0401581,-0.0298352,-0.0809021,0.00574323,0.0,0.1,-0.00712231,0.171829,0.361701,0.263289,0.327468,inf,inf,inf,inf,1,1,1,1,1,0,1,1,0,0,0
4788000,0,0.0,0.0,0.000652032,-0.00218758,0.0361727,1.20923e-06,-9.17782e-07,0.0,-0.000406628,-0.00176754,0.00779497,0.0139721,0.000302308,-0.000229445,0.0,-0.0282721,0.0553166,-0.0162218,0.00570203,0.0,0.100415,-0.00779497,0.167976,0.35762,0.257193,0.323215,inf,inf,inf,inf,1,1,1,1,1,0,1,1,0,0,0
4884000,0,0.0,0.0,0.000108136,-0.00180069,0.0386566,1.20923e-06,-9.17782e-07,0.0,-0.00284165,-0.001067,0.00966785,0.0168456,0.000302308,-0.000229445,0.0,-0.030194,0.0204043,-0.0394937,0.00601741,0.0,0.102157,-0.00966785,0.169094,0.359377,0.256736,0.322192,inf,inf,inf,inf,1,1,1,1,1,0,1,1,0,0,0
4980000,0,0.0,0.0,-0.000597323,-0.00138726,0.0408059,1.20923e-06,-9.17782e-07,0.0,-0.00547004,-0.000778837,0.00870813,0.0163559,0.000302308,-0.000229445,0.0,-0.0723464,-0.0252683,0.0454709,0.00619404,0.0,0.1,-0.00870813,0.165508,0.355369,0.251367,0.317573,inf,inf,inf,inf,1,1,1,1,1,0,1,1,0,0,0
5076000,0,0.0,0.0,0.0,0.0,0.0407471,1.20923e-06,-9.17782e-07,0.0,-0.00712369,-0.000399388,0.00688594,0.0127847,0.000302308,-0.000229445,0.0,0.0142385,0.0132424,-0.0116862,0.00608047,0.0,0.1,-0.00688594,0.166749,0.357118,0.251307,0.316174,inf,inf,inf,inf,0,1,0,1,1,0,1,1,0,0,0
5172000,0,0.0,0.0,0.0,0.0,0.0414379,1.20923e-06,-9.17782e-07,0.0,-0.00850961,-6.28472e-05,0.00766816,0.0129712,0.000302308,-0.000229445,0.0,-0.0293479,-0.0133522,0.0485685,0.00582482,0.0,0.1,-0.00766816,0.168006,0.358816,0.251352,0.314559,inf,inf,inf,inf,0,1,0,1,1,0,1,1,0,0,0
5268000,0,0.0,0.0,0.0,0.0,0.042866,1.20923e-06,-9.17782e-07,0.0,-0.0110749,0.00090852,0.0086391,0.0140326,0.000302308,-0.000229445,0.0,0.00544641,0.0119366,-0.00811461,0.00613945,0.0,0.1,-0.0086391,0.164627,0.354736,0.246563,0.309384,inf,inf,inf,inf,0,1,0,1,1,0,1,1,0,0,0
5364000,0,0.0,0.0,0.0,0.0,0.0443892,1.20923e-06,-9.17782e-07,0.0,-0.0139378,0.00106302,0.00980905,0.0152998,0.000302308,-0.000229445,0.0,0.0118493,0.0475323,-0.0152662,0.0063985,0.0,0.1,-0.00980905,0.165898,0.356288,0.246591,0.307378,inf,inf,inf,inf,0,1,0,1,1,0,1,1,0,0,0
5460000,0,0.0,0.0,0.0,0.0,0.0450963,1.20923e-06,-9.17782e-07,0.0,-0.0132484,0.00124933,0.0105652,0.0152095,0.000302308,-0.000229445,0.0,-0.110166,-0.0177368,0.0320729,0.00649824,0.0,0.1,-0.0105652,0.167094,0.3577,0.246517,0.305138,inf,inf,inf,inf,0,1,0,1,1,0,1,1,0,0,0
5556000,0,0.0,0.0,0.0,0.0,0.0463126,1.20923e-06,-9.17782e-07,0.0,-0.013802,0.00105414,0.0105385,0.0149774,0.000302308,-0.000229445,0.0,0.0224427,0.0104395,-0.00272691,0.00662942,0.0,0.1,-0.0105385,0.163735,0.353383,0.241674,0.299458,inf,inf,inf,inf,0,1,0,1,1,0,1,1,0,0,0
5652000,0,0.0,0.0,0.0,0.0,0.0497678,1.20923e-06,-9.17782e-07,0.0,-0.0156136,0.00137048,0.0134652,0.0198013,0.000302308,-0.000229445,0.0,-0.0226808,0.0106497,-0.0377595,0.00696436,0.0,0.102192,-0.0134652,0.164785,0.354512,0.241355,0.296836,inf,inf,inf,inf,0,1,0,1,1,0,1,1,0,0,0
5748000,0,0.0,0.0,0.0,0.0,0.0552095,1.20923e-06,-9.17782e-07,0.0,-0.014562,0.00194893,0.0157657,0.0254075,0.000302308,-0.000229445,0.0,-0.0164452,0.0314012,0.00977144,0.00720328,0.0,0.103583,-0.0157657,0.165959,0.355629,0.241142,0.294149,inf,inf,inf,inf,0,1,0,1,1,0,1,1,0,0,0
5844000,0,0.0,0.0,0.0,0.0,0.0588749,1.20923e-06,-9.17782e-07,0.0,-0.0166018,0.00271525,0.0180756,0.028585,0.000302308,-0.000229445,0.0,-0.000999142,0.0130694,-0.0521056,0.00729102,0.0,0.1,-0.0180756,0.162663,0.351123,0.236314,0.288191,inf,inf,inf,inf,0,1,0,1,1,0,1,1,0,0,0
5940000,0,0.0,0.0,0.0,0.0,0.0627439,1.20923e-06,-9.17782e-07,0.0,-0.0167655,0.00287379,0.0213389,0.0324868,0.000302308,-0.000229445,0.0,-0.0659078,0.0206242,-0.00601821,0.0070956,0.0,0.1,-0.0213389,0.163847,0.352087,0.236062,0.285332,inf,inf,inf,inf,0,1,0,1,1,0,1,1,0,0,0
6036000,0,0.0,0.0,0.0,0.0,0.063172,1.20923e-06,-9.17782e-07,0.0,-0.0139615,0.00398105,0.0202434,0.0283542,0.000302308,-0.000229445,0.0,0.020971,0.0395923,0.0265362,0.00714259,0.0,0.1,-0.0202434,0.165032,0.352968,0.235668,0.282388,inf,inf,inf,inf,0,1,0,1,1,0,1,1,0,0,0
6132000,0,0.0,0.0,0.0,0.0,0.0613501,1.20923e-06,-9.17782e-07,0.0,-0.0136654,0.0049982,0.0181546,0.0216635,0.000302308,-0.000229445,0.0,-0.0397161,0.0266594,-0.00316463,0.00706649,0.0,0.1,-0.0181546,0.1618,0.348358,0.23076,0.276356,inf,inf,inf,inf,0,1,0,1,1,0,1,1,0,0,0
6228000,0,0.0,0.0,0.0,0.0,0.0579152,1.20923e-06,-9.17782e-07,0.0,-0.0127263,0.00412733,0.0154578,0.0136787,0.000302308,-0.000229445,0.0,-0.0526825,-0.0588043,0.0129286,0.00709429,0.0,0.1,-0.0154578,0.162958,0.349095,0.230271,0.273325,inf,inf,inf,inf,0,1,0,1,1,0,1,1,0,0,0
6324000,0,0.0,0.0,0.0,0.0,0.0533297,1.20923e-06,-9.17782e-07,0.0,-0.0116803,0.00415355,0.0113263,0.00420429,0.000302308,-0.000229445,0.0,0.0404514,0.0384253,0.0190521,0.00694866,0.0,0.1,-0.0113263,0.164101,0.349754,0.229665,0.270246,inf,inf,inf,inf,0,1,0,1,1,0,1,1,0,0,0
6420000,0,0.0,0.0,0.0,0.0,0.0483565,1.20923e-06,-9.17782e-07,0.0,-0.0101402,0.00413149,0.00824473,-0.00348053,0.000302308,-0.000229445,0.0,-0.000571173,-0.0451669,0.036655,0.00702284,0.0,0.1,-0.00824473,0.160891,0.345081,0.22465,0.264271,inf,inf,inf,inf,0,1,0,1,1,0,1,1,0,0,0
6516000,0,0.0,0.0,0.0,0.0,0.0437147,1.20923e-06,-9.17782e-07,0.0,-0.00988786,0.00527549,0.00437112,-0.0107664,0.000302308,-0.000229445,0.0,-0.0141087,0.0655139,-0.0557471,0.00727306,0.0,0.1,-0.00437112,0.161985,0.345615,0.22391,0.261174,inf,inf,inf,inf,0,1,0,1,1,0,1,1,0,0,0
6612000,0,0.0,0.0,0.0,0.0,0.0405957,1.20923e-06,-9.17782e-07,0.0,-0.0101649,0.0077715,0.00111331,-0.0151257,0.000302308,-0.000229445,0.0,-0.0233828,0.0329409,-0.0445051,0.00719406,0.0,0.1,-0.00111331,0.163055,0.346078,0.223052,0.258058,inf,inf,inf,inf,0,1,0,1,1,0,1,1,0,0,0
6708000,0,0.0,0.0,0.0,0.0,0.0384256,1.20923e-06,-9.17782e-07,0.0,-0.00869793,0.00894752,-5.42844e-05,-0.0161671,0.000302308,-0.000229445,0.0,0.0327331,0.0787986,-0.0223154,0.00720716,0.0,0.1,5.42844e-05,0.15986,0.341391,0.21802,0.252246,inf,inf,inf,inf,0,1,0,1,1,0,1,1,0,0,0
6804000,0,0.0,0.0,0.0,0.0,0.0360708,1.20923e-06,-9.17782e-07,0.0,-0.00599499,0.0100848,-0.00155422,-0.0177177,0.000302308,-0.000229445,0.0,0.0183987,0.0520022,-0.0524223,0.0075104,0.0,0.1,0.00155422,0.160882,0.341756,0.217085,0.249168,inf,inf,inf,inf,0,1,0,1,1,0,1,1,0,0,0
6900000,0,0.0,0.0,0.0,0.0,0.033702,1.20923e-06,-9.17782e-07,0.0,-0.00388025,0.0100304,4.31737e-05,-0.0162944,0.000302308,-0.000229445,0.0,0.0183998,-0.00472867,-0.0111703,0.00766968,0.0,0.1,-4.31737e-05,0.15779,0.337163,0.212126,0.243559,inf,inf,inf,inf,0,1,0,1,1,0,1,1,0,0,0
6996000,0,0.0,0.0,0.0,0.0,0.0310537,1.20923e-06,-9.17782e-07,0.0,-0.00041062,0.0103627,-0.00171946,-0.0185191,0.000302308,-0.000229445,0.0,0.0333677,0.0269019,0.0431472,0.00796351,0.0,0.1,0.00171946,0.158748,0.337441,0.211026,0.240542,inf,inf,inf,inf,0,1,0,1,1,0,1,1,0,0,0
7092000,0,0.0,0.0,0.0,0.0,0.0291631,1.20923e-06,-9.17782e-07,0.0,0.00281372,0.00942801,-0.00250234,-0.0188866,0.000302308,-0.000229445,0.0,0.0434805,0.0643433,-0.000566244,0.00809115,0.0,0.1,0.00250234,0.15967,0.337662,0.209816,0.237538,inf,inf,inf,inf,0,1,0,1,1,0,1,1,0,0,0
7188000,0,0.0,0.0,0.0,0.0,0.0282757,1.20923e-06,-9.17782e-07,0.0,0.0034617,0.0104516,-0.00250271,-0.0175344,0.000302308,-0.000229445,0.0,-0.0423116,0.0554745,0.0196379,0.00811741,0.0,0.1,0.00250271,0.156635,0.333152,0.204947,0.232211,inf,inf,inf,inf,0,1,0,1,1,0,1,1,0,0,0
7284000,0,0.0,0.0,0.0,0.0,0.0268309,1.20923e-06,-9.17782e-07,0.0,0.00435977,0.0104676,-0.00231594,-0.0167613,0.000302308,-0.000229445,0.0,-0.00626538,0.0340386,-0.0181403,0.00791639,0.0,0.100975,0.00231594,0.157548,0.333344,0.20378,0.22932,inf,inf,inf,inf,0,1,0,1,1,0,1,1,0,0,0
7380000,0,0.0,0.0,0.0,0.0,0.0257624,1.20923e-06,-9.17782e-07,0.0,0.00560047,0.00989507,-0.00262961,-0.0162352,0.000302308,-0.000229445,0.0,0.0451262,-0.0347426,-0.0260593,0.00790576,0.0,0.1,0.00262961,0.15459,0.328943,0.199016,0.22422,inf,inf,inf,inf,0,1,0,1,1,0,1,1,0,0,0
7476000,0,0.0,0.0,0.0,0.0,0.0252345,1.20923e-06,-9.17782e-07,0.0,0.00550818,0.00999015,-0.00248657,-0.0148092,0.000302308,-0.000229445,0.0,0.0107983,-0.0230096,0.00239816,0.00801735,0.0,0.102298,0.00248657,0.15543,0.329071,0.1978,0.221422,inf,inf,inf,inf,0,1,0,1,1,0,1,1,0,0,0
7572000,0,0.0,0.0,0.0,0.0,0.0251074,1.20923e-06,-9.17782e-07,0.0,0.00713334,0.0103161,-0.00137227,-0.0122315,0.000302308,-0.000229445,0.0,0.0280918,-0.0258251,0.0045253,0.00794111,0.0,0.102975,0.00137227,0.156237,0.329154,0.196504,0.218652,inf,inf,inf,inf,0,1,0,1,1,0,1,1,0,0,0
7668000,0,0.0,0.0,0.0,0.0,0.0248536,1.20923e-06,-9.17782e-07,0.0,0.00802549,0.0100667,-0.00246192,-0.0121899,0.000302308,-0.000229445,0.0,-0.00682452,0.015406,-0.0251485,0.00823827,0.0,0.10215,0.00246192,0.153276,0.324823,0.191858,0.213833,inf,inf,inf,inf,0,1,0,1,1,0,1,1,0,0,0
7764000,0,0.0,0.0,0.0,0.0,0.0248924,1.20923e-06,-9.17782e-07,0.0,0.00697031,0.0116728,-0.00304718,-0.011403,0.000302308,-0.000229445,0.0,-0.0497384,0.00687125,-0.0425614,0.00818705,0.0,0.102982,0.00304718,0.154026,0.32486,0.190576,0.211171,inf,inf,inf,inf,0,1,0,1,1,0,1,1,0,0,0
7860000,0,0.0,0.0,0.0,0.0,0.0255777,1.20923e-06,-9.17782e-07,0.0,0.00594176,0.0106917,-0.00160012,-0.0081808,0.000302308,-0.000229445,0.0,0.00190096,0.0629291,0.0333348,0.00813644,0.0,0.104929,0.00160012,0.154748,0.32486,0.189315,0.208543,inf,inf,inf,inf,0,1,0,1,1,0,1,1,0,0,0
7956000,0,0.0,0.0,0.0,0.0,0.0278329,1.20923e-06,-9.17782e-07,0.0,0.00674136,0.0110174,-5.89351e-05,-0.00372685,0.000302308,-0.000229445,0.0,0.0447231,0.0172508,-0.00715256,0.00816908,0.0,0.106787,5.89351e-05,0.151819,0.320623,0.184825,0.204014,inf,inf,inf,inf,0,1,0,1,1,0,1,1,0,0,0
8052000,0,0.0,0.0,0.0,0.0,0.0297238,1.20923e-06,-9.17782e-07,0.0,0.00719647,0.00975131,0.000145796,-0.00136388,0.000302308,-0.000229445,0.0,-0.000674248,0.0303359,-0.0560237,0.00805833,0.0,0.106687,-0.000145796,0.1525,0.320591,0.18354,0.201502,inf,inf,inf,inf,0,1,0,1,1,0,1,1,0,0,0
8148000,0,0.0,0.0,0.0,0.0,0.0317097,1.20923e-06,-9.17782e-07,0.0,0.00654902,0.00904697,-0.000102374,0.000345009,0.000302308,-0.000229445,0.0,-0.0036969,-0.0137153,-0.0205971,0.00810638,0.0,0.10465,0.000102374,0.153155,0.320529,0.182282,0.199027,inf,inf,inf,inf,0,1,0,1,1,0,1,1,0,0,0
8244000,0,0.0,0.0,0.0,0.0,0.0333684,1.20923e-06,-9.17782e-07,0.0,0.00517293,0.00867665,-0.00102799,0.000906033,0.000302308,-0.000229445,0.0,0.0274024,0.000360973,-0.0164974,0.00827827,0.0,0.103854,0.00102799,0.150277,0.316402,0.17803,0.194789,inf,inf,inf,inf,0,1,0,1,1,0,1,1,0,0,0
8340000,0,0.0,0.0,0.0,0.0,0.0343127,1.20923e-06,-9.17782e-07,0.0,0.0038538,0.0104719,-0.00123999,0.00131255,0.000302308,-0.000229445,0.0,0.0358721,0.0231423,-0.0467384,0.0082875,0.0,0.100814,0.00123999,0.150904,0.31632,0.176831,0.192431,inf,inf,inf,inf,0,1,0,1,1,0,1,1,0,0,0
8436000,0,0.0,0.0,0.0,0.0,0.0340755,1.20923e-06,-9.17782e-07,0.0,0.00246015,0.0109237,-0.000590428,0.00137336,0.000302308,-0.000229445,0.0,0.0248188,-0.00254307,-0.0319192,0.00831589,0.0,0.1,0.000590428,0.148151,0.312333,0.172821,0.188418,inf,inf,inf,inf,0,1,0,1,1,0,1,1,0,0,0
8532000,0,0.0,0.0,0.0,0.0,0.03364,1.20923e-06,-9.17782e-07,0.0,0.00274832,0.01145,-0.00187755,-0.000518055,0.000302308,-0.000229445,0.0,-0.0173514,-0.0189176,0.0572465,0.00837755,0.0,0.101803,0.00187755,0.148803,0.312267,0.171738,0.186194,inf,inf,inf,inf,0,1,0,1,1,0,1,1,0,0,0
8628000,0,0.0,0.0,0.0,0.0,0.0340863,1.20923e-06,-9.17782e-07,0.0,0.00149111,0.0119265,-0.00112775,0.000585157,0.000302308,-0.000229445,0.0,-0.0398106,0.0386364,-0.0286875,0.00835049,0.0,0.101789,0.00112775,0.149432,0.312176,0.170616,0.184007,inf,inf,inf,inf,0,1,0,1,1,0,1,1,0,0,0
8724000,0,0.0,0.0,0.0,0.0,0.0347499,1.20923e-06,-9.17782e-07,0.0,-0.000411349,0.0128898,-0.000319763,0.00187053,0.000302308,-0.000229445,0.0,0.0207704,0.0315055,-0.0409353,0.00818527,0.0,0.103294,0.000319763,0.146772,0.308331,0.166862,0.180275,inf,inf,inf,inf,0,1,0,1,1,0,1,1,0,0,0
8820000,0,0.0,0.0,0.0,0.0,0.0355114,1.20923e-06,-9.17782e-07,0.0,-0.000457791,0.0134892,-0.00085889,0.00185441,0.000302308,-0.000229445,0.0,0.0127267,-0.00843645,-0.0151293,0.00835716,0.0,0.10081,0.00085889,0.147368,0.308228,0.165783,0.178196,inf,inf,inf,inf,0,1,0,1,1,0,1,1,0,0,0
8916000,0,0.0,0.0,0.0,0.0,0.0357835,1.20923e-06,-9.17782e-07,0.0,-0.00169996,0.012761,-0.00045192,0.00223316,0.000302308,-0.000229445,0.0,-0.00171846,-0.0287496,-0.00501797,0.00829111,0.0,0.101792,0.00045192,0.147946,0.308104,0.164734,0.176153,inf,inf,inf,inf,0,1,0,1,1,0,1,1,0,0,0
9012000,0,0.0,0.0,0.0,0.0,0.0354223,1.20923e-06,-9.17782e-07,0.0,-0.0013983,0.0123324,-0.000162955,0.00184798,0.000302308,-0.000229445,0.0,-0.0149585,0.0591461,-0.00469107,0.00873378,0.0,0.100531,0.000162955,0.145337,0.304373,0.161195,0.172673,inf,inf,inf,inf,0,1,0,1,1,0,1,1,0,0,0
9108000,0,0.0,0.0,0.0,0.0,0.0362611,1.20923e-06,-9.17782e-07,0.0,-0.00262282,0.0114588,0.0010007,0.00357392,0.000302308,-0.000229445,0.0,0.0186574,-0.00771113,0.0266889,0.00884425,0.0,0.103358,-0.0010007,0.14594,0.304271,0.16025,0.17075,inf,inf,inf,inf,0,1,0,1,1,0,1,1,0,0,0
9204000,0,0.0,0.0,0.0,0.0,0.0383083,1.20923e-06,-9.17782e-07,0.0,-0.00207266,0.0120848,0.0019168,0.00599625,0.000302308,-0.000229445,0.0,0.0218448,0.0244932,-0.00365078,0.00867426,0.0,0.103283,-0.0019168,0.143476,0.300692,0.156946,0.167469,inf,inf,inf,inf,0,1,0,1,1,0,1,1,0,0,0
9300000,0,0.0,0.0,0.0,0.0,0.0401818,1.20923e-06,-9.17782e-07,0.0,-0.00141445,0.0145357,0.0035398,0.00867485,0.000302308,-0.000229445,0.0,-0.0251889,0.0367324,0.0233762,0.00854848,0.0,0.102631,-0.0035398,0.144049,0.300582,0.15603,0.165643,inf,inf,inf,inf,0,1,0,1,1,0,1,1,0,0,0
9396000,0,0.0,0.0,0.0,0.0,0.0412648,1.20923e-06,-9.17782e-07,0.0,-0.000490748,0.0144301,0.00552466,0.0106352,0.000302308,-0.000229445,0.0,0.00715944,0.0238437,0.0111628,0.00851468,0.0,0.1,-0.00552466,0.144606,0.300456,0.155166,0.16385,inf,inf,inf,inf,0,1,0,1,1,0,1,1,0,0,0
9492000,0,0.0,0.0,0.0,0.0,0.0422736,1.20923e-06,-9.17782e-07,0.0,-0.000894706,0.0145564,0.00477149,0.00974802,0.000302308,-0.000229445,0.0,-0.0264009,-0.0410685,0.0293031,0.00807373,0.0,0.10015,-0.00477149,0.142184,0.296985,0.152042,0.16079,inf,inf,inf,inf,0,1,0,1,1,0,1,1,0,0,0
9588000,0,0.0,0.0,0.0,0.0,0.0431787,1.20923e-06,-9.17782e-07,0.0,-0.000562286,0.0124034,0.00450421,0.00933675,0.000302308,-0.000229445,0.0,0.0602413,0.0113947,-0.0733323,0.00845132,0.0,0.1,-0.00450421,0.142723,0.296857,0.151208,0.15909,inf,inf,inf,inf,0,1,0,1,1,0,1,1,0,0,0
9684000,0,0.0,0.0,0.0,0.0,0.042979,1.20923e-06,-9.17782e-07,0.0,0.000521271,0.0100671,0.00269378,0.00646169,0.000302308,-0.000229445,0.0,-0.0193048,-0.0059822,-0.0123326,0.00835452,0.0,0.1,-0.00269378,0.143252,0.296716,0.150441,0.157423,inf,inf,inf,inf,0,1,0,1,1,0,1,1,0,0,0
9780000,0,0.0,0.0,0.0,0.0,0.043159,1.20923e-06,-9.17782e-07,0.0,0.000240971,0.0109451,0.00299598,0.00625864,0.000302308,-0.000229445,0.0,0.0232587,0.00139789,0.00821985,0.0080082,0.0,0.1,-0.00299598,0.140889,0.293355,0.147535,0.15457,inf,inf,inf,inf,0,1,0,1,1,0,1,1,0,0,0
9876000,0,0.0,0.0,0.0,0.0,0.0421367,1.20923e-06,-9.17782e-07,0.0,0.000428107,0.0110109,0.00292764,0.00457359,0.000302308,-0.000229445,0.0,0.0826804,0.00607621,-0.0269609,0.00787373,0.0,0.1,-0.00292764,0.14141,0.293217,0.146809,0.152991,inf,inf,inf,inf,0,1,0,1,1,0,1,1,0,0,0
9972000,0,0.0,0.0,0.0,0.0,0.0418346,1.20923e-06,-9.17782e-07,0.0,0.00290772,0.010435,0.00291669,0.00385934,0.000302308,-0.000229445,0.0,0.0288732,0.0465012,-0.0104047,0.007633,0.0,0.100188,-0.00291669,0.139148,0.289971,0.14408,0.15029,inf,inf,inf,inf,0,1,0,1,1,0,1,1,0,0,0
10068000,0,0.0,0.0,0.0,0.0,0.041871,1.20923e-06,-9.17782e-07,0.0,0.00351662,0.00837078,0.00304662,0.00368187,0.000302308,-0.000229445,0.0,-0.0736229,0.0173159,0.0342606,0.00773483,0.0,0.1,-0.00304662,0.139662,0.289838,0.143411,0.148796,inf,inf,inf,inf,0,1,0,1,1,0,1,1,0,0,0
10164000,0,0.0,0.0,0.0,0.0,0.0413569,1.20923e-06,-9.17782e-07,0.0,0.00223722,0.00652049,0.00205614,0.00185391,0.000302308,-0.000229445,0.0,-0.0832629,-0.0203316,-0.0617653,0.00771497,0.0,0.1,-0.00205614,0.140133,0.289674,0.14273,0.147321,inf,inf,inf,inf,0,1,0,1,1,0,1,1,0,0,0
10260000,10220000,47.3977418,8.5455939,0.0,0.0,0.040199,1.20923e-06,-9.17782e-07,0.0,0.00308158,0.00707495,0.00208941,0.000566049,0.000302308,-0.000229445,0.0,0.00778359,-0.00727427,-0.0263453,0.00380882,488.05,0.1,-0.00208941,0.140522,0.289484,0.138167,0.145868,inf,inf,inf,inf,0,1,0,1,1,0,1,1,1,1,0
10356000,10220000,47.3977418,8.5455939,0.0,0.0,0.0388916,1.20923e-06,-9.17782e-07,0.0,0.00567963,0.00464921,0.00246349,-0.000423039,0.000302308,-0.000229445,0.0,0.0334777,-0.0207511,-0.0199787,0.00332011,488.05,0.1,-0.00246349,0.137729,0.286308,0.129681,0.143375,inf,inf,inf,inf,0,1,0,1,1,0,1,1,1,1,0
10452000,10220000,47.3977418,8.5455939,0.0,0.0,0.0369282,1.20923e-06,-9.17782e-07,0.0,0.00713855,0.0020489,0.00314641,-0.00159648,0.000302308,-0.000229445,0.0,-0.0465223,-0.0658191,0.0273213,0.00315495,488.05,0.1,-0.00314641,0.137249,0.286134,0.127906,0.142005,inf,inf,inf,inf,0,1,0,1,1,0,1,1,1,1,0
10548000,10220000,47.3977418,8.5455939,0.0,0.0,0.0372932,1.20923e-06,-9.17782e-07,0.0,0.00756505,-0.000706787,0.00480999,0.000648923,0.000302308,-0.000229445,0.0,-0.0037501,0.0360396,-0.02719,0.00291994,488.05,0.102577,-0.00480999,0.134098,0.283076,0.129438,0.139649,inf,inf,inf,inf,0,1,0,1,1,0,1,1,1,1,0
10644000,10220000,47.3977418,8.5455939,0.0,0.0,0.0395018,1.20923e-06,-9.17782e-07,0.0,0.00828102,-0.00231411,0.00517728,0.00326151,0.000302308,-0.000229445,0.0,-0.00271617,0.00187628,0.02064,0.00314083,488.05,0.104702,-0.00517728,0.133528,0.282917,0.136379,0.138357,inf,inf,inf,inf,0,1,0,1,1,0,1,1,1,1,0
10740000,10220000,47.3977418,8.5455939,0.0,0.0,0.0415784,1.20923e-06,-9.17782e-07,0.0,0.00840408,-0.00547792,0.00732794,0.00707592,0.000302308,-0.000229445,0.0,-0.0350962,-0.0437811,-0.0202907,0.00326892,488.05,0.103513,-0.00732794,0.13322,0.282754,0.146285,0.137093,inf,inf,inf,inf,0,1,0,1,1,0,1,1,1,1,0
10836000,10220000,47.3977418,8.5455939,0.0,0.0,0.044174,1.20923e-06,-9.17782e-07,0.0,0.00827088,-0.00751186,0.00867885,0.0102138,0.000302308,-0.000229445,0.0,-0.0115473,0.00661427,-0.00630692,0.00338993,488.05,0.102566,-0.00867885,0.131076,0.279809,0.1571,0.134904,inf,inf,inf,inf,0,1,0,1,1,0,1,1,1,1,0
10932000,10220000,47.3977418,8.5455939,0.0,0.0,0.0456187,1.20923e-06,-9.17782e-07,0.0,0.00752822,-0.00943384,0.00781915,0.00974128,0.000302308,-0.000229445,0.0,-0.0312755,-0.0370397,0.0104671,0.00338562,488.05,0.1,-0.00781915,0.131894,0.279661,0.170189,0.133717,inf,inf,inf,inf,0,1,0,1,1,0,1,1,1,1,0
11028000,10220000,47.3977418,8.5455939,0.0,0.0,0.0464703,1.20923e-06,-9.17782e-07,0.0,0.00718413,-0.0107836,0.00923215,0.0109211,0.000302308,-0.000229445,0.0,-0.0102422,-0.03646,0.0261068,0.00359312,488.05,0.1,-0.00923215,0.133482,0.279511,0.183767,0.132562,inf,inf,inf,inf,0,1,0,1,1,0,1,1,1,1,0
11124000,10220000,47.3977418,8.5455939,0.0,0.0,0.0470537,1.20923e-06,-9.17782e-07,0.0,0.00710323,-0.0132875,0.00928164,0.0104787,0.000302308,-0.000229445,0.0,-0.0392046,-0.0575242,-0.00495091,0.0042328,488.05,0.1,-0.00928164,0.133472,0.276672,0.195637,0.130541,inf,inf,inf,inf,0,1,0,1,1,0,1,1,1,1,0
11220000,10220000,47.3977418,8.5455939,0.0,0.0,0.0468019,1.20923e-06,-9.17782e-07,0.0,0.00442849,-0.015643,0.0095496,0.00941945,0.000302308,-0.000229445,0.0,-0.0460296,-0.0649116,-0.0498369,0.00425767,488.05,0.1,-0.0095496,0.136609,0.276537,0.208206,0.129469,inf,inf,inf,inf,0,1,0,1,1,0,1,1,1,1,0
11316000,10220000,47.3977418,8.5455939,0.0,0.0,0.0457939,1.20923e-06,-9.17782e-07,0.0,0.00559019,-0.0163073,0.00932436,0.00734861,0.000302308,-0.000229445,0.0,0.0617388,-0.0231324,0.0241147,0.00407796,488.05,0.1,-0.00932436,0.140461,0.276401,0.219672,0.128432,inf,inf,inf,inf,0,1,0,1,1,0,1,1,1,1,0
11412000,10220000,47.3977418,8.5455939,0.0,0.0,0.0452451,1.20923e-06,-9.17782e-07,0.0,0.00433532,-0.0181516,0.00729908,0.00421004,0.000302308,-0.000229445,0.0,0.0817793,0.057237,-0.0495231,0.0037798,488.05,0.1,-0.00729908,0.141922,0.273665,0.227088,0.126583,inf,inf,inf,inf,0,1,0,1,1,0,1,1,1,1,0
11508000,10220000,47.3977418,8.5455939,0.0,0.0,0.0449756,1.20923e-06,-9.17782e-07,0.0,0.0039829,-0.0182884,0.00507835,0.00155737,0.000302308,-0.000229445,0.0,-0.00558225,-0.0122881,0.00216998,0.00370767,488.05,0.1,-0.00507835,0.146451,0.273546,0.234986,0.125634,inf,inf,inf,inf,0,1,0,1,1,0,1,1,1,1,0
11604000,10220000,47.3977418,8.5455939,0.0,0.0,0.0444507,1.20923e-06,-9.17782e-07,0.0,0.0045949,-0.0175481,0.00478131,0.000693616,0.000302308,-0.000229445,0.0,0.0622874,-0.0159266,-0.0366075,0.00339315,488.05,0.1,-0.00478131,0.147756,0.270908,0.237739,0.123915,inf,inf,inf,inf,0,1,0,1,1,0,1,1,1,1,0
11700000,10220000,47.3977418,8.5455939,0.0,0.0,0.0425714,1.20923e-06,-9.17782e-07,0.0,0.00330663,-0.0162975,0.0033639,-0.00251593,0.000302308,-0.000229445,0.0,-0.0553763,-0.0168855,0.00969879,0.0034401,488.05,0.1,-0.0033639,0.152071,0.270808,0.241502,0.123056,inf,inf,inf,inf,0,1,0,1,1,0,1,1,1,1,0
11796000,10220000,47.3977418,8.5455939,0.0,0.0,0.0401578,1.20923e-06,-9.17782e-07,0.0,0.00338975,-0.0147683,4.57126e-05,-0.00771076,0.000302308,-0.000229445,0.0,-0.0271804,-0.00538837,-0.0524083,0.00335107,488.05,0.1,-4.57126e-05,0.156128,0.270709,0.243398,0.122236,inf,inf,inf,inf,0,1,0,1,1,0,1,1,1,1,0
11892000,10220000,47.3977418,8.5455939,0.0,0.0,0.0378261,1.20923e-06,-9.17782e-07,0.0,0.0013733,-0.0116323,-0.00150572,-0.0106104,0.000302308,-0.000229445,0.0,-0.0360255,-0.0467988,-0.0283616,0.00318571,488.05,0.1,0.00150572,0.155872,0.268168,0.239506,0.120689,inf,inf,inf,inf,0,1,0,1,1,0,1,1,1,1,0
11988000,10220000,47.3977418,8.5455939,0.0,0.0,0.0357761,1.20923e-06,-9.17782e-07,0.0,0.00157658,-0.0108411,-0.00268594,-0.0125578,0.000302308,-0.000229445,0.0,0.00519822,0.0446759,0.0210665,0.00330466,488.05,0.1,0.00268594,0.158935,0.268091,0.238105,0.11996,inf,inf,inf,inf,0,1,0,1,1,0,1,1,1,1,0
12084000,10220000,47.3977418,8.5455939,0.0,0.0,0.034383,1.20923e-06,-9.17782e-07,0.0,-0.000266827,-0.00969567,-0.000520095,-0.0104754,0.000302308,-0.000229445,0.0,0.00301815,-0.0168666,-0.00190642,0.00337336,488.05,0.1,0.000520095,0.161539,0.268017,0.2355,0.119271,inf,inf,inf,inf,0,1,0,1,1,0,1,1,1,1,0
12180000,10220000,47.3977418,8.5455939,0.0,0.0,0.0329842,1.20923e-06,-9.17782e-07,0.0,-0.00155364,-0.00859426,-0.00151615,-0.0116537,0.000302308,-0.000229445,0.0,0.0327675,-0.0670659,0.0036899,0.00329954,488.05,0.100457,0.00151615,0.159466,0.265575,0.227598,0.117895,inf,inf,inf,inf,0,1,0,1,1,0,1,1,1,1,0
12276000,10220000,47.3977418,8.5455939,0.0,0.0,0.0318267,1.20923e-06,-9.17782e-07,0.0,-0.00273799,-0.00822805,-0.00173769,-0.0118025,0.000302308,-0.000229445,0.0,-0.0445583,-0.0442745,-0.0860467,0.00345625,488.05,0.1,0.00173769,0.161117,0.265526,0.22331,0.117296,inf,inf,inf,inf,0,1,0,1,1,0,1,1,1,1,0
12372000,10220000,47.3977418,8.5455939,0.0,0.0,0.0303927,1.20923e-06,-9.17782e-07,0.0,-0.00376816,-0.00475635,-0.00197759,-0.0121538,0.000302308,-0.000229445,0.0,0.0263203,0.0102982,0.0109989,0.00384248,488.05,0.100449,0.00197759,0.162391,0.265483,0.218542,0.116736,inf,inf,inf,inf,0,1,0,1,1,0,1,1,1,1,0
12468000,10220000,47.3977418,8.5455939,0.0,0.0,0.0295101,1.20923e-06,-9.17782e-07,0.0,-0.00395146,-0.00397666,-0.00257864,-0.0123221,0.000302308,-0.000229445,0.0,-0.0115099,0.00999103,-0.0126138,0.00396682,488.05,0.1,0.00257864,0.159138,0.26314,0.209366,0.115524,inf,inf,inf,inf,0,1,0,1,1,0,1,1,1,1,0
12564000,10220000,47.3977418,8.5455939,0.0,0.0,0.0282097,1.20923e-06,-9.17782e-07,0.0,-0.00427606,-0.000829645,-0.00378892,-0.01343,0.000302308,-0.000229445,0.0,-0.00832695,-0.0266631,0.00687502,0.00398722,488.05,0.1,0.00378892,0.159803,0.263127,0.204191,0.115052,inf,inf,inf,inf,0,1,0,1,1,0,1,1,1,1,0
12660000,10220000,47.3977418,8.5455939,0.0,0.0,0.0268808,1.20923e-06,-9.17782e-07,0.0,-0.00554396,1.11871e-05,-0.00537558,-0.01486,0.000302308,-0.000229445,0.0,0.015719,0.036604,-0.0207042,0.00391248,488.05,0.1,0.00537558,0.156266,0.260874,0.195275,0.113955,inf,inf,inf,inf,0,1,0,1,1,0,1,1,1,1,0
12756000,10220000,47.3977418,8.5455939,0.0,0.0,0.0256546,1.20923e-06,-9.17782e-07,0.0,-0.00562991,-0.000872934,-0.00598979,-0.0151454,0.000302308,-0.000229445,0.0,-0.0624623,-0.00469976,-0.00563357,0.00393834,488.05,0.101674,0.00598979,0.156535,0.260892,0.190171,0.113568,inf,inf,inf,inf,0,1,0,1,1,0,1,1,1,1,0
12852000,10220000,47.3977418,8.5455939,0.0,0.0,0.0251671,1.20923e-06,-9.17782e-07,0.0,-0.00715017,-0.00083567,-0.0044161,-0.0126084,0.000302308,-0.000229445,0.0,-0.0454048,-0.00965141,-0.00204891,0.00413735,488.05,0.103395,0.0044161,0.15664,0.260919,0.185136,0.113217,inf,inf,inf,inf,0,1,0,1,1,0,1,1,1,1,0
12948000,10220000,47.3977418,8.5455939,0.0,0.0,0.0253893,1.20923e-06,-9.17782e-07,0.0,-0.00840792,0.00168026,-0.00455854,-0.0112191,0.000302308,-0.000229445,0.0,0.026227,-0.00754731,-0.0204453,0.00443627,488.05,0.104401,0.00455854,0.152903,0.258765,0.177021,0.112267,inf,inf,inf,inf,0,1,0,1,1,0,1,1,1,1,0
13044000,10220000,47.3977418,8.5455939,0.0,0.0,0.0261383,1.20923e-06,-9.17782e-07,0.0,-0.0066954,0.0042782,-0.00536642,-0.0101494,0.000302308,-0.000229445,0.0,-0.00445364,-0.0128771,0.0216095,0.0043997,488.05,0.104642,0.00536642,0.152822,0.258828,0.17239,0.111995,inf,inf,inf,inf,0,1,0,1,1,0,1,1,1,1,0
13140000,10220000,47.3977418,8.5455939,0.0,0.0,0.0272259,1.20923e-06,-9.17782e-07,0.0,-0.00533004,0.0046876,-0.00464418,-0.00744105,0.000302308,-0.000229445,0.0,0.0146685,0.0408531,0.0471966,0.00437175,488.05,0.106134,0.00464418,0.152649,0.258903,0.167926,0.111757,inf,inf,inf,inf,0,1,0,1,1,0,1,1,1,1,0
13236000,10220000,47.3977418,8.5455939,0.0,0.0,0.0285713,1.20923e-06,-9.17782e-07,0.0,-0.00560068,0.00782565,-0.00463071,-0.00542415,0.000302308,-0.000229445,0.0,-0.0365559,-0.0145572,0.00533275,0.004474,488.05,0.107263,0.00463071,0.148981,0.256847,0.160908,0.110941,inf,inf,inf,inf,0,1,0,1,1,0,1,1,1,1,0
13332000,10220000,47.3977418,8.5455939,0.0,0.0,0.0297149,1.20923e-06,-9.17782e-07,0.0,-0.00579643,0.0106356,-0.00364517,-0.00293054,0.000302308,-0.000229445,0.0,0.0456418,0.0302004,0.0228072,0.00472024,488.05,0.10441,0.00364517,0.148741,0.25696,0.156952,0.110775,inf,inf,inf,inf,0,1,0,1,1,0,1,1,1,1,0
13428000,10220000,47.3977418,8.5455939,0.0,0.0,0.030055,1.20923e-06,-9.17782e-07,0.0,-0.00593458,0.0106206,-0.00277977,-0.0015974,0.000302308,-0.000229445,0.0,0.0566619,0.00833429,-0.0268081,0.00480828,488.05,0.100796,0.00277977,0.148454,0.257088,0.153189,0.110641,inf,inf,inf,inf,0,1,0,1,1,0,1,1,1,1,0
13524000,10220000,47.3977418,8.5455939,0.0,0.0,0.0297897,1.20923e-06,-9.17782e-07,0.0,-0.00488273,0.01007,-0.000324035,0.000540802,0.000302308,-0.000229445,0.0,0.0257775,0.0357963,0.0476995,0.00486802,488.05,0.102054,0.000324035,0.144982,0.25513,0.14728,0.109945,inf,inf,inf,inf,0,1,0,1,1,0,1,1,1,1,0
13620000,10220000,47.3977418,8.5455939,0.0,0.0,0.0298568,1.20923e-06,-9.17782e-07,0.0,-0.00370515,0.0105199,-0.000603096,0.000244547,0.000302308,-0.000229445,0.0,0.0757672,0.0158292,0.00474881,0.00510493,488.05,0.101446,0.000603096,0.144692,0.255297,0.144019,0.109875,inf,inf,inf,inf,0,1,0,1,1,0,1,1,1,1,0
13716000,10220000,47.3977418,8.5455939,0.0,0.0,0.0300719,1.20923e-06,-9.17782e-07,0.0,-0.00368426,0.00934704,-0.000721082,0.000264426,0.000302308,-0.000229445,0.0,-0.0013387,-0.0101956,0.0282479,0.00513165,488.05,0.101984,0.000721082,0.141499,0.253434,0.138914,0.109263,inf,inf,inf,inf,0,1,0,1,1,0,1,1,1,1,0
13812000,10220000,47.3977418,8.5455939,0.0,0.0,0.0305972,1.20923e-06,-9.17782e-07,0.0,-0.00394031,0.00886681,0.00166058,0.00295001,0.000302308,-0.000229445,0.0,-0.050906,-0.0503374,0.0347272,0.00512792,488.05,0.100872,-0.00166058,0.14126,0.253652,0.136167,0.109256,inf,inf,inf,inf,0,1,0,1,1,0,1,1,1,1,0
13908000,10220000,47.3977418,8.5455939,0.0,0.0,0.03062,1.20923e-06,-9.17782e-07,0.0,-0.0030461,0.00928672,0.00298525,0.00391619,0.000302308,-0.000229445,0.0,-0.0323804,-0.0157151,0.0311462,0.00506414,488.05,0.1,-0.00298525,0.141007,0.253888,0.133605,0.109273,inf,inf,inf,inf,0,1,0,1,1,0,1,1,1,1,0
14004000,10220000,47.3977418,8.5455939,0.0,0.0,0.0301376,1.20923e-06,-9.17782e-07,0.0,-0.00209566,0.00864648,0.00239693,0.002447,0.000302308,-0.000229445,0.0,0.0560612,0.00625053,0.00909157,0.00496204,488.05,0.1,-0.00239693,0.138037,0.252114,0.129411,0.108754,inf,inf,inf,inf,0,1,0,1,1,0,1,1,1,1,0
14100000,10220000,47.3977418,8.5455939,0.0,0.0,0.0302263,1.20923e-06,-9.17782e-07,0.0,-0.00307272,0.00896044,0.00367493,0.00349133,0.000302308,-0.000229445,0.0,-0.0220283,-0.0461275,-0.00681449,0.00535795,488.05,0.100298,-0.00367493,0.13782,0.252391,0.127281,0.108821,inf,inf,inf,inf,0,1,0,1,1,0,1,1,1,1,0
14196000,10220000,47.3977418,8.5455939,0.0,0.0,0.0308901,1.20923e-06,-9.17782e-07,0.0,-0.00190464,0.00988939,0.00361962,0.00375543,0.000302308,-0.000229445,0.0,0.00365184,-0.0266307,0.0817273,0.00543552,488.05,0.100761,-0.00361962,0.137605,0.252685,0.125333,0.108908,inf,inf,inf,inf,0,1,0,1,1,0,1,1,1,1,0
14292000,10220000,47.3977418,8.5455939,0.0,0.0,0.031788,1.20923e-06,-9.17782e-07,0.0,-0.00206223,0.00899159,0.00508227,0.00558741,0.000302308,-0.000229445,0.0,-0.0416505,-0.0376857,0.0196518,0.00528951,488.05,0.1,-0.00508227,0.134874,0.250997,0.12196,0.108468,inf,inf,inf,inf,0,1,0,1,1,0,1,1,1,1,0
14388000,10220000,47.3977418,8.5455939,0.0,0.0,0.0314871,1.20923e-06,-9.17782e-07,0.0,-0.0030536,0.00845727,0.00478523,0.00445062,0.000302308,-0.000229445,0.0,0.00655019,0.0497124,0.0229506,0.00509514,488.05,0.1,-0.00478523,0.134716,0.251332,0.120413,0.108596,inf,inf,inf,inf,0,1,0,1,1,0,1,1,1,1,0
14484000,10220000,47.3977418,8.5455939,0.0,0.0,0.030902,1.20923e-06,-9.17782e-07,0.0,-0.00383848,0.00958562,0.00490336,0.00350336,0.000302308,-0.000229445,0.0,0.0463107,0.0517652,-0.0066543,0.00538817,488.05,0.1,-0.00490336,0.132198,0.249716,0.117584,0.108205,inf,inf,inf,inf,0,1,0,1,1,0,1,1,1,1,0
14580000,10220000,47.3977418,8.5455939,0.0,0.0,0.0296344,1.20923e-06,-9.17782e-07,0.0,-0.00363924,0.0088857,0.00184053,-0.00097563,0.000302308,-0.000229445,0.0,-0.0291668,-0.00533293,-0.0381647,0.00559233,488.05,0.1,-0.00184053,0.132105,0.250091,0.116415,0.108369,inf,inf,inf,inf,0,1,0,1,1,0,1,1,1,1,0
14676000,10220000,47.3977418,8.5455939,0.0210812,0.0183295,0.0287246,0.0234862,0.0111437,0.0,-0.00116168,0.000691354,-0.000673535,-0.00145476,0.00285726,-0.00761181,-0.0028995,0.0144089,-0.0106109,0.000900589,0.00585068,488.05,0.1,0.000673535,0.6,0.250484,0.316228,0.237171,inf,inf,inf,inf,1,1,1,1,2,0,2,2,1,1,0
14772000,10220000,47.3977418,8.5455939,0.0212104,0.0174105,0.0278789,0.0234862,0.0111437,0.0,-0.0026033,-0.00103356,-0.00145943,-0.00355756,0.00285726,-0.00761181,-0.0028995,-0.00414002,0.0112221,-0.0251019,0.00590824,488.05,0.1,0.00145943,0.600768,0.24224,0.316567,0.237351,inf,inf,inf,inf,1,1,1,1,2,0,2,2,1,1,0
14868000,10220000,47.3977418,8.5455939,0.0213647,0.0173399,0.0270605,0.0234862,0.0111437,0.0,-0.000648363,-0.000489512,-0.00291634,-0.00579723,0.00285726,-0.00761181,-0.0028995,-0.0065451,0.0203512,0.00630133,0.00581468,488.05,0.1,0.00291634,0.486375,0.238154,0.289248,0.226395,inf,inf,inf,inf,1,1,1,1,2,0,2,2,1,1,0
14964000,10220000,47.3977418,8.5455939,0.0206029,0.0149047,0.026328,0.0234862,0.0111437,0.0,-0.00156927,-0.00247385,-0.00372987,-0.00695049,0.00285726,-0.00761181,-0.0028995,-0.0271961,0.0338101,0.043394,0.00606092,488.05,0.10187,0.00372987,0.418875,0.235658,0.267982,0.216725,inf,inf,inf,inf,1,1,1,1,2,0,2,2,1,1,0
15060000,10220000,47.3977418,8.5455939,0.0201804,0.0129113,0.0267256,0.0234862,0.0111437,0.0,-0.00226079,-0.00201613,-0.00197831,-0.004366,0.00285726,-0.00761181,-0.0028995,-0.0491744,-0.00471743,-0.00439957,0.00601895,488.05,0.104558,0.00197831,0.373239,0.232715,0.250766,0.207913,inf,inf,inf,inf,1,1,1,1,2,0,2,2,1,1,0
15156000,10220000,47.3977418,8.5455939,0.0206603,0.0113256,0.027445,0.0234862,0.0111437,0.0,-0.000833035,-0.00154231,-0.00189633,-0.00336569,0.00285726,-0.00761181,-0.0028995,0.0152984,0.0221483,-0.0434685,0.00607042,488.05,0.102784,0.00189633,0.339974,0.232205,0.236487,0.200013,inf,inf,inf,inf,1,1,1,1,2,0,2,2,1,1,0
15252000,10220000,47.3977418,8.5455939,0.021117,0.0101165,0.0277869,0.0234862,0.0111437,0.0,-0.00235232,-0.00191616,-0.00122984,-0.00217947,0.00285726,-0.00761181,-0.0028995,-0.0146952,-0.0636586,-0.0143815,0.006417,488.05,0.10196,0.00122984,0.314432,0.232271,0.224343,0.192776,inf,inf,inf,inf,1,1,1,1,2,0,2,2,1,1,0
15348000,10220000,47.3977418,8.5455939,0.0212909,0.00912663,0.0285077,0.0234862,0.0111437,0.0,-0.00195721,-0.00167349,-0.000784221,-0.000925304,0.00285726,-0.00761181,-0.0028995,0.0991033,0.0435309,0.00206567,0.0069028,488.05,0.103634,0.000784221,0.294182,0.231182,0.213902,0.18582,inf,inf,inf,inf,1,1,1,1,2,0,2,2,1,1,0
15444000,10220000,47.3977418,8.5455939,0.0209694,0.00805025,0.0295099,0.0234862,0.0111437,0.0,-0.00304745,-0.00238894,-0.000726744,0.000148472,0.00285726,-0.00761181,-0.0028995,-0.0333163,-0.00976538,0.0202013,0.00687232,488.05,0.10362,0.000726744,0.277639,0.231922,0.20475,0.179589,inf,inf,inf,inf,1,1,1,1,2,0,2,2,1,1,0
15540000,10220000,47.3977418,8.5455939,0.0205822,0.00692273,0.0302607,0.0234862,0.0111437,0.0,-0.00369173,-0.00295623,-0.000300828,0.00115745,0.00285726,-0.00761181,-0.0028995,-0.00182394,0.00313972,-0.0208952,0.00687853,488.05,0.100851,0.000300828,0.263902,0.231278,0.196706,0.173432,inf,inf,inf,inf,1,1,1,1,2,0,2,2,1,1,0
15636000,10220000,47.3977418,8.5455939,0.0204842,0.00608696,0.0305419,0.0234862,0.0111437,0.0,-0.00520497,-0.00174101,0.000133388,0.00163776,0.00285726,-0.00761181,-0.0028995,-0.0208489,-0.0404128,0.054663,0.007129,488.05,0.100302,-0.000133388,0.252234,0.232289,0.189517,0.167968,inf,inf,inf,inf,1,1,1,1,2,0,2,2,1,1,0
15732000,10220000,47.3977418,8.5455939,0.0206442,0.00579754,0.0307771,0.0234862,0.0111437,0.0,-0.00718845,-0.00137405,-0.000553354,0.000959391,0.00285726,-0.00761181,-0.0028995,-0.0292332,-0.0202066,-0.0408255,0.00706511,488.05,0.101322,0.000553354,0.242804,0.233353,0.183171,0.162842,inf,inf,inf,inf,1,1,1,1,2,0,2,2,1,1,0
15828000,10220000,47.3977418,8.5455939,0.0206226,0.00579033,0.0316345,0.0234862,0.0111437,0.0,-0.00851623,-0.000468889,0.00145388,0.00359769,0.00285726,-0.00761181,-0.0028995,-0.0647714,-0.0252621,0.00373088,0.00711318,488.05,0.1015,-0.00145388,0.235026,0.232833,0.17749,0.157599,inf,inf,inf,inf,1,1,1,1,2,0,2,2,1,1,0
15924000,10220000,47.3977418,8.5455939,0.0201654,0.0058513,0.0325584,0.0234862,0.0111437,0.0,-0.00840918,-0.000448958,0.0014527,0.00409926,0.00285726,-0.00761181,-0.0028995,0.0258915,0.023112,0.0151563,0.00715749,488.05,0.101919,-0.0014527,0.228602,0.23388,0.172453,0.153044,inf,inf,inf,inf,1,1,1,1,2,0,2,2,1,1,0
16020000,10220000,47.3977418,8.5455939,0.0194404,0.00602808,0.0333577,0.0234862,0.0111437,0.0,-0.0110129,-0.00188707,0.00198601,0.00493744,0.00285726,-0.00761181,-0.0028995,-0.0281517,-0.0265483,0.0437507,0.00733178,488.05,0.101206,-0.00198601,0.223194,0.234889,0.167918,0.148749,inf,inf,inf,inf,1,1,1,1,2,0,2,2,1,1,0
16116000,10220000,47.3977418,8.5455939,0.0184458,0.00612247,0.0334406,0.0234862,0.0111437,0.0,-0.0125169,-0.00286095,0.000692428,0.00322413,0.00285726,-0.00761181,-0.0028995,-0.0167613,0.0220511,0.0105929,0.00736185,488.05,0.1,-0.000692428,0.218664,0.234224,0.163909,0.144236,inf,inf,inf,inf,1,1,1,1,2,0,2,2,1,1,0
16212000,10220000,47.3977418,8.5455939,0.0172805,0.00597242,0.0332219,0.0234862,0.0111437,0.0,-0.0124059,-0.00239906,-3.6901e-05,0.0020005,0.00285726,-0.00761181,-0.0028995,-0.00050347,0.0273612,-0.0383919,0.00733259,488.05,0.100073,3.6901e-05,0.214132,0.234333,0.160078,0.140354,inf,inf,inf,inf,1,1,1,1,2,0,2,2,1,1,0
16308000,10220000,47.3977418,8.5455939,0.0160677,0.00556317,0.0330733,0.0234862,0.0111437,0.0,-0.0124751,-0.00234505,0.000601978,0.00220534,0.00285726,-0.00761181,-0.0028995,0.0282357,-0.0562665,0.0667078,0.00732036,488.05,0.1,-0.000601978,0.210844,0.235158,0.156903,0.136739,inf,inf,inf,inf,1,1,1,1,2,0,2,2,1,1,0
16404000,10220000,47.3977418,8.5455939,0.0150864,0.0054047,0.0325575,0.0234862,0.0111437,0.0,-0.0117196,-0.00158689,0.00110023,0.00190659,0.00285726,-0.00761181,-0.0028995,0.0412613,0.02795,-0.00346266,0.00715381,488.05,0.1,-0.00110023,0.208053,0.234329,0.154127,0.132882,inf,inf,inf,inf,1,1,1,1,2,0,2,2,1,1,0
16500000,10220000,47.3977418,8.5455939,0.0143494,0.00554998,0.0317671,0.0234862,0.0111437,0.0,-0.0118888,-0.00153502,-1.0896e-06,-0.000134237,0.00285726,-0.00761181,-0.0028995,-0.0593335,0.0561321,-0.0330368,0.0070936,488.05,0.1,1.0896e-06,0.205677,0.235057,0.151719,0.129696,inf,inf,inf,inf,1,1,1,1,2,0,2,2,1,1,0
16596000,10220000,47.3977418,8.5455939,0.0138844,0.00592564,0.0307647,0.0234862,0.0111437,0.0,-0.0126859,-0.000833553,-0.00082692,-0.00193186,0.00285726,-0.00761181,-0.0028995,-0.0237236,-0.031469,-0.0018701,0.00683394,488.05,0.1,0.00082692,0.203593,0.234088,0.149598,0.126224,inf,inf,inf,inf,1,1,1,1,2,0,2,2,1,1,0
16692000,10220000,47.3977418,8.5455939,0.0135427,0.00639621,0.0301504,0.0234862,0.0111437,0.0,-0.0121312,-0.00114949,-0.000863871,-0.00234747,0.00285726,-0.00761181,-0.0028995,0.0670483,0.0194096,-0.0259969,0.00658044,488.05,0.1,0.000863871,0.201809,0.234665,0.147803,0.123402,inf,inf,inf,inf,1,1,1,1,2,0,2,2,1,1,0
16788000,10220000,47.3977418,8.5455939,0.0134098,0.00689035,0.0300553,0.0234862,0.0111437,0.0,-0.0118221,-0.00174243,-0.00111615,-0.00239103,0.00285726,-0.00761181,-0.0028995,-0.0221134,0.0423711,0.0424981,0.00629836,488.05,0.101017,0.00111615,0.200224,0.23517,0.146254,0.120751,inf,inf,inf,inf,1,1,1,1,2,0,2,2,1,1,0
16884000,10220000,47.3977418,8.5455939,0.0133981,0.00751497,0.0306908,0.0234862,0.0111437,0.0,-0.0143108,-0.00174293,5.86106e-05,-0.000304908,0.00285726,-0.00761181,-0.0028995,-0.041912,0.0250667,0.0650845,0.00633739,488.05,0.102501,-5.86106e-05,0.198863,0.233998,0.14498,0.117811,inf,inf,inf,inf,1,1,1,1,2,0,2,2,1,1,0
16980000,10220000,47.3977418,8.5455939,0.0128461,0.00806208,0.0305817,0.0234862,0.0111437,0.0,-0.0154863,-0.00246602,-0.00153984,-0.00194459,0.00285726,-0.00761181,-0.0028995,-0.0505749,-0.0105876,-0.0518775,0.00643526,488.05,0.1,0.00153984,0.197638,0.234379,0.143909,0.115495,inf,inf,inf,inf,1,1,1,1,2,0,2,2,1,1,0
17076000,10220000,47.3977418,8.5455939,0.0119102,0.00803523,0.0301363,0.0234862,0.0111437,0.0,-0.0183573,-0.00391022,-0.00199621,-0.00262698,0.00285726,-0.00761181,-0.0028995,-0.048033,-0.0935549,0.0303155,0.00609289,488.05,0.1,0.00199621,0.196585,0.2331,0.143067,0.112888,inf,inf,inf,inf,1,1,1,1,2,0,2,2,1,1,0
17172000,10220000,47.3977418,8.5455939,0.0106652,0.00768378,0.029876,0.0234862,0.0111437,0.0,-0.0189672,-0.00649371,-0.00113612,-0.00183377,0.00285726,-0.00761181,-0.0028995,0.00181598,-0.0304695,-0.0698455,0.00596225,488.05,0.100366,0.00113612,0.205445,0.234876,0.14788,0.112118,inf,inf,inf,inf,1,1,1,1,2,0,2,2,1,1,0
17268000,10220000,47.3977418,8.5455939,0.00961682,0.00736809,0.0297535,0.0234862,0.0111437,0.0,-0.0197967,-0.00739134,-0.00168904,-0.00228495,0.00285726,-0.00761181,-0.0028995,-0.0364874,-0.0873529,-0.00122003,0.0059373,488.05,0.100504,0.00168904,0.204524,0.235049,0.14738,0.110197,inf,inf,inf,inf,1,1,1,1,2,0,2,2,1,1,0
17364000,10220000,47.3977418,8.5455939,0.00849379,0.00693176,0.0300335,0.0234862,0.0111437,0.0,-0.0194125,-0.00713916,-0.00199789,-0.00206532,0.00285726,-0.00761181,-0.0028995,-0.01803,0.0674324,0.0339914,0.00584724,488.05,0.102931,0.00199789,0.203744,0.233566,0.147068,0.107986,inf,inf,inf,inf,1,1,1,1,2,0,2,2,1,1,0
17460000,10220000,47.3977418,8.5455939,0.00692572,0.00662527,0.0309962,0.0234862,0.0111437,0.0,-0.0185314,-0.00842876,-0.00110154,-8.86205e-05,0.00285726,-0.00761181,-0.0028995,-0.0203167,-0.0555984,0.0467868,0.00624951,488.05,0.103359,0.00110154,0.203023,0.233655,0.146861,0.106361,inf,inf,inf,inf,1,1,1,1,2,0,2,2,1,1,0
17556000,10220000,47.3977418,8.5455939,0.00512395,0.00645386,0.0316846,0.0234862,0.0111437,0.0,-0.0176047,-0.00790437,7.00227e-05,0.00166502,0.00285726,-0.00761181,-0.0028995,0.0156458,-0.0115474,0.0386666,0.00638639,488.05,0.100565,-7.00227e-05,0.202417,0.233714,0.146801,0.104878,inf,inf,inf,inf,1,1,1,1,2,0,2,2,1,1,0
17652000,10220000,47.3977418,8.5455939,0.00393843,0.00628046,0.0319259,0.0234862,0.0111437,0.0,-0.0170399,-0.00920184,-0.00110756,0.000549473,0.00285726,-0.00761181,-0.0028995,-0.0207168,0.00218006,-0.0608871,0.00628062,488.05,0.1,0.00110756,0.201848,0.232158,0.146798,0.10311,inf,inf,inf,inf,1,1,1,1,2,0,2,2,1,1,0
17748000,10220000,47.3977418,8.5455939,0.00339033,0.00606999,0.0317267,0.0234862,0.0111437,0.0,-0.0148891,-0.0105216,-0.00195468,-0.000516832,0.00285726,-0.00761181,-0.0028995,0.00355194,-0.0031194,0.0811322,0.006143,488.05,0.1,0.00195468,0.201377,0.232159,0.146907,0.101892,inf,inf,inf,inf,1,1,1,1,2,0,2,2,1,1,0
17844000,10220000,47.3977418,8.5455939,0.00309325,0.00563345,0.0318781,0.0234862,0.0111437,0.0,-0.0141414,-0.0122597,-0.00269825,-0.00106049,0.00285726,-0.00761181,-0.0028995,-0.0314631,0.0122559,-0.0178758,0.00598588,488.05,0.101758,0.00269825,0.200926,0.230585,0.147052,0.100398,inf,inf,inf,inf,1,1,1,1,2,0,2,2,1,1,0
17940000,10220000,47.3977418,8.5455939,0.00305432,0.00462904,0.0316265,0.0234862,0.0111437,0.0,-0.0151278,-0.0113183,-0.00303159,-0.00155181,0.00285726,-0.00761181,-0.0028995,-0.0884626,0.0416819,0.00651367,0.00604448,488.05,0.1,0.00303159,0.200559,0.230547,0.147263,0.0994225,inf,inf,inf,inf,1,1,1,1,2,0,2,2,1,1,0
18036000,10220000,47.3977418,8.5455939,0.00274354,0.00366919,0.0310501,0.0234862,0.0111437,0.0,-0.0148458,-0.0115639,-0.0023281,-0.0013317,0.00285726,-0.00761181,-0.0028995,0.000412368,0.0664822,-0.0470271,0.0057763,488.05,0.1,0.0023281,0.200198,0.230489,0.14747,0.0985555,inf,inf,inf,inf,1,1,1,1,2,0,2,2,1,1,0
18132000,10220000,47.3977418,8.5455939,0.00228847,0.00301979,0.030707,0.0234862,0.0111437,0.0,-0.0153369,-0.0119044,-0.00328909,-0.00251072,0.00285726,-0.00761181,-0.0028995,-0.00576112,-0.030741,-0.0247778,0.00561425,488.05,0.10106,0.00328909,0.199909,0.228902,0.147713,0.0974241,inf,inf,inf,inf,1,1,1,1,2,0,2,2,1,1,0
18228000,10220000,47.3977418,8.5455939,0.00153013,0.00208717,0.0303666,0.0234862,0.0111437,0.0,-0.0162496,-0.012626,-0.0028507,-0.00221793,0.00285726,-0.00761181,-0.0028995,-0.04458,0.00243133,-0.0238968,0.00547473,488.05,0.1,0.0028507,0.199615,0.228828,0.147918,0.0967684,inf,inf,inf,inf,1,1,1,1,2,0,2,2,1,1,0
18324000,10220000,47.3977418,8.5455939,0.000441052,0.00105745,0.029938,0.0234862,0.0111437,0.0,-0.0165098,-0.0129958,-0.00269538,-0.00229271,0.00285726,-0.00761181,-0.0028995,-0.0215418,-0.00217305,-0.0323597,0.00557506,488.05,0.100418,0.00269538,0.199383,0.228745,0.148155,0.0962078,inf,inf,inf,inf,1,1,1,1,2,0,2,2,1,1,0
18420000,10220000,47.3977418,8.5455939,-0.000524907,0.00014378,0.0294681,0.0234862,0.0111437,0.0,-0.0167711,-0.0129139,-0.00288775,-0.00271894,0.00285726,-0.00761181,-0.0028995,-0.00426314,-0.0292431,-0.0557927,0.00574412,488.05,0.100178,0.00288775,0.199135,0.227178,0.14832,0.0953857,inf,inf,inf,inf,1,1,1,1,2,0,2,2,1,1,0
18516000,10220000,47.3977418,8.5455939,-0.00125611,-0.000795165,0.0291458,0.0234862,0.0111437,0.0,-0.0179066,-0.0143805,-0.00311466,-0.00303185,0.00285726,-0.00761181,-0.0028995,-0.0415693,-0.0377981,0.0447286,0.00571263,488.05,0.100429,0.00311466,0.19894,0.227099,0.148495,0.0950038,inf,inf,inf,inf,1,1,1,1,2,0,2,2,1,1,0
18612000,10220000,47.3977418,8.5455939,-0.00178278,-0.0020326,0.028558,0.0234862,0.0111437,0.0,-0.018854,-0.0174288,-0.00391564,-0.00407825,0.00285726,-0.00761181,-0.0028995,0.00809463,-0.00902394,-0.0228696,0.00608444,488.05,0.1,0.00391564,0.19872,0.22702,0.148592,0.094698,inf,inf,inf,inf,1,1,1,1,2,0,2,2,1,1,0
18708000,10220000,47.3977418,8.5455939,-0.00213075,-0.00331313,0.0277784,0.0234862,0.0111437,0.0,-0.017356,-0.0192871,-0.00310778,-0.0036473,0.00285726,-0.00761181,-0.0028995,0.0456302,-0.103528,-0.0240514,0.00627113,488.05,0.100209,0.00310778,0.198547,0.225499,0.148692,0.0941367,inf,inf,inf,inf,1,1,1,1,2,0,2,2,1,1,0
18804000,10220000,47.3977418,8.5455939,-0.00252602,-0.00435291,0.0275081,0.0234862,0.0111437,0.0,-0.016756,-0.0212915,-0.00151243,-0.00206465,0.00285726,-0.00761181,-0.0028995,-0.0695386,2.25591e-05,0.0331132,0.00624368,488.05,0.100423,0.00151243,0.198341,0.225439,0.148705,0.093977,inf,inf,inf,inf,1,1,1,1,2,0,2,2,1,1,0
18900000,10220000,47.3977418,8.5455939,-0.00289098,-0.00520965,0.0281283,0.0234862,0.0111437,0.0,-0.0157997,-0.0226962,3.30872e-05,0.000233687,0.00285726,-0.00761181,-0.0028995,0.00739157,-0.0048793,0.0347411,0.00625551,488.05,0.103101,-3.30872e-05,0.198176,0.223972,0.148684,0.0935642,inf,inf,inf,inf,1,1,1,1,2,0,2,2,1,1,0
18996000,10220000,47.3977418,8.5455939,-0.00313031,-0.00612451,0.0291078,0.0234862,0.0111437,0.0,-0.0155489,-0.0215504,0.000731329,0.00183011,0.00285726,-0.00761181,-0.0028995,-0.00634387,0.00361934,0.019731,0.00597671,488.05,0.102193,-0.000731329,0.197972,0.22394,0.148578,0.0935294,inf,inf,inf,inf,1,1,1,1,2,0,2,2,1,1,0
19092000,10220000,47.3977418,8.5455939,-0.00358168,-0.00717912,0.029623,0.0234862,0.0111437,0.0,-0.0159313,-0.0234207,0.00057653,0.00196786,0.00285726,-0.00761181,-0.0028995,-0.0279673,0.0629798,-0.0339411,0.00598975,488.05,0.100092,-0.00057653,0.197803,0.223922,0.148455,0.0935485,inf,inf,inf,inf,1,1,1,1,2,0,2,2,1,1,0
19188000,10220000,47.3977418,8.5455939,-0.00422198,-0.00814913,0.0299761,0.0234862,0.0111437,0.0,-0.0156911,-0.0226424,0.000962135,0.00246468,0.00285726,-0.00761181,-0.0028995,0.00284085,-0.0132828,0.0507459,0.00585875,488.05,0.100379,-0.000962135,0.19759,0.222528,0.148253,0.0933092,inf,inf,inf,inf,1,1,1,1,2,0,2,2,1,1,0
19284000,10220000,47.3977418,8.5455939,-0.00424086,-0.00877862,0.0302105,0.0234862,0.0111437,0.0,-0.0146101,-0.0238271,0.000466244,0.00192532,0.00285726,-0.00761181,-0.0028995,0.0335335,-0.00893153,-0.00827666,0.00595643,488.05,0.1,-0.000466244,0.197409,0.222548,0.148032,0.0934231,inf,inf,inf,inf,1,1,1,1,2,0,2,2,1,1,0
19380000,10220000,47.3977418,8.5455939,-0.00404807,-0.00898499,0.0299909,0.0234862,0.0111437,0.0,-0.0146143,-0.0229091,-0.000707393,0.000360535,0.00285726,-0.00761181,-0.0028995,-0.0253552,0.00632902,-0.0228314,0.00585624,488.05,0.1,0.000707393,0.197181,0.222586,0.147714,0.0935738,inf,inf,inf,inf,1,1,1,1,2,0,2,2,1,1,0
19476000,10220000,47.3977418,8.5455939,-0.00389298,-0.00899848,0.0295004,0.0234862,0.0111437,0.0,-0.0156722,-0.0215558,0.00137321,0.00181271,0.00285726,-0.00761181,-0.0028995,0.000878853,-0.0398055,-0.00374857,0.00593865,488.05,0.1,-0.00137321,0.196981,0.221276,0.147397,0.0934654,inf,inf,inf,inf,1,1,1,1,2,0,2,2,1,1,0
19572000,10220000,47.3977418,8.5455939,-0.00372113,-0.00889698,0.0294878,0.0234862,0.0111437,0.0,-0.014864,-0.0192506,0.00168932,0.00191269,0.00285726,-0.00761181,-0.0028995,-0.0297109,0.0570792,-0.0274265,0.00571748,488.05,0.1,-0.00168932,0.207432,0.222251,0.153674,0.094427,inf,inf,inf,inf,1,1,1,1,2,0,2,2,1,1,0
19668000,10220000,47.3977418,8.5455939,-0.00353453,-0.0086094,0.0297164,0.0234862,0.0111437,0.0,-0.0163351,-0.0181174,0.000198035,0.000544454,0.00285726,-0.00761181,-0.0028995,-0.00694899,0.0360664,-0.0733491,0.00558994,488.05,0.100431,-0.000198035,0.207174,0.222358,0.153214,0.0946795,inf,inf,inf,inf,1,1,1,1,2,0,2,2,1,1,0
19764000,10220000,47.3977418,8.5455939,-0.00335616,-0.00835345,0.0301525,0.0234862,0.0111437,0.0,-0.0158117,-0.0169994,0.00101652,0.00173776,0.00285726,-0.00761181,-0.0028995,-0.0226498,-0.019826,0.0117859,0.00536628,488.05,0.101246,-0.00101652,0.206943,0.221125,0.152758,0.0946609,inf,inf,inf,inf,1,1,1,1,2,0,2,2,1,1,0
19860000,10220000,47.3977418,8.5455939,-0.00327392,-0.00790092,0.0305788,0.0234862,0.0111437,0.0,-0.01641,-0.0176755,0.00046653,0.00144154,0.00285726,-0.00761181,-0.0028995,0.00453058,-0.00167358,0.0512199,0.0053323,488.05,0.100194,-0.00046653,0.206653,0.221283,0.152226,0.0949586,inf,inf,inf,inf,1,1,1,1,2,0,2,2,1,1,0
19956000,10220000,47.3977418,8.5455939,-0.00311876,-0.00724895,0.0306156,0.0234862,0.0111437,0.0,-0.0168009,-0.0169494,0.000115051,0.000985258,0.00285726,-0.00761181,-0.0028995,-0.0197849,-0.0403474,-0.0311946,0.00556263,488.05,0.100874,-0.000115051,0.206388,0.220121,0.151676,0.0949827,inf,inf,inf,inf,1,1,1,1,2,0,2,2,1,1,0
20052000,10220000,47.3977418,8.5455939,-0.00266452,-0.00704448,0.0308416,0.0234862,0.0111437,0.0,-0.0155904,-0.0163069,-0.00242097,-0.00131743,0.00285726,-0.00761181,-0.0028995,0.00684246,-0.031038,0.0192532,0.00543046,488.05,0.1,0.00242097,0.206065,0.22033,0.15106,0.0953114,inf,inf,inf,inf,1,1,1,1,2,0,2,2,1,1,0
20148000,10220000,47.3977418,8.5455939,-0.00228101,-0.00721303,0.031013,0.0234862,0.0111437,0.0,-0.0166231,-0.0157632,-0.00199503,-0.000646526,0.00285726,-0.00761181,-0.0028995,-0.00512616,0.0275312,-0.0112541,0.00550273,488.05,0.101282,0.00199503,0.205767,0.220565,0.150453,0.0956522,inf,inf,inf,inf,1,1,1,1,2,0,2,2,1,1,0
20244000,10220000,47.3977418,8.5455939,-0.00182022,-0.00730041,0.0309178,0.0234862,0.0111437,0.0,-0.0176689,-0.0137873,-0.00218151,-0.000870009,0.00285726,-0.00761181,-0.0028995,-0.0657201,0.00593321,0.0147279,0.00543776,488.05,0.1,0.00218151,0.205412,0.219489,0.149786,0.0957082,inf,inf,inf,inf,1,1,1,1,2,0,2,2,1,1,0
20340000,10220000,47.3977418,8.5455939,-0.00148294,-0.00756528,0.0310779,0.0234862,0.0111437,0.0,-0.0170122,-0.0120883,-0.00197353,-0.000472075,0.00285726,-0.00761181,-0.0028995,0.0163505,-0.0170352,0.0338061,0.00548184,488.05,0.101402,0.00197353,0.205083,0.219773,0.149112,0.0960623,inf,inf,inf,inf,1,1,1,1,2,0,2,2,1,1,0
20436000,10220000,47.3977418,8.5455939,-0.00126933,-0.00770364,0.0316307,0.0234862,0.0111437,0.0,-0.0176994,-0.0115743,-0.00122825,0.000806906,0.00285726,-0.00761181,-0.0028995,0.00723857,0.0167001,-0.00467338,0.00546039,488.05,0.101685,0.00122825,0.204696,0.22008,0.148378,0.0964173,inf,inf,inf,inf,1,1,1,1,2,0,2,2,1,1,0
