timestamp,rollspeed,pitchspeed,yawspeed,rollspeed_integ,pitchspeed_integ,yawspeed_integ,additional_integ1
72000,0.000974145,0.00851176,-0.00738667,0.0,0.0,0.0,0.0
104000,-0.00133031,-0.00461324,0.00307078,0.0,0.0,0.0,0.0
132000,0.00733689,-0.0104718,0.00386327,0.0,0.0,0.0,0.0
160000,-0.00144544,-0.00433661,-0.00731731,0.0,0.0,0.0,0.0
192000,0.00200461,-0.00528933,0.00475871,0.0,0.0,0.0,0.0
220000,-0.00286019,0.013118,0.0027,0.0,0.0,0.0,0.0
248000,0.00222157,0.00672053,0.00865176,0.0,0.0,0.0,0.0
280000,-0.00542171,-0.00540951,0.00248047,0.0,0.0,0.0,0.0
308000,-0.00276001,-0.00590149,-0.00247154,0.0,0.0,0.0,0.0
336000,0.0004559,-0.0103711,0.0078669,0.0,0.0,0.0,0.0
364000,0.00336028,-0.00156746,0.00128816,0.0,0.0,0.0,0.0
392000,-0.000120695,0.000668833,-0.00281859,0.0,0.0,0.0,0.0
420000,0.00294823,0.00137267,-0.00514319,0.0,0.0,0.0,0.0
452000,0.00521779,-0.000836155,0.00113973,0.0,0.0,0.0,0.0
480000,0.00311302,0.0054853,0.00588454,0.0,0.0,0.0,0.0
512000,0.00356003,-0.00290932,0.0036186,0.0,0.0,0.0,0.0
540000,0.00052252,0.00502864,0.00185599,0.0,0.0,0.0,0.0
572000,-0.00124594,-0.00439749,0.00317714,0.0,0.0,0.0,0.0
604000,-0.00599087,-0.00321788,0.00586699,0.0,0.0,0.0,0.0
632000,-0.00190605,0.00771648,-0.00325293,0.0,0.0,0.0,0.0
660000,-0.00175853,0.0023256,0.00654221,0.0,0.0,0.0,0.0
688000,0.000773572,-0.00328229,0.00716324,0.0,0.0,0.0,0.0
716000,0.0052124,-0.00854199,0.00279471,0.0,0.0,0.0,0.0
748000,-0.001385,0.00381257,0.00547555,0.0,0.0,0.0,0.0
780000,-0.000284679,-0.00229599,0.00619479,0.0,0.0,0.0,0.0
812000,-0.00800252,-0.00536285,-0.00106362,0.0,0.0,0.0,0.0
840000,-0.00522861,0.00342011,0.00562125,0.0,0.0,0.0,0.0
868000,-0.00436106,0.00609222,0.0046332,0.0,0.0,0.0,0.0
900000,0.00173822,-0.0101039,-0.00139964,0.0,0.0,0.0,0.0
928000,-0.000367026,0.00210465,0.00444423,0.0,0.0,0.0,0.0
960000,0.00303439,0.00443162,0.00382109,0.0,0.0,0.0,0.0
992000,0.00397169,-0.00839188,0.00363542,0.0,0.0,0.0,0.0
1024000,0.00246944,0.001896,-0.00339945,0.0,0.0,0.0,0.0
1052000,-0.00301445,0.00171656,-0.00738263,0.0,0.0,0.0,0.0
1084000,-0.000643906,0.00216122,-0.00138288,0.0,0.0,0.0,0.0
1116000,0.00739876,0.000145466,0.00510456,0.0,0.0,0.0,0.0
1144000,0.00459567,0.00387847,0.00585906,0.0,0.0,0.0,0.0
1172000,-0.00283553,-0.00425294,-0.000699736,0.0,0.0,0.0,0.0
1200000,0.00155075,-0.00545419,0.0079043,0.0,0.0,0.0,0.0
1228000,-0.00665788,-0.0051032,0.00312419,0.0,0.0,0.0,0.0
1260000,0.00227555,-0.00235941,0.00470626,0.0,0.0,0.0,0.0
1292000,-0.000844481,-0.00784407,0.00298913,0.0,0.0,0.0,0.0
1320000,0.000671518,-0.00150346,-0.00906439,0.0,0.0,0.0,0.0
1352000,0.00584825,0.00475994,0.00623147,0.0,0.0,0.0,0.0
1380000,-0.000279535,-0.00866346,-0.00133728,0.0,0.0,0.0,0.0
1412000,-0.00807409,0.00591101,0.00614276,0.0,0.0,0.0,0.0
1444000,0.00385833,0.00537776,-0.00297989,0.0,0.0,0.0,0.0
1472000,-0.00965995,-0.00879326,0.00506384,0.0,0.0,0.0,0.0
1500000,-0.00113668,0.00221769,0.00178518,0.0,0.0,0.0,0.0
1528000,-0.00204331,0.00691491,-0.0060731,0.0,0.0,0.0,0.0
1560000,0.00483822,-0.00212382,5.89139e-05,0.0,0.0,0.0,0.0
1588000,0.00191997,0.004484,0.00727892,0.0,0.0,0.0,0.0
1616000,-0.00897491,-0.00341037,0.00349969,0.0,0.0,0.0,0.0
1644000,0.000986933,0.00064632,-0.00247103,0.0,0.0,0.0,0.0
1676000,0.0109866,0.00375243,-0.000642071,0.0,0.0,0.0,0.0
1704000,0.00246097,0.000768645,0.00649687,0.0,0.0,0.0,0.0
1732000,-0.00225039,0.00682618,0.00368954,0.0,0.0,0.0,0.0
1764000,-0.00939846,0.00761013,-0.00202472,0.0,0.0,0.0,0.0
1792000,-0.00101154,-0.00439891,-0.000664687,0.0,0.0,0.0,0.0
1820000,-0.00573591,0.00466758,-0.000769872,0.0,0.0,0.0,0.0
1852000,-0.0060843,-0.00236087,0.00802948,0.0,0.0,0.0,0.0
1880000,-0.00531859,-0.0066076,-0.00472124,0.0,0.0,0.0,0.0
1912000,0.00689476,-0.00165187,-0.00148537,0.0,0.0,0.0,0.0
1940000,-0.00527577,-0.00810515,-0.000283552,0.0,0.0,0.0,0.0
1972000,-0.00141072,0.00964193,-0.00526372,0.0,0.0,0.0,0.0
2000000,0.00606036,0.00415123,-0.00398495,0.0,0.0,0.0,0.0
2032000,0.00833282,-0.000366744,-0.00739855,0.0,0.0,0.0,0.0
2064000,0.00273175,0.00683137,-0.00776065,0.0,0.0,0.0,0.0
2096000,0.00361447,0.00264987,0.00550369,0.0,0.0,0.0,0.0
2128000,-0.00683557,-0.00285489,-0.00214582,0.0,0.0,0.0,0.0
2160000,-0.00931521,0.00777602,-0.0045181,0.0,0.0,0.0,0.0
2188000,-0.000665354,-0.00414044,-0.00171902,0.0,0.0,0.0,0.0
2216000,0.00427524,0.0058423,-0.00221192,0.0,0.0,0.0,0.0
2244000,-0.00226204,-0.00201645,0.00275004,0.0,0.0,0.0,0.0
2272000,0.000700923,-0.0133867,-0.0102035,0.0,0.0,0.0,0.0
2304000,-0.00261447,0.000157753,-0.00213085,0.0,0.0,0.0,0.0
2336000,0.00322831,-0.00220216,-0.00355223,0.0,0.0,0.0,0.0
2364000,-0.00995387,0.00101538,-0.00372092,0.0,0.0,0.0,0.0
2396000,0.00792105,-0.00454229,-0.010285,0.0,0.0,0.0,0.0
2424000,0.000105122,-0.00538507,0.00238599,0.0,0.0,0.0,0.0
2456000,0.00532603,-3.79164e-05,-0.00568513,0.0,0.0,0.0,0.0
2484000,-0.00210508,-0.00556791,-0.00425589,0.0,0.0,0.0,0.0
2516000,0.00160665,-0.00174146,0.00169838,0.0,0.0,0.0,0.0
2548000,-0.00479574,0.00356913,-0.00870932,0.0,0.0,0.0,0.0
2580000,0.00750308,-0.00581061,0.00634277,0.0,0.0,0.0,0.0
2608000,0.00444873,-0.00430863,0.00865779,0.0,0.0,0.0,0.0
2640000,0.00709537,0.00257549,-0.0028122,0.0,0.0,0.0,0.0
2672000,-0.00517222,-0.00316072,0.00464496,0.0,0.0,0.0,0.0
2700000,0.00615137,-0.00168881,-0.0040372,0.0,0.0,0.0,0.0
2728000,-0.00770822,0.00653497,-0.00864487,0.0,0.0,0.0,0.0
2760000,-0.00273095,-0.00163167,-0.00475885,0.0,0.0,0.0,0.0
2788000,0.00813742,-0.00253194,-0.00361025,0.0,0.0,0.0,0.0
2820000,0.000324262,-0.00632593,-0.0054996,0.0,0.0,0.0,0.0
2848000,0.000970731,-0.00198281,0.00860325,0.0,0.0,0.0,0.0
2876000,-0.00183239,-0.00367802,-0.000760706,0.0,0.0,0.0,0.0
2904000,-0.000999246,0.00606525,0.00205059,0.0,0.0,0.0,0.0
2932000,0.00204973,-0.00594133,0.00402142,0.0,0.0,0.0,0.0
2960000,-0.00516547,-0.00100039,0.00374069,0.0,0.0,0.0,0.0
2988000,0.00184434,-0.00311712,0.00201277,0.0,0.0,0.0,0.0
3016000,0.000762397,0.0035939,0.00388537,0.0,0.0,0.0,0.0
3044000,-0.00363223,0.000754757,0.00413192,0.0,0.0,0.0,0.0
3076000,0.00574115,0.00392461,0.000851633,0.0,0.0,0.0,0.0
3108000,-0.00577425,-0.00272031,-0.00666926,0.0,0.0,0.0,0.0
3140000,-0.00711341,0.00470782,-0.0104111,0.0,0.0,0.0,0.0
3168000,0.000217474,0.0044003,0.00088475,0.0,0.0,0.0,0.0
3200000,-0.0132826,-0.000794601,0.00387109,0.0,0.0,0.0,0.0
3228000,-0.00609433,-0.00962794,0.0052162,0.0,0.0,0.0,0.0
3260000,-0.00265125,0.00129816,0.000918806,0.0,0.0,0.0,0.0
3292000,0.00473189,-0.00307375,0.00213395,0.0,0.0,0.0,0.0
3320000,-0.000403843,-0.00333256,-0.00316759,0.0,0.0,0.0,0.0
3348000,0.00486788,0.00200611,0.00620043,0.0,0.0,0.0,0.0
3380000,-0.00117031,-0.00340098,0.00481012,0.0,0.0,0.0,0.0
3408000,-0.000946995,-0.00226691,-0.00171552,0.0,0.0,0.0,0.0
3440000,0.0029666,0.0015715,-0.00759142,0.0,0.0,0.0,0.0
3472000,-0.00639796,0.00582577,-0.00557241,0.0,0.0,0.0,0.0
3500000,-0.00456925,0.00181475,-0.00754633,0.0,0.0,0.0,0.0
3528000,0.000127703,-0.00179324,0.00137309,0.0,0.0,0.0,0.0
3556000,-0.000800229,-0.000515415,0.00268067,0.0,0.0,0.0,0.0
3588000,0.00954122,0.00580316,0.00202019,0.0,0.0,0.0,0.0
3616000,-0.00128598,0.00115312,0.000372965,0.0,0.0,0.0,0.0
3648000,0.0031991,0.00181769,-0.0105171,0.0,0.0,0.0,0.0
3676000,0.00459858,-0.00771127,-0.000721992,0.0,0.0,0.0,0.0
3704000,-0.00238236,0.00156369,0.000773344,0.0,0.0,0.0,0.0
3736000,0.00126015,0.00394756,0.00182441,0.0,0.0,0.0,0.0
3764000,-0.00421733,-0.00282124,-0.000285203,0.0,0.0,0.0,0.0
3792000,0.00629225,0.00469797,-0.00517756,0.0,0.0,0.0,0.0
3824000,-0.00120457,-0.00103168,-0.00222935,0.0,0.0,0.0,0.0
3856000,-0.00285119,0.00188713,-0.00227841,0.0,0.0,0.0,0.0
3884000,0.00168984,-0.00533453,0.00389905,0.0,0.0,0.0,0.0
3916000,-0.00538246,0.00478204,0.00686075,0.0,0.0,0.0,0.0
3948000,-0.00631955,-0.00728034,0.000432281,0.0,0.0,0.0,0.0
3980000,0.005908,0.00556165,-0.00560524,0.0,0.0,0.0,0.0
4012000,0.00672841,0.00204009,-0.00718694,0.0,0.0,0.0,0.0
4040000,-0.00904534,0.00305336,0.00390359,0.0,0.0,0.0,0.0
4068000,0.000403393,0.000327965,0.00464073,0.0,0.0,0.0,0.0
4096000,0.00182013,0.00469974,0.000614135,0.0,0.0,0.0,0.0
4124000,-0.00555049,-0.00194692,0.00256074,0.0,0.0,0.0,0.0
4152000,0.00467219,0.00211303,0.00763898,0.0,0.0,0.0,0.0
4180000,-0.00135051,0.000815678,0.0061555,0.0,0.0,0.0,0.0
4212000,0.00384049,-0.00801599,0.00332373,0.0,0.0,0.0,0.0
4240000,-0.00247305,-0.000982617,-0.00411318,0.0,0.0,0.0,0.0
4272000,-0.00192711,0.0052415,0.0114686,0.0,0.0,0.0,0.0
4300000,0.0015107,0.00624472,-0.00686822,0.0,0.0,0.0,0.0
4328000,0.00553497,0.00166567,0.00287359,0.0,0.0,0.0,0.0
4360000,-0.00916829,0.000354481,0.00529844,0.0,0.0,0.0,0.0
4388000,-0.000233671,-0.00738226,0.00261575,0.0,0.0,0.0,0.0
4420000,0.00464301,0.00026758,0.00828085,0.0,0.0,0.0,0.0
4452000,-0.00439227,0.00532882,-0.0127172,0.0,0.0,0.0,0.0
4484000,0.00712242,0.00984599,-0.00745766,0.0,0.0,0.0,0.0
4516000,0.0081632,-0.00125337,-0.00208432,0.0,0.0,0.0,0.0
4544000,-0.00112599,-0.00121158,-0.00622203,0.0,0.0,0.0,0.0
4576000,-0.00221495,0.000750546,-0.00519715,0.0,0.0,0.0,0.0
4608000,-0.000423439,-0.000264404,-0.00612466,0.0,0.0,0.0,0.0
4636000,-0.00104337,0.0103006,-0.00260188,0.0,0.0,0.0,0.0
4664000,0.00884131,0.00071607,-0.00431882,0.0,0.0,0.0,0.0
4696000,0.000277131,0.000470688,-0.00118067,0.0,0.0,0.0,0.0
4724000,-0.00320282,-0.00806018,-0.0117969,0.0,0.0,0.0,0.0
4752000,0.00685396,0.000413738,0.00106378,0.0,0.0,0.0,0.0
4784000,-0.00146254,0.00419475,7.33527e-05,0.0,0.0,0.0,0.0
4816000,-0.00525501,-0.00253639,0.00150963,0.0,0.0,0.0,0.0
4848000,0.000640479,0.00375569,0.00294479,0.0,0.0,0.0,0.0
4880000,0.00459597,-0.00673085,0.00461921,0.0,0.0,0.0,0.0
4908000,-9.06437e-06,0.00457054,-0.000653402,0.0,0.0,0.0,0.0
4936000,-0.000113505,0.00389667,-0.00600283,0.0,0.0,0.0,0.0
4968000,-0.00352042,-0.00265739,0.00164792,0.0,0.0,0.0,0.0
4996000,0.0014236,-0.00368574,0.00436299,0.0,0.0,0.0,0.0
5028000,0.00218966,-0.00315434,-0.00912014,0.0,0.0,0.0,0.0
5060000,0.0048137,0.00379755,-0.00184977,0.0,0.0,0.0,0.0
5088000,-0.000393573,-0.000167913,-0.00679077,0.0,0.0,0.0,0.0
5116000,-0.00586059,0.00172872,-0.00639695,0.0,0.0,0.0,0.0
5148000,-0.00289223,-0.00659374,-0.00051854,0.0,0.0,0.0,0.0
5176000,0.00129317,0.00586062,-0.0049185,0.0,0.0,0.0,0.0
5204000,-0.0037563,-0.000187459,0.00546701,0.0,0.0,0.0,0.0
5236000,0.000702005,0.0025307,-0.00335649,0.0,0.0,0.0,0.0
5268000,-0.00445364,-0.000500121,0.00995428,0.0,0.0,0.0,0.0
5296000,-0.0014293,0.00163567,0.00375483,0.0,0.0,0.0,0.0
5324000,0.00276639,0.00468868,-4.94293e-06,0.0,0.0,0.0,0.0
5352000,0.00993151,0.00414814,0.00652302,0.0,0.0,0.0,0.0
5380000,0.00115059,-0.00681562,-0.0016356,0.0,0.0,0.0,0.0
5408000,-0.00425377,0.0025173,-0.000138923,0.0,0.0,0.0,0.0
5440000,0.0019659,0.00119172,-0.00100529,0.0,0.0,0.0,0.0
5472000,-0.0110977,-0.00353267,9.31881e-05,0.0,0.0,0.0,0.0
5504000,-0.00142684,0.00305645,-0.00251441,0.0,0.0,0.0,0.0
5532000,-0.00081037,-0.00224024,0.00314719,0.0,0.0,0.0,0.0
5564000,-0.000188998,-0.00878099,-0.00112317,0.0,0.0,0.0,0.0
5596000,-0.00421996,-0.000521417,0.00645372,0.0,0.0,0.0,0.0
5628000,-0.000244519,0.00350006,0.00527047,0.0,0.0,0.0,0.0
5660000,-0.00518746,-0.00345778,0.00255067,0.0,0.0,0.0,0.0
5692000,0.000452513,-0.000610552,0.00915498,0.0,0.0,0.0,0.0
5720000,0.00221952,-0.00223782,0.000481334,0.0,0.0,0.0,0.0
5748000,0.00193388,-0.00590308,-0.00171561,0.0,0.0,0.0,0.0
5780000,0.00354307,0.00177848,0.00508393,0.0,0.0,0.0,0.0
5812000,-0.000789194,0.00322183,-0.00241274,0.0,0.0,0.0,0.0
5840000,-0.00619262,0.00457129,0.00342666,0.0,0.0,0.0,0.0
5868000,-0.00212501,-0.00389917,0.00723945,0.0,0.0,0.0,0.0
5900000,-0.00607817,0.00134544,0.00389335,0.0,0.0,0.0,0.0
5932000,0.00271135,-0.00189251,-0.00844442,0.0,0.0,0.0,0.0
5964000,0.00440301,-0.00792517,0.00754877,0.0,0.0,0.0,0.0
5992000,0.00458663,0.000158289,0.00503109,0.0,0.0,0.0,0.0
6020000,7.70872e-05,-0.00823519,-0.00227193,0.0,0.0,0.0,0.0
6052000,-0.00426347,-0.00457142,-0.00348123,0.0,0.0,0.0,0.0
6084000,7.13532e-05,0.00235034,-0.00827745,0.0,0.0,0.0,0.0
6116000,0.0040695,0.00930313,0.0013974,0.0,0.0,0.0,0.0
6148000,-0.00199915,0.00561679,0.0011088,0.0,0.0,0.0,0.0
6176000,0.00339606,9.48995e-05,0.00536439,0.0,0.0,0.0,0.0
6208000,0.00296627,0.00135838,-0.00121252,0.0,0.0,0.0,0.0
6240000,0.00365718,-0.00289491,-0.00184316,0.0,0.0,0.0,0.0
6272000,0.000113675,-0.00990957,-0.0105327,0.0,0.0,0.0,0.0
6304000,-0.000397607,-0.000958246,-0.00574584,0.0,0.0,0.0,0.0
6336000,0.00499662,-0.000566954,0.0111737,0.0,0.0,0.0,0.0
6364000,-0.00335273,-0.0044144,-0.00665416,0.0,0.0,0.0,0.0
6392000,0.00224451,0.00191662,0.00609334,0.0,0.0,0.0,0.0
6420000,0.00566803,-0.00596511,-0.000224223,0.0,0.0,0.0,0.0
6452000,0.00806334,0.00350898,0.00693587,0.0,0.0,0.0,0.0
6484000,0.000909628,-0.00320143,0.00706535,0.0,0.0,0.0,0.0
6516000,-0.00140397,-0.00225781,-0.0022036,0.0,0.0,0.0,0.0
6548000,0.000279836,-0.00346215,0.00393212,0.0,0.0,0.0,0.0
6580000,-0.00317971,0.00509849,-0.0120409,0.0,0.0,0.0,0.0
6612000,0.000749212,0.00132159,-0.00293593,0.0,0.0,0.0,0.0
6640000,-0.00487556,0.00774503,-0.00282513,0.0,0.0,0.0,0.0
6668000,-0.0125909,0.00185004,-0.00133088,0.0,0.0,0.0,0.0
6696000,0.000130587,-0.00453186,-0.00850691,0.0,0.0,0.0,0.0
6724000,-0.00530413,0.00944775,0.00391422,0.0,0.0,0.0,0.0
6756000,-0.00222699,-0.000273856,0.000240259,0.0,0.0,0.0,0.0
6788000,0.00531784,-0.00466995,0.00393473,0.0,0.0,0.0,0.0
6816000,-0.0027095,0.00284212,-0.00243017,0.0,0.0,0.0,0.0
6844000,-0.00313543,0.000562899,0.000192784,0.0,0.0,0.0,0.0
6872000,3.97077e-06,0.000246167,0.00718284,0.0,0.0,0.0,0.0
6900000,-0.000936151,-0.0026336,-0.00385,0.0,0.0,0.0,0.0
6928000,-0.00782627,0.00296442,-0.00169935,0.0,0.0,0.0,0.0
6960000,-0.00443899,0.00135361,0.00609951,0.0,0.0,0.0,0.0
6988000,0.00484914,-0.00259698,0.00206837,0.0,0.0,0.0,0.0
7020000,0.00398643,0.004237,0.000491784,0.0,0.0,0.0,0.0
7048000,0.00526543,0.00384135,0.00357944,0.0,0.0,0.0,0.0
7080000,0.0062843,-0.00334124,-0.00343887,0.0,0.0,0.0,0.0
7108000,0.00564438,0.000961883,0.00712181,0.0,0.0,0.0,0.0
7140000,0.00612622,0.00186448,0.00025824,0.0,0.0,0.0,0.0
7172000,-0.00316083,0.00918855,-0.00604649,0.0,0.0,0.0,0.0
7204000,0.00158972,0.00854453,-0.00318884,0.0,0.0,0.0,0.0
7236000,0.00489223,0.000277168,0.000415967,0.0,0.0,0.0,0.0
7264000,-0.00202653,-0.00267523,-0.00823529,0.0,0.0,0.0,0.0
7296000,0.00761474,0.00234735,-0.00130897,0.0,0.0,0.0,0.0
7328000,-0.00360754,-0.0011675,0.00264238,0.0,0.0,0.0,0.0
7360000,0.0015094,-0.00340427,0.00257535,0.0,0.0,0.0,0.0
7392000,0.00350545,0.00560557,-0.00381076,0.0,0.0,0.0,0.0
7424000,0.00224392,0.000501412,-0.00171764,0.0,0.0,0.0,0.0
7456000,0.00467202,-0.000773438,0.0108114,0.0,0.0,0.0,0.0
7484000,-0.00176227,0.00299467,0.00324929,0.0,0.0,0.0,0.0
7516000,-0.00411962,0.00230233,0.00371202,0.0,0.0,0.0,0.0
7548000,-0.00414828,0.00554585,-0.00236834,0.0,0.0,0.0,0.0
7576000,-0.00968811,0.004651,-0.0017813,0.0,0.0,0.0,0.0
7608000,-0.00672589,0.00197706,0.0069606,0.0,0.0,0.0,0.0
7636000,0.00966013,0.0038422,0.00543764,0.0,0.0,0.0,0.0
7668000,0.00705147,0.00161492,0.00567508,0.0,0.0,0.0,0.0
7700000,-0.00517118,0.00803401,0.00135741,0.0,0.0,0.0,0.0
7732000,0.00907067,0.000374027,-0.00652643,0.0,0.0,0.0,0.0
7760000,0.00346523,-0.000838727,0.000734573,0.0,0.0,0.0,0.0
7788000,0.0139815,-0.00612717,8.72984e-05,0.0,0.0,0.0,0.0
7820000,0.00541269,-0.000668496,-0.00505299,0.0,0.0,0.0,0.0
7852000,-5.37052e-05,-0.00285497,0.0119017,0.0,0.0,0.0,0.0
7880000,0.00351345,-0.00440929,0.000152757,0.0,0.0,0.0,0.0
7912000,-0.00474912,0.000840094,0.00654777,0.0,0.0,0.0,0.0
7944000,-0.00544367,-0.00527798,-0.000108833,0.0,0.0,0.0,0.0
7976000,-0.00169822,0.000195507,-0.00397918,0.0,0.0,0.0,0.0
8008000,-0.0055417,-0.00486509,-0.00340296,0.0,0.0,0.0,0.0
8036000,0.00365714,0.000498274,0.00204778,0.0,0.0,0.0,0.0
8064000,-0.00331833,-0.00719073,-0.00892264,0.0,0.0,0.0,0.0
8096000,-0.00542733,-0.00834233,-0.00848163,0.0,0.0,0.0,0.0
8128000,-0.00211126,0.00496725,0.00323703,0.0,0.0,0.0,0.0
8156000,0.00911828,0.00374137,0.0104624,0.0,0.0,0.0,0.0
8188000,0.00236734,-0.00822709,-0.00253668,0.0,0.0,0.0,0.0
8216000,0.00564624,0.000815375,-0.00123842,0.0,0.0,0.0,0.0
8244000,0.00271526,-0.000607293,-0.005124,0.0,0.0,0.0,0.0
8276000,0.00566741,-0.00322286,0.00471429,0.0,0.0,0.0,0.0
8308000,-0.00380785,-0.00103412,-0.0024047,0.0,0.0,0.0,0.0
8340000,0.00260797,-0.00760907,0.00010614,0.0,0.0,0.0,0.0
8368000,-0.00142579,-0.00323155,0.00799614,0.0,0.0,0.0,0.0
8396000,0.0058994,0.00121121,-0.00513811,0.0,0.0,0.0,0.0
8428000,0.00207159,0.0154237,-0.00250566,0.0,0.0,0.0,0.0
8460000,0.00790671,0.00398687,0.00458896,0.0,0.0,0.0,0.0
8488000,-0.00190933,0.00145594,-0.00597582,0.0,0.0,0.0,0.0
8520000,0.00217482,-0.0025667,0.00207918,0.0,0.0,0.0,0.0
8548000,-0.000554718,0.00203463,0.00093789,0.0,0.0,0.0,0.0
8576000,0.000485332,-0.00728932,-0.000870799,0.0,0.0,0.0,0.0
8608000,0.00346381,0.00446883,-0.00450198,0.0,0.0,0.0,0.0
8636000,-0.00392594,-5.95998e-07,0.00315644,0.0,0.0,0.0,0.0
8664000,0.00136551,0.000784879,-0.000235029,0.0,0.0,0.0,0.0
8696000,0.000999297,-0.00613749,0.00576186,0.0,0.0,0.0,0.0
8724000,-0.0066502,-0.0145606,-0.00265755,0.0,0.0,0.0,0.0
8756000,0.0128209,0.00456614,7.82992e-05,0.0,0.0,0.0,0.0
8784000,-0.00487699,0.00219706,-3.88597e-05,0.0,0.0,0.0,0.0
8812000,-0.00561449,-0.00564162,0.00644285,0.0,0.0,0.0,0.0
8840000,-0.00152847,-0.00219335,-0.0105426,0.0,0.0,0.0,0.0
8868000,-0.0123795,0.006075,-0.00177668,0.0,0.0,0.0,0.0
8900000,0.00317633,0.00775948,-0.000858784,0.0,0.0,0.0,0.0
8932000,-0.00563223,0.00553211,0.00411353,0.0,0.0,0.0,0.0
8964000,0.00331234,0.0038281,0.00447136,0.0,0.0,0.0,0.0
8992000,0.00552621,-0.001551,0.00507773,0.0,0.0,0.0,0.0
9020000,-0.00807045,0.00260089,-0.002733,0.0,0.0,0.0,0.0
9048000,0.00964963,-0.000237472,-0.00322875,0.0,0.0,0.0,0.0
9080000,0.0064233,-0.00539437,-0.0009473,0.0,0.0,0.0,0.0
9112000,-0.000172381,0.00726239,0.00370129,0.0,0.0,0.0,0.0
9144000,-0.00588183,-0.00980298,-0.00445076,0.0,0.0,0.0,0.0
9176000,-0.00510246,0.00276972,-0.000119307,0.0,0.0,0.0,0.0
9208000,0.000141495,-0.00248059,0.00129866,0.0,0.0,0.0,0.0
9236000,0.00176815,0.00195775,-0.00375645,0.0,0.0,0.0,0.0
9268000,-0.00198638,0.00209911,-0.000376262,0.0,0.0,0.0,0.0
9300000,-0.00374161,-0.00319292,-0.00125012,0.0,0.0,0.0,0.0
9332000,-0.000246403,-0.00923829,-0.00178665,0.0,0.0,0.0,0.0
9364000,0.00205449,0.00539177,0.000791542,0.0,0.0,0.0,0.0
9396000,-0.00280306,-0.000890533,0.000892232,0.0,0.0,0.0,0.0
9424000,-0.00744231,-0.00505611,-0.00469364,0.0,0.0,0.0,0.0
9456000,0.00160377,0.000923078,0.00072776,0.0,0.0,0.0,0.0
9484000,0.00471384,-0.000191848,-0.00178244,0.0,0.0,0.0,0.0
9512000,-0.00521077,-0.00138809,0.00830898,0.0,0.0,0.0,0.0
9540000,-0.00441177,-0.00267114,-0.0024188,0.0,0.0,0.0,0.0
9572000,0.000404613,0.0105523,0.0101932,0.0,0.0,0.0,0.0
9600000,0.00151017,-0.0138116,-0.00740812,0.0,0.0,0.0,0.0
9628000,0.00247553,-0.0051178,-0.00441036,0.0,0.0,0.0,0.0
9660000,0.000149647,0.00185747,-0.00206479,0.0,0.0,0.0,0.0
9692000,0.00125022,-0.0073079,0.0030599,0.0,0.0,0.0,0.0
9724000,-0.00271112,-0.000582913,-0.00935313,0.0,0.0,0.0,0.0
9756000,-0.00207913,-0.00869841,-0.00598642,0.0,0.0,0.0,0.0
9788000,0.00312186,-0.000528632,-0.00352056,0.0,0.0,0.0,0.0
9820000,0.00535219,0.00464224,-0.00608833,0.0,0.0,0.0,0.0
9848000,0.0004772,0.00140548,-0.00187253,0.0,0.0,0.0,0.0
9876000,0.00559174,0.0132436,0.00793628,0.0,0.0,0.0,0.0
9908000,-0.0110734,0.000971366,-0.00316713,0.0,0.0,0.0,0.0
9940000,-0.00697378,-0.000105695,-0.00886406,0.0,0.0,0.0,0.0
9968000,-0.00115954,-0.00349935,-0.00588297,0.0,0.0,0.0,0.0
9996000,-0.00501986,-0.00658141,0.000240655,0.0,0.0,0.0,0.0
10028000,-5.44616e-05,-0.00499562,0.00342894,0.0,0.0,0.0,0.0
10060000,-0.0002554,0.000347136,-0.00315151,0.0,0.0,0.0,0.0
10092000,-0.00581695,-0.00278359,-0.0064754,0.0,0.0,0.0,0.0
10120000,0.00274292,0.00488124,0.00750277,0.0,0.0,0.0,0.0
10148000,-0.0096213,-0.0021879,-0.00394484,0.0,0.0,0.0,0.0
10180000,0.00969877,-0.0023603,0.0029707,0.0,0.0,0.0,0.0
10212000,0.00457912,0.00158842,0.00453089,0.0,0.0,0.0,0.0
10240000,-0.00283904,-6.66878e-05,-0.001886,0.0,0.0,0.0,0.0
10272000,0.00853376,-0.00528082,-0.00758585,0.0,0.0,0.0,0.0
10304000,-0.00266897,-0.0103866,0.0054865,0.0,0.0,0.0,0.0
10336000,-0.00227062,0.000176233,0.000836205,0.0,0.0,0.0,0.0
10364000,-0.0061266,0.00390004,0.00729386,0.0,0.0,0.0,0.0
10396000,-0.00109539,0.000295667,-0.00527148,0.0,0.0,0.0,0.0
10428000,-0.00756451,-0.00777187,0.0020911,0.0,0.0,0.0,0.0
10460000,-0.00371703,0.00778487,-0.000742906,0.0,0.0,0.0,0.0
10492000,-0.00246805,0.00618696,-0.000628846,0.0,0.0,0.0,0.0
10524000,0.00761364,0.000377113,0.00515446,0.0,0.0,0.0,0.0
10552000,0.00624752,-0.00781868,0.00287302,0.0,0.0,0.0,0.0
10580000,-0.00187907,0.0142595,0.00749386,0.0,0.0,0.0,0.0
10612000,-0.00185147,0.00116524,0.00247602,0.0,0.0,0.0,0.0
10640000,0.00373155,0.00366931,0.00221736,0.0,0.0,0.0,0.0
10668000,-0.00163944,0.00288719,-0.00731909,0.0,0.0,0.0,0.0
10696000,-0.00551279,-0.0062521,0.00882341,0.0,0.0,0.0,0.0
10724000,-0.00707253,0.0105064,-0.00297789,0.0,0.0,0.0,0.0
10752000,0.00658096,-0.00380431,-0.000530984,0.0,0.0,0.0,0.0
10780000,0.00121594,-0.00223057,-0.00852098,0.0,0.0,0.0,0.0
10812000,0.00393005,0.000355856,-0.00648435,0.0,0.0,0.0,0.0
10844000,-0.00184222,-0.00391608,0.00106044,0.0,0.0,0.0,0.0
10876000,-0.00532232,0.00393855,-0.00684721,0.0,0.0,0.0,0.0
10904000,0.000494519,0.00567279,-0.011798,0.0,0.0,0.0,0.0
10932000,-0.00387456,-0.00524021,0.00430446,0.0,0.0,0.0,0.0
10964000,-0.00688947,-0.00705012,-0.00535254,0.0,0.0,0.0,0.0
10992000,-0.00362511,0.0128017,0.0044179,0.0,0.0,0.0,0.0
11024000,0.000959319,0.0053747,-0.00119289,0.0,0.0,0.0,0.0
11056000,-0.0103978,5.5172e-05,0.0038499,0.0,0.0,0.0,0.0
11084000,0.00248017,-0.00526312,0.00569216,0.0,0.0,0.0,0.0
11116000,-0.000703515,-0.00101696,0.00780229,0.0,0.0,0.0,0.0
11144000,-0.00292502,0.00784131,0.00361414,0.0,0.0,0.0,0.0
11176000,0.000461026,0.00370443,0.00331509,0.0,0.0,0.0,0.0
11204000,0.00220051,-0.000202213,0.00297483,0.0,0.0,0.0,0.0
11232000,0.000570997,0.000669901,-0.00588734,0.0,0.0,0.0,0.0
11260000,-0.00704934,0.000251941,0.00639753,0.0,0.0,0.0,0.0
11292000,0.000195141,0.000923848,-0.00778965,0.0,0.0,0.0,0.0
11324000,0.00173107,0.000338928,-0.000710934,0.0,0.0,0.0,0.0
11356000,0.00316224,-0.00107462,-0.00858753,0.0,0.0,0.0,0.0
11384000,0.0107836,-0.00715667,-0.00269193,0.0,0.0,0.0,0.0
11412000,-0.00474581,-0.000129592,0.00770229,0.0,0.0,0.0,0.0
11444000,0.00256945,-0.00545284,0.000184025,0.0,0.0,0.0,0.0
11476000,-0.00390397,0.0147336,0.00021419,0.0,0.0,0.0,0.0
11508000,0.000115404,0.00489028,-0.000652872,0.0,0.0,0.0,0.0
11536000,-0.00223908,-0.00668405,-0.00208538,0.0,0.0,0.0,0.0
11568000,0.0109012,0.00587521,-0.00300324,0.0,0.0,0.0,0.0
11600000,-0.0109307,0.00824894,-0.00504089,0.0,0.0,0.0,0.0
11632000,-0.0073372,0.000353268,0.00103146,0.0,0.0,0.0,0.0
11664000,0.00805106,0.00362215,-0.00232798,0.0,0.0,0.0,0.0
11692000,-0.00125437,-0.00197658,-0.000399518,0.0,0.0,0.0,0.0
11724000,-0.000333289,-0.00988302,0.000818217,0.0,0.0,0.0,0.0
11756000,0.00701472,0.00559411,0.00509432,0.0,0.0,0.0,0.0
11784000,0.000562013,-0.00347707,-0.00544368,0.0,0.0,0.0,0.0
11812000,-0.00464376,0.00183627,-0.00535965,0.0,0.0,0.0,0.0
11840000,-0.00229138,-0.00244663,-8.44592e-05,0.0,0.0,0.0,0.0
11872000,-0.00610773,0.00234105,-0.00404968,0.0,0.0,0.0,0.0
11904000,0.000729466,0.00739315,-0.00391083,0.0,0.0,0.0,0.0
11932000,-0.0063464,-0.00389456,0.00131977,0.0,0.0,0.0,0.0
11964000,0.00443509,-0.00122726,-0.00332409,0.0,0.0,0.0,0.0
11996000,0.00497439,0.00101404,-0.00465452,0.0,0.0,0.0,0.0
12024000,-0.00298987,0.00541303,-4.34644e-05,0.0,0.0,0.0,0.0
12056000,0.00113445,-0.00451973,0.00154755,0.0,0.0,0.0,0.0
12084000,0.000596453,0.000351226,-0.00232867,0.0,0.0,0.0,0.0
12116000,0.00315373,-0.00348735,-0.000147782,0.0,0.0,0.0,0.0
12148000,0.00317875,-0.000561847,0.00306307,0.0,0.0,0.0,0.0
12176000,0.00142119,-0.00275747,-0.00668754,0.0,0.0,0.0,0.0
12204000,-0.000671475,-0.00371118,0.00784281,0.0,0.0,0.0,0.0
12236000,-0.00340919,0.00101705,-0.000434916,0.0,0.0,0.0,0.0
12264000,0.000102838,-0.00568343,0.00082889,0.0,0.0,0.0,0.0
12296000,-0.00368136,0.00160005,0.000804529,0.0,0.0,0.0,0.0
12324000,0.0093055,-0.00130456,-0.0020166,0.0,0.0,0.0,0.0
12356000,0.00575365,0.00280477,0.00458459,0.0,0.0,0.0,0.0
12388000,-0.00208512,-0.000231267,-0.00342993,0.0,0.0,0.0,0.0
12420000,0.00159645,0.00516565,0.00172387,0.0,0.0,0.0,0.0
12448000,-0.00254824,0.00520525,-0.00548735,0.0,0.0,0.0,0.0
12476000,0.0100105,0.00328262,0.00724153,0.0,0.0,0.0,0.0
12508000,-0.00513002,-0.00358318,0.00377503,0.0,0.0,0.0,0.0
12540000,-0.00483511,0.00686593,0.00399967,0.0,0.0,0.0,0.0
12572000,0.0049782,-0.00131095,-0.0165932,0.0,0.0,0.0,0.0
12604000,-0.000148978,0.00137923,0.00180525,0.0,0.0,0.0,0.0
12636000,0.00380399,0.00669785,0.000801419,0.0,0.0,0.0,0.0
12668000,0.00206411,-0.00351938,-0.00575471,0.0,0.0,0.0,0.0
12700000,-0.00439652,-0.00576546,-0.00328233,0.0,0.0,0.0,0.0
12732000,0.00639546,-0.00202899,0.00283218,0.0,0.0,0.0,0.0
12764000,0.00343502,0.00234844,-0.00143785,0.0,0.0,0.0,0.0
12796000,0.00095776,0.00294158,0.00568284,0.0,0.0,0.0,0.0
12828000,-0.00664054,-0.00339153,0.00362462,0.0,0.0,0.0,0.0
12860000,-0.000223318,-0.00459759,0.00403119,0.0,0.0,0.0,0.0
12892000,0.00439985,0.000507982,0.00528442,0.0,0.0,0.0,0.0
12924000,-0.00746293,-0.00154637,-0.00224867,0.0,0.0,0.0,0.0
12952000,-6.98988e-05,-0.00360437,0.00430879,0.0,0.0,0.0,0.0
12980000,0.000349314,0.00212836,-0.00376413,0.0,0.0,0.0,0.0
13012000,-0.00336123,0.0032886,0.00132222,0.0,0.0,0.0,0.0
13044000,0.00310083,-0.00302511,-0.00201035,0.0,0.0,0.0,0.0
13076000,0.00282616,0.00014832,0.00815454,0.0,0.0,0.0,0.0
13108000,0.00322552,-0.00679725,-0.000720622,0.0,0.0,0.0,0.0
13140000,-0.00264559,-0.00774257,0.000591181,0.0,0.0,0.0,0.0
13172000,0.0051748,-0.00355605,-0.00311159,0.0,0.0,0.0,0.0
13204000,0.00553635,-0.00865225,-0.00062457,0.0,0.0,0.0,0.0
13236000,-0.00522877,-0.000922199,-0.000612656,0.0,0.0,0.0,0.0
13268000,-0.000971504,-0.00244884,-0.00259752,0.0,0.0,0.0,0.0
13296000,-0.00185809,-0.000879317,-0.000704635,0.0,0.0,0.0,0.0
13328000,-0.00612651,0.00757263,-0.00566022,0.0,0.0,0.0,0.0
13356000,-0.00325679,-0.00323222,-0.000432487,0.0,0.0,0.0,0.0
13384000,-0.00143194,0.00124484,0.00135136,0.0,0.0,0.0,0.0
13412000,0.00519664,-0.00376456,0.00375419,0.0,0.0,0.0,0.0
13440000,-0.000450893,-0.0046009,-0.0049209,0.0,0.0,0.0,0.0
13472000,-0.00470146,0.00121258,-0.00632073,0.0,0.0,0.0,0.0
13504000,-0.00800608,0.000957425,0.00043082,0.0,0.0,0.0,0.0
13532000,0.00326919,0.00206196,0.00331859,0.0,0.0,0.0,0.0
13560000,0.0082006,0.00230185,-0.00275515,0.0,0.0,0.0,0.0
13592000,-0.00799454,-0.000229056,0.0110768,0.0,0.0,0.0,0.0
13624000,4.14198e-05,-0.00272963,-0.00534827,0.0,0.0,0.0,0.0
13656000,0.00129535,-0.000268233,0.00035543,0.0,0.0,0.0,0.0
13684000,-0.00682311,-0.00239605,0.0032271,0.0,0.0,0.0,0.0
13712000,0.0034414,0.00644076,0.00507919,0.0,0.0,0.0,0.0
13740000,0.00558338,0.00131829,0.000467881,0.0,0.0,0.0,0.0
13772000,0.00282887,0.00285163,-0.00113563,0.0,0.0,0.0,0.0
13804000,0.00204351,0.00336568,-0.0115284,0.0,0.0,0.0,0.0
13836000,-0.00581166,0.0093781,0.0068062,0.0,0.0,0.0,0.0
13868000,-0.00362556,0.00386072,-0.00360442,0.0,0.0,0.0,0.0
13900000,0.0110727,0.000109775,0.00280113,0.0,0.0,0.0,0.0
13928000,-0.0102406,0.00166091,-0.00761317,0.0,0.0,0.0,0.0
13956000,0.00850208,-0.00682648,0.00296557,0.0,0.0,0.0,0.0
13988000,-0.0069937,-0.00688517,-0.00196254,0.0,0.0,0.0,0.0
14020000,0.0031997,0.00520096,0.00485978,0.0,0.0,0.0,0.0
14048000,-0.00255213,-0.00188444,0.00268495,0.0,0.0,0.0,0.0
14076000,-0.000591719,-0.000630138,-0.00579408,0.0,0.0,0.0,0.0
14104000,0.00529698,0.00558063,-0.00322223,0.0,0.0,0.0,0.0
14132000,-0.00991468,-0.000400451,0.000810952,0.0,0.0,0.0,0.0
14160000,0.000719626,-0.00312871,0.00427537,0.0,0.0,0.0,0.0
14188000,0.00113266,-0.00136791,-0.00376699,0.0,0.0,0.0,0.0
14220000,0.00738179,0.000361613,-0.00441653,0.0,0.0,0.0,0.0
14252000,-0.00137268,-0.00022743,-0.00296049,0.0,0.0,0.0,0.0
14284000,0.00527393,-0.00438717,0.00335622,0.0,0.0,0.0,0.0
14316000,-0.00600518,-0.00149571,-0.00406749,0.0,0.0,0.0,0.0
14348000,0.00361001,-0.00131904,-0.00174779,0.0,0.0,0.0,0.0
14376000,0.00347282,-0.00983915,0.000741145,0.0,0.0,0.0,0.0
14404000,-0.000284979,-0.00419291,0.00406837,0.0,0.0,0.0,0.0
14432000,-0.00413933,-0.000130315,-0.00132744,0.0,0.0,0.0,0.0
14464000,-0.0023606,0.00953669,0.00173299,0.0,0.0,0.0,0.0
14496000,0.000362598,-0.00462505,0.00107556,0.0,0.0,0.0,0.0
14528000,0.000489405,0.00208554,0.00442938,0.0,0.0,0.0,0.0
14556000,0.00225974,-0.00277778,0.00745255,0.0,0.0,0.0,0.0
14584000,0.00250737,0.00164973,-0.00225792,0.0,0.0,0.0,0.0
14612000,0.00658298,-0.00484762,0.00627033,0.0,0.0,0.0,0.0
14640000,-0.00742737,0.000581065,0.00189974,0.0,0.0,0.0,0.0
14672000,0.0051354,-0.00444296,0.00552573,0.0,0.0,0.0,0.0
14700000,0.00181141,0.00528792,0.00109446,0.0,0.0,0.0,0.0
14732000,-0.00630104,0.00495795,0.00585922,0.0,0.0,0.0,0.0
14764000,0.00356367,-0.00473258,-0.00410785,0.0,0.0,0.0,0.0
14796000,0.00215023,0.00710389,0.00341625,0.0,0.0,0.0,0.0
14828000,-0.00155765,0.0170993,0.00300279,0.0,0.0,0.0,0.0
14860000,-0.00523797,-0.00492404,-0.0069074,0.0,0.0,0.0,0.0
14892000,-0.0065856,0.00277499,0.00443333,0.0,0.0,0.0,0.0
14924000,-0.00185551,0.00147162,0.000893944,0.0,0.0,0.0,0.0
14952000,0.00836135,0.00157121,0.000904606,0.0,0.0,0.0,0.0
14984000,-0.00192259,0.0047025,-0.00367286,0.0,0.0,0.0,0.0
15016000,0.00604869,0.00274693,0.00317518,0.0,0.0,0.0,0.0
15048000,2.74677e-05,0.00332978,-0.00274857,0.0,0.0,0.0,0.0
15076000,-0.00496239,-0.0059224,-0.00057239,0.0,0.0,0.0,0.0
15104000,0.00071349,0.0158514,0.0020045,0.0,0.0,0.0,0.0
15136000,0.00584956,0.00233948,0.00752763,0.0,0.0,0.0,0.0
15168000,0.00126923,0.00347947,0.00375853,0.0,0.0,0.0,0.0
15200000,-9.89002e-05,-0.00691098,0.000798461,0.0,0.0,0.0,0.0
15232000,-0.0110794,-0.00258112,0.0120381,0.0,0.0,0.0,0.0
15264000,-0.00535204,-0.00431723,-6.48041e-05,0.0,0.0,0.0,0.0
15292000,0.00451277,-0.00299171,0.0106686,0.0,0.0,0.0,0.0
15320000,-0.0096502,-0.00729877,0.000374222,0.0,0.0,0.0,0.0
15352000,-0.0055442,0.00286197,0.00272477,0.0,0.0,0.0,0.0
15380000,0.00330725,-0.0012638,-0.00464461,0.0,0.0,0.0,0.0
15412000,-0.0110169,0.00296291,0.00728302,0.0,0.0,0.0,0.0
15440000,0.00789824,0.00651161,-0.00622759,0.0,0.0,0.0,0.0
15472000,-0.00706123,0.000880434,-0.00014047,0.0,0.0,0.0,0.0
15504000,0.00357883,0.00106644,0.000656067,0.0,0.0,0.0,0.0
15532000,-0.0033999,-0.00224883,0.00614838,0.0,0.0,0.0,0.0
15564000,-0.00981731,-0.00240617,0.0133754,0.0,0.0,0.0,0.0
15596000,0.00145139,-0.00518108,0.0033933,0.0,0.0,0.0,0.0
15628000,-0.00591164,0.00252665,-0.00116103,0.0,0.0,0.0,0.0
15660000,-0.00325218,0.00191727,8.78842e-05,0.0,0.0,0.0,0.0
15692000,0.00166152,-0.0107062,-0.00721626,0.0,0.0,0.0,0.0
15724000,6.46182e-05,-0.006148,-0.00492665,0.0,0.0,0.0,0.0
15752000,-0.00112232,0.00110928,-0.00620292,0.0,0.0,0.0,0.0
15784000,0.000482335,-0.000832635,-0.00123845,0.0,0.0,0.0,0.0
15812000,-0.00413059,0.000331989,0.00804347,0.0,0.0,0.0,0.0
15840000,0.00320775,0.00144276,0.00480503,0.0,0.0,0.0,0.0
15872000,0.000227718,0.00172429,-0.00304005,0.0,0.0,0.0,0.0
15900000,-0.00383478,-0.00227332,-2.68126e-05,0.0,0.0,0.0,0.0
15932000,0.00223851,-0.00213169,0.00893141,0.0,0.0,0.0,0.0
15964000,-0.0090152,-0.00240546,0.00214845,0.0,0.0,0.0,0.0
15992000,0.00359693,0.00274726,-0.00525006,0.0,0.0,0.0,0.0
16024000,-0.00143192,-3.45436e-05,0.00901296,0.0,0.0,0.0,0.0
16056000,-0.00136389,-0.00789058,-0.00043832,0.0,0.0,0.0,0.0
16088000,-0.00302867,-0.00596991,0.0035832,0.0,0.0,0.0,0.0
16120000,0.00198344,0.00615791,0.0014675,0.0,0.0,0.0,0.0
16152000,-0.00253443,7.90052e-06,0.00253661,0.0,0.0,0.0,0.0
16180000,-0.00353634,0.00315437,0.00277453,0.0,0.0,0.0,0.0
16208000,-4.87562e-07,0.00142894,-0.00175629,0.0,0.0,0.0,0.0
16240000,-0.00100455,-0.00156023,-0.00765356,0.0,0.0,0.0,0.0
16272000,-0.0123974,0.00665677,0.00473453,0.0,0.0,0.0,0.0
16304000,0.00957736,-0.0099532,0.00312983,0.0,0.0,0.0,0.0
16332000,0.000418576,-0.00218746,-0.00106967,0.0,0.0,0.0,0.0
16360000,-0.00669134,-0.00177485,-0.00011409,0.0,0.0,0.0,0.0
16388000,0.0063621,-0.00368399,0.00156307,0.0,0.0,0.0,0.0
16416000,-0.00936707,-0.00417673,-0.00144795,0.0,0.0,0.0,0.0
16444000,0.00711372,0.00683741,-0.00252555,0.0,0.0,0.0,0.0
16476000,0.00622577,-0.000761724,0.00393627,0.0,0.0,0.0,0.0
16504000,0.00380862,0.00493813,0.000247305,0.0,0.0,0.0,0.0
16536000,-0.00326644,0.00916231,-0.00228227,0.0,0.0,0.0,0.0
16564000,0.00452806,-0.0068756,0.00136465,0.0,0.0,0.0,0.0
16596000,-0.01232,-0.00521531,-0.00874229,0.0,0.0,0.0,0.0
16628000,0.00601381,-0.000768257,-0.00646351,0.0,0.0,0.0,0.0
16660000,0.00339798,0.00321999,0.00828548,0.0,0.0,0.0,0.0
16692000,-0.00214659,0.00831548,-0.00200968,0.0,0.0,0.0,0.0
16724000,-0.00335115,0.00302377,-0.0026779,0.0,0.0,0.0,0.0
16752000,-0.0105518,0.00260692,0.000758355,0.0,0.0,0.0,0.0
16780000,-0.00132208,-0.000940306,0.0019164,0.0,0.0,0.0,0.0
16808000,-0.00990801,0.00249029,0.00685971,0.0,0.0,0.0,0.0
16836000,0.00150655,0.00508813,-0.00653761,0.0,0.0,0.0,0.0
16868000,0.0063093,0.00108427,0.00270018,0.0,0.0,0.0,0.0
16896000,0.000235492,0.00428818,0.00677934,0.0,0.0,0.0,0.0
16928000,0.00710916,0.00285021,0.00444374,0.0,0.0,0.0,0.0
16956000,-0.00132536,-0.00329966,0.000112223,0.0,0.0,0.0,0.0
16988000,0.00287986,0.000860044,-0.00770392,0.0,0.0,0.0,0.0
17020000,-0.00176692,-0.0077109,-0.00469122,0.0,0.0,0.0,0.0
17052000,-0.000501615,-0.00639033,-0.00311256,0.0,0.0,0.0,0.0
17084000,0.00125416,0.00724613,0.00119004,0.0,0.0,0.0,0.0
17116000,-0.00146467,0.000739504,0.0070849,0.0,0.0,0.0,0.0
17148000,0.00217314,-0.00330469,-0.001898,0.0,0.0,0.0,0.0
17180000,0.00659696,0.00133733,0.00390549,0.0,0.0,0.0,0.0
17212000,0.00425099,-0.00451246,0.000888361,0.0,0.0,0.0,0.0
17244000,0.00151626,-0.00387237,0.00406112,0.0,0.0,0.0,0.0
17276000,0.00381624,9.23501e-05,-0.00194037,0.0,0.0,0.0,0.0
17304000,5.88418e-05,0.000607987,-0.00330317,0.0,0.0,0.0,0.0
17332000,-0.00153006,0.00139346,0.0046796,0.0,0.0,0.0,0.0
17364000,-0.00747948,-0.00292204,-0.00570401,0.0,0.0,0.0,0.0
17392000,-0.0081465,-0.0039561,0.0139005,0.0,0.0,0.0,0.0
17424000,-0.005321,-0.00894033,-0.00515526,0.0,0.0,0.0,0.0
17452000,-0.000989164,-0.00213075,0.0082343,0.0,0.0,0.0,0.0
17484000,0.00365658,-0.0044674,0.00218093,0.0,0.0,0.0,0.0
17516000,0.00661342,0.00262133,0.00894236,0.0,0.0,0.0,0.0
17548000,-0.00318475,-0.00362418,0.0043305,0.0,0.0,0.0,0.0
17580000,0.00614283,0.00177761,0.00924136,0.0,0.0,0.0,0.0
17612000,-0.00079231,0.00252201,-0.00372119,0.0,0.0,0.0,0.0
17640000,-0.00574271,0.00926743,-0.0068031,0.0,0.0,0.0,0.0
17672000,0.00170822,0.00239876,0.000100598,0.0,0.0,0.0,0.0
17704000,-0.00480033,-0.00796122,-0.0113301,0.0,0.0,0.0,0.0
17736000,-0.00241283,0.00584376,0.00497789,0.0,0.0,0.0,0.0
17768000,-0.00197345,-0.00609907,0.00122169,0.0,0.0,0.0,0.0
17796000,-0.00244614,-0.00355188,-0.00427957,0.0,0.0,0.0,0.0
17828000,0.00124539,-0.00126165,5.34059e-05,0.0,0.0,0.0,0.0
17860000,-0.00554251,0.00470031,0.00115254,0.0,0.0,0.0,0.0
17888000,-0.000247173,0.00986427,0.00516509,0.0,0.0,0.0,0.0
17920000,0.00330277,-0.0040321,0.00423905,0.0,0.0,0.0,0.0
17948000,-0.00190059,0.00386636,-0.0114626,0.0,0.0,0.0,0.0
17980000,-0.000305203,0.00132367,-0.00818174,0.0,0.0,0.0,0.0
18008000,0.00423013,0.00455504,-0.000651054,0.0,0.0,0.0,0.0
18036000,-0.00286247,-0.00880449,0.000842747,0.0,0.0,0.0,0.0
18068000,-0.00394413,0.00198399,-0.00926209,0.0,0.0,0.0,0.0
18096000,0.00377261,0.00443601,0.000209858,0.0,0.0,0.0,0.0
18124000,-0.00652807,-0.0101417,0.003784,0.0,0.0,0.0,0.0
18152000,0.00130822,0.00650045,-0.00316261,0.0,0.0,0.0,0.0
18180000,0.00216741,0.00401488,0.00102874,0.0,0.0,0.0,0.0
18212000,-0.00310362,-0.00138435,0.00181121,0.0,0.0,0.0,0.0
18244000,-0.00121359,-0.001909,0.00661579,0.0,0.0,0.0,0.0
18276000,-0.00149524,0.0102969,-0.00307732,0.0,0.0,0.0,0.0
18304000,-0.00878489,0.00313684,0.00399796,0.0,0.0,0.0,0.0
18332000,-0.00646156,-0.00563605,-0.00114015,0.0,0.0,0.0,0.0
18364000,0.00178317,-0.00311441,0.000527215,0.0,0.0,0.0,0.0
18396000,-0.00154504,0.00065436,-0.00276477,0.0,0.0,0.0,0.0
18428000,-0.00429811,0.00478767,0.00718372,0.0,0.0,0.0,0.0
18456000,-0.000203071,-0.0034533,-0.00882987,0.0,0.0,0.0,0.0
18488000,-0.00558272,-0.00683242,-0.00404844,0.0,0.0,0.0,0.0
18516000,0.00101635,0.000645578,-0.00484489,0.0,0.0,0.0,0.0
18544000,0.00280725,-0.0061926,0.00183621,0.0,0.0,0.0,0.0
18576000,-0.000789309,0.00459295,0.00456291,0.0,0.0,0.0,0.0
18608000,-0.0069817,-0.00235895,0.00192013,0.0,0.0,0.0,0.0
18640000,-0.0030211,0.000945213,0.00580135,0.0,0.0,0.0,0.0
18668000,0.0099494,0.00569304,-0.00114961,0.0,0.0,0.0,0.0
18696000,0.00261031,-0.000592703,0.00640771,0.0,0.0,0.0,0.0
18724000,0.00596454,0.000965627,-0.000476696,0.0,0.0,0.0,0.0
18756000,0.00524891,0.00474378,0.000903896,0.0,0.0,0.0,0.0
18788000,0.00322664,-0.00329523,0.00207674,0.0,0.0,0.0,0.0
18816000,-0.00153697,0.00526582,0.00052581,0.0,0.0,0.0,0.0
18848000,-0.00056562,0.00628861,0.00474142,0.0,0.0,0.0,0.0
18880000,-0.00759036,0.00303308,0.00135438,0.0,0.0,0.0,0.0
18908000,0.0090619,-0.00376162,-0.00568441,0.0,0.0,0.0,0.0
18940000,0.00443068,0.00171764,-0.00483734,0.0,0.0,0.0,0.0
18968000,0.0118279,-0.00301041,-0.000519655,0.0,0.0,0.0,0.0
18996000,-0.00268445,0.00504975,0.00213058,0.0,0.0,0.0,0.0
19028000,0.00109727,-0.00138742,-0.00600177,0.0,0.0,0.0,0.0
19060000,-0.000336833,0.00127653,0.00708934,0.0,0.0,0.0,0.0
19088000,0.00247206,0.00255516,0.00761091,0.0,0.0,0.0,0.0
19120000,-0.00188085,-0.00258824,-9.41899e-05,0.0,0.0,0.0,0.0
19148000,-0.000650904,-0.00542775,0.00584056,0.0,0.0,0.0,0.0
19176000,0.0131793,-0.00116158,0.00736454,0.0,0.0,0.0,0.0
19204000,-0.00322617,0.00280376,0.000830363,0.0,0.0,0.0,0.0
19232000,-0.00620016,-0.0040444,0.0022345,0.0,0.0,0.0,0.0
19264000,-0.00288719,0.00377677,-8.83394e-05,0.0,0.0,0.0,0.0
19296000,0.00106141,0.00311951,0.00652313,0.0,0.0,0.0,0.0
19328000,0.00375245,-9.58731e-06,-0.0089715,0.0,0.0,0.0,0.0
19360000,-0.000601147,0.00894479,0.00060845,0.0,0.0,0.0,0.0
19392000,0.00224274,-0.000587051,0.00618011,0.0,0.0,0.0,0.0
19420000,-0.00275406,-0.00160171,0.00276506,0.0,0.0,0.0,0.0
19452000,0.00509296,0.0105207,0.000357107,0.0,0.0,0.0,0.0
19484000,0.00215256,-0.00104033,0.000880547,0.0,0.0,0.0,0.0
19516000,0.00137879,0.00312346,-0.00877335,0.0,0.0,0.0,0.0
19544000,-0.0133824,-0.00118662,-0.00153402,0.0,0.0,0.0,0.0
19576000,0.00482613,-0.00245436,-0.000309387,0.0,0.0,0.0,0.0
19608000,-0.00528599,0.00622104,-0.00673281,0.0,0.0,0.0,0.0
19636000,0.00987428,0.000491756,-0.00208318,0.0,0.0,0.0,0.0
19664000,-0.00542041,0.00690754,0.000786473,0.0,0.0,0.0,0.0
19696000,-0.00292609,-0.004947,-0.00213575,0.0,0.0,0.0,0.0
19724000,0.00456015,0.00573942,-0.00425602,0.0,0.0,0.0,0.0
19752000,0.00305648,0.00519308,0.00125755,0.0,0.0,0.0,0.0
19784000,-0.0029492,0.00460853,0.00285593,0.0,0.0,0.0,0.0
19812000,-0.000269066,0.00317706,0.000791474,0.0,0.0,0.0,0.0
19844000,-0.00657348,0.00160336,-0.00592583,0.0,0.0,0.0,0.0
19876000,0.0076363,-0.00417427,-0.00432301,0.0,0.0,0.0,0.0
19908000,-0.000151212,-0.00880712,0.00810997,0.0,0.0,0.0,0.0
19940000,0.00204805,0.0046732,0.00100112,0.0,0.0,0.0,0.0
19972000,-0.00664867,-0.00613838,-0.00266119,0.0,0.0,0.0,0.0
20000000,-0.00810651,0.00197586,0.00463557,0.0,0.0,0.0,0.0
20028000,0.000189055,0.00178513,-0.00183287,0.0,0.0,0.0,0.0
20060000,0.00662013,0.000557512,-0.0015296,0.0,0.0,0.0,0.0
20092000,0.00461056,0.0048542,0.0105843,0.0,0.0,0.0,0.0
20124000,0.0068572,-0.00242063,-0.00480124,0.0,0.0,0.0,0.0
20156000,0.00209285,0.000233489,0.00247435,0.0,0.0,0.0,0.0
20188000,-0.00239267,-0.0014603,0.00184369,0.0,0.0,0.0,0.0
20220000,-0.00155586,0.00243211,-0.00264921,0.0,0.0,0.0,0.0
20248000,0.00524743,-0.00951081,-0.00279156,0.0,0.0,0.0,0.0
20276000,0.000182288,-0.00618704,0.00350113,0.0,0.0,0.0,0.0
20308000,-0.00344586,-0.00838181,0.00680637,0.0,0.0,0.0,0.0
20336000,0.00343358,0.00411746,-0.00885265,0.0,0.0,0.0,0.0
20364000,0.0069651,-0.00263484,0.000581448,0.0,0.0,0.0,0.0
20396000,-0.00235826,-0.00424187,-0.002846,0.0,0.0,0.0,0.0
20424000,0.0062009,0.00586117,0.00935005,0.0,0.0,0.0,0.0
20452000,0.00459029,0.00272227,0.00377257,0.0,0.0,0.0,0.0
20484000,-0.00455187,-0.00308247,-0.00303714,0.0,0.0,0.0,0.0
20516000,-0.00804386,0.00364489,0.00395492,0.0,0.0,0.0,0.0
20544000,0.0114189,-1.03015e-05,0.00483473,0.0,0.0,0.0,0.0
20572000,-0.0067432,-0.00932515,-0.00736255,0.0,0.0,0.0,0.0
20604000,0.0113791,-0.00822644,0.00107666,0.0,0.0,0.0,0.0
20632000,-0.00503666,0.000381277,-0.00698221,0.0,0.0,0.0,0.0
20660000,-0.00341098,-0.00323725,-0.00106112,0.0,0.0,0.0,0.0
20692000,0.00113872,0.00565538,0.000398782,0.0,0.0,0.0,0.0
20724000,-0.008624,-0.00667152,0.000144294,0.0,0.0,0.0,0.0
20752000,-0.009652,-0.00226921,0.00408916,0.0,0.0,0.0,0.0
20780000,-0.00487175,-0.00418779,-0.0036596,0.0,0.0,0.0,0.0
20812000,0.002355,-0.0045519,-0.000286739,0.0,0.0,0.0,0.0
20844000,0.00459025,-0.000473522,0.000766971,0.0,0.0,0.0,0.0
20872000,0.00085441,0.00696262,-0.00716768,0.0,0.0,0.0,0.0
20900000,-0.000303969,-0.00414432,0.00029258,0.0,0.0,0.0,0.0
20932000,0.00883584,-0.00847637,0.00135174,0.0,0.0,0.0,0.0
20964000,-0.00378026,-0.00225502,0.00306102,0.0,0.0,0.0,0.0
20996000,0.00584003,-0.00728815,-0.00517685,0.0,0.0,0.0,0.0
21028000,-0.00944194,0.00577072,-0.00104117,0.0,0.0,0.0,0.0
21056000,-0.00324374,0.0013582,0.00110515,0.0,0.0,0.0,0.0
21088000,0.00116902,-0.015877,0.00542912,0.0,0.0,0.0,0.0
21116000,0.00325235,-0.00217293,0.000734676,0.0,0.0,0.0,0.0
21148000,-0.0040726,-0.00195136,0.00439857,0.0,0.0,0.0,0.0
21180000,0.00936894,-0.0084847,0.00644981,0.0,0.0,0.0,0.0
21212000,0.00451614,0.000253927,0.00507852,0.0,0.0,0.0,0.0
21244000,0.00107078,0.00466065,-0.0037421,0.0,0.0,0.0,0.0
21272000,-0.00333971,-0.000541287,0.00455882,0.0,0.0,0.0,0.0
21304000,-0.000976934,0.00132241,0.0018055,0.0,0.0,0.0,0.0
21336000,-0.00124288,0.000875257,-0.00420537,0.0,0.0,0.0,0.0
21364000,0.00225618,-0.00124687,0.00594748,0.0,0.0,0.0,0.0
21396000,0.0029926,0.00258444,-0.000598297,0.0,0.0,0.0,0.0
21428000,-0.00458013,0.00451425,-0.0103878,0.0,0.0,0.0,0.0
21456000,-0.0013839,-0.00149487,-0.00806392,0.0,0.0,0.0,0.0
21488000,0.00712336,8.30399e-05,0.00296909,0.0,0.0,0.0,0.0
21516000,-0.00129197,-0.00847928,-0.00685704,0.0,0.0,0.0,0.0
21544000,-0.00300292,0.00540237,0.00315779,0.0,0.0,0.0,0.0
21572000,-0.00239491,0.00281481,0.000875086,0.0,0.0,0.0,0.0
21600000,0.00861888,-0.00418194,-0.00868129,0.0,0.0,0.0,0.0
21632000,-0.00203811,0.00503503,-0.00237539,0.0,0.0,0.0,0.0
21660000,-0.0057765,-0.00310721,-0.00462665,0.0,0.0,0.0,0.0
21692000,-0.00250117,-0.00551153,0.00138634,0.0,0.0,0.0,0.0
21724000,-0.00244994,-0.00248444,0.00120138,0.0,0.0,0.0,0.0
21756000,0.00548081,-0.00965644,0.0100673,0.0,0.0,0.0,0.0
21788000,0.00347896,-0.000898572,-0.00588934,0.0,0.0,0.0,0.0
21820000,0.00199325,-0.000815144,-0.000787604,0.0,0.0,0.0,0.0
21848000,0.000344411,-0.00141534,0.00592004,0.0,0.0,0.0,0.0
21876000,0.00328014,0.0068745,0.00102838,0.0,0.0,0.0,0.0
21904000,0.00117151,0.00248529,0.00411573,0.0,0.0,0.0,0.0
21936000,-0.00299154,0.00073467,-0.00938052,0.0,0.0,0.0,0.0
21964000,0.000530625,-0.00551575,-0.000226546,0.0,0.0,0.0,0.0
21992000,-0.00641436,0.00251785,0.0021364,0.0,0.0,0.0,0.0
22020000,-0.000228477,-0.000471436,-0.00109201,0.0,0.0,0.0,0.0
22052000,0.00333393,-0.00102885,0.00121984,0.0,0.0,0.0,0.0
22084000,6.34271e-05,0.000169318,-0.00121768,0.0,0.0,0.0,0.0
22112000,-0.00249351,-0.00645774,0.00977846,0.0,0.0,0.0,0.0
22140000,0.00503371,-0.00483859,-0.00677972,0.0,0.0,0.0,0.0
22172000,0.00288652,0.00118772,0.00674607,0.0,0.0,0.0,0.0
22204000,0.0036398,0.000568896,-0.000265859,0.0,0.0,0.0,0.0
22236000,0.00582907,-0.00625352,0.00408402,0.0,0.0,0.0,0.0
22268000,0.00445747,0.0017876,-0.00208502,0.0,0.0,0.0,0.0
22296000,-0.00266568,-0.0031866,-0.0124305,0.0,0.0,0.0,0.0
22324000,-0.00399379,0.00630434,-0.000195997,0.0,0.0,0.0,0.0
22352000,-0.00106134,0.000934655,0.00138648,0.0,0.0,0.0,0.0
22380000,-0.00718083,0.000346092,-0.00310499,0.0,0.0,0.0,0.0
22412000,0.00383876,0.00194557,-0.000820497,0.0,0.0,0.0,0.0
22444000,-0.00560816,0.00116351,0.00227574,0.0,0.0,0.0,0.0
22472000,0.00593506,-0.00200942,0.0036236,0.0,0.0,0.0,0.0
22504000,-0.00817544,-0.00224557,-0.00530248,0.0,0.0,0.0,0.0
22536000,0.00216648,-0.00209456,-0.00133552,0.0,0.0,0.0,0.0
22568000,0.000544934,-0.0022323,-0.00227569,0.0,0.0,0.0,0.0
22600000,-0.00122251,-0.00327171,-0.00128565,0.0,0.0,0.0,0.0
22632000,-0.00246308,0.00920274,0.00590537,0.0,0.0,0.0,0.0
22660000,-0.00130673,0.00252088,-0.00459033,0.0,0.0,0.0,0.0
22692000,-0.00837522,-0.00960676,0.000332283,0.0,0.0,0.0,0.0
22720000,0.006159,-0.000164556,0.0039197,0.0,0.0,0.0,0.0
22752000,-0.00173639,0.000482553,-0.00672497,0.0,0.0,0.0,0.0
22784000,-0.00142455,0.00578645,-0.00493692,0.0,0.0,0.0,0.0
22816000,0.00460373,-0.00505155,0.00312055,0.0,0.0,0.0,0.0
22848000,-0.0068463,-0.00383489,0.00916171,0.0,0.0,0.0,0.0
22880000,0.00536169,-0.00330949,-0.00620415,0.0,0.0,0.0,0.0
22908000,0.009269,-0.00373909,0.00239072,0.0,0.0,0.0,0.0
22936000,0.0103585,0.00555289,0.000383439,0.0,0.0,0.0,0.0
22964000,0.00109907,0.000781538,0.00756526,0.0,0.0,0.0,0.0
22996000,0.00625114,-0.000678226,0.00442382,0.0,0.0,0.0,0.0
23028000,-0.00275056,0.00279209,-0.00173006,0.0,0.0,0.0,0.0
23056000,-0.00276316,0.000970631,0.00078781,0.0,0.0,0.0,0.0
23084000,-0.00379325,0.0102345,-0.00410455,0.0,0.0,0.0,0.0
23116000,-0.00138725,-0.00407014,-0.000750871,0.0,0.0,0.0,0.0
23148000,-0.000555984,-0.00161417,-0.00764265,0.0,0.0,0.0,0.0
23180000,0.00317056,-0.00408884,-0.00281273,0.0,0.0,0.0,0.0
23212000,-0.00825512,0.00114151,2.1321e-05,0.0,0.0,0.0,0.0
23240000,0.00309814,0.00170432,0.000476922,0.0,0.0,0.0,0.0
23272000,-0.00393918,-0.000549591,0.00594593,0.0,0.0,0.0,0.0
23300000,-0.00409251,-0.000578442,-0.00678633,0.0,0.0,0.0,0.0
23332000,0.00178536,0.00266888,0.001341,0.0,0.0,0.0,0.0
23364000,0.0040868,-0.00170043,-0.000211228,0.0,0.0,0.0,0.0
23396000,0.00266783,-0.00376274,-0.00789449,0.0,0.0,0.0,0.0
23428000,-0.00416114,0.00296204,0.00144029,0.0,0.0,0.0,0.0
23460000,-0.00142081,-0.00730138,0.00139594,0.0,0.0,0.0,0.0
23488000,-0.00834161,-0.00343768,-0.00156074,0.0,0.0,0.0,0.0
23520000,-0.00081942,-0.00253913,0.00398116,0.0,0.0,0.0,0.0
23548000,-0.00614821,0.0014093,-0.00387067,0.0,0.0,0.0,0.0
23576000,-0.0044364,0.00434459,0.0013785,0.0,0.0,0.0,0.0
23608000,0.000595605,0.00354326,0.00338698,0.0,0.0,0.0,0.0
23640000,0.00596177,-0.000157247,0.00623223,0.0,0.0,0.0,0.0
23672000,-0.00627426,-0.00477561,0.00228581,0.0,0.0,0.0,0.0
23704000,-0.00437572,-0.00495071,0.010184,0.0,0.0,0.0,0.0
23736000,0.00219495,0.00783497,0.00382436,0.0,0.0,0.0,0.0
23768000,0.00571226,0.00338801,0.00255062,0.0,0.0,0.0,0.0
23800000,-0.000548591,0.00208773,-0.00755732,0.0,0.0,0.0,0.0
23832000,0.000405195,0.00812024,0.00713085,0.0,0.0,0.0,0.0
23864000,-0.000489734,0.0121762,-0.00457603,0.0,0.0,0.0,0.0
23892000,-0.0021984,0.00228586,-0.000334462,0.0,0.0,0.0,0.0
23920000,0.000722809,-0.00256974,0.00305526,0.0,0.0,0.0,0.0
23948000,-0.00326728,-0.00212422,0.0111715,0.0,0.0,0.0,0.0
23976000,0.00352116,0.000913272,-0.0013225,0.0,0.0,0.0,0.0
24004000,-0.00582814,-0.0031015,-0.00389292,0.0,0.0,0.0,0.0
24036000,-0.000624459,-0.00496573,-0.00116151,0.0,0.0,0.0,0.0
24068000,-0.000690819,0.00433639,-0.00274475,0.0,0.0,0.0,0.0
24096000,0.00383582,-0.00599212,-0.00421159,0.0,0.0,0.0,0.0
24124000,-0.0026154,0.00294839,0.00724616,0.0,0.0,0.0,0.0
24152000,0.00176717,-0.00111069,-0.00525609,0.0,0.0,0.0,0.0
24184000,-0.00424883,0.00665283,-0.00363027,0.0,0.0,0.0,0.0
24216000,-0.000135414,0.000763298,0.00122869,0.0,0.0,0.0,0.0
24244000,0.00356846,-0.00839523,-0.00461553,0.0,0.0,0.0,0.0
24276000,0.00489405,0.00138279,0.00644971,0.0,0.0,0.0,0.0
24304000,0.00656585,-0.00219323,0.00952667,0.0,0.0,0.0,0.0
24336000,0.00430419,0.00289951,-0.0164047,0.0,0.0,0.0,0.0
24368000,0.0065009,-0.00120094,0.00788269,0.0,0.0,0.0,0.0
24396000,-0.00616532,-0.00581867,0.000324309,0.0,0.0,0.0,0.0
24428000,0.00458081,-0.00350924,0.00133495,0.0,0.0,0.0,0.0
24460000,-0.00550746,0.00179818,0.00672156,0.0,0.0,0.0,0.0
24488000,0.00239549,0.00167994,-0.000900659,0.0,0.0,0.0,0.0
24520000,-0.000802426,-0.00117724,0.00629765,0.0,0.0,0.0,0.0
24552000,0.0066263,0.00271655,-0.00216464,0.0,0.0,0.0,0.0
24580000,-0.000152693,-0.00167975,0.00700047,0.0,0.0,0.0,0.0
24612000,0.00533942,0.00252585,-0.00306714,0.0,0.0,0.0,0.0
24640000,-0.000645145,-0.00269972,-0.00671214,0.0,0.0,0.0,0.0
24672000,-0.00417445,-0.00137819,0.00272006,0.0,0.0,0.0,0.0
24704000,0.00747387,-0.00631966,-0.00261376,0.0,0.0,0.0,0.0
24732000,-0.00235829,0.00790621,0.00471656,0.0,0.0,0.0,0.0
24760000,-0.00556174,0.000887028,-0.00441309,0.0,0.0,0.0,0.0
24788000,-0.00500877,0.00734076,0.000129632,0.0,0.0,0.0,0.0
24820000,0.000374666,-0.0113113,-0.00260203,0.0,0.0,0.0,0.0
24852000,0.00176473,0.00157889,-0.00199637,0.0,0.0,0.0,0.0
24880000,0.00256869,0.000626694,0.00295683,0.0,0.0,0.0,0.0
24908000,-8.87865e-05,-0.000411614,-0.00379725,0.0,0.0,0.0,0.0
24936000,0.000104486,-0.00321481,-0.00555561,0.0,0.0,0.0,0.0
24968000,0.00242796,-0.00392011,-0.00612399,0.0,0.0,0.0,0.0
24996000,-0.00525175,0.000318058,0.00142054,0.0,0.0,0.0,0.0
25028000,-0.00484701,-0.00101717,-0.00164342,0.0,0.0,0.0,0.0
25060000,-0.00390296,0.00172059,0.00169679,0.0,0.0,0.0,0.0
25092000,-0.00366149,0.00277212,-0.00459497,0.0,0.0,0.0,0.0
25124000,0.00621611,-0.00148005,0.00311016,0.0,0.0,0.0,0.0
25152000,-1.47895e-05,-0.0029307,-0.00140615,0.0,0.0,0.0,0.0
25180000,-0.00324878,0.0056598,-0.00421801,0.0,0.0,0.0,0.0
25212000,-0.00430857,-0.00478518,0.00107685,0.0,0.0,0.0,0.0
25240000,-0.00367227,-0.00255833,-0.00930577,0.0,0.0,0.0,0.0
25272000,-0.0037786,-0.00300859,0.00827665,0.0,0.0,0.0,0.0
25300000,-0.00589679,-0.000963957,0.000962226,0.0,0.0,0.0,0.0
25328000,-0.00634013,-0.00232563,0.00500608,0.0,0.0,0.0,0.0
25360000,0.00404768,-0.00389293,0.00151148,0.0,0.0,0.0,0.0
25388000,-0.00790845,-0.00216154,0.00427066,0.0,0.0,0.0,0.0
25420000,0.000204904,0.00144236,0.00119269,0.0,0.0,0.0,0.0
25452000,-0.000964351,-0.00476179,-0.00608468,0.0,0.0,0.0,0.0
25480000,-0.00675693,-0.00549253,-0.00482139,0.0,0.0,0.0,0.0
25512000,0.00323563,0.00922064,-0.000139774,0.0,0.0,0.0,0.0
25544000,-0.000823054,0.00895126,0.004915,0.0,0.0,0.0,0.0
25572000,0.00172197,-0.00375592,0.00198452,0.0,0.0,0.0,0.0
25600000,0.00130573,-0.00420398,0.00279588,0.0,0.0,0.0,0.0
25632000,0.00683334,0.00601431,0.00153311,0.0,0.0,0.0,0.0
25664000,-0.00224588,0.00627135,9.91441e-05,0.0,0.0,0.0,0.0
25696000,0.00209831,0.00950365,-0.000262567,0.0,0.0,0.0,0.0
25728000,-0.00434731,0.00655453,0.00176759,0.0,0.0,0.0,0.0
25756000,0.000363385,0.00176454,-0.00341466,0.0,0.0,0.0,0.0
25788000,-0.00747464,0.00561051,-0.00513497,0.0,0.0,0.0,0.0
25820000,0.00181512,0.00562091,0.00173987,0.0,0.0,0.0,0.0
25852000,-0.00523616,0.0108632,0.00939848,0.0,0.0,0.0,0.0
25884000,0.00777368,0.00370378,-0.00577726,0.0,0.0,0.0,0.0
25916000,0.00108677,0.00151689,0.00720159,0.0,0.0,0.0,0.0
25944000,0.00335824,0.00282671,0.00398101,0.0,0.0,0.0,0.0
25976000,-0.0134712,0.00652055,0.00489986,0.0,0.0,0.0,0.0
26004000,0.00732631,0.00525053,0.00626647,0.0,0.0,0.0,0.0
26032000,-0.00291672,0.00160347,0.000644605,0.0,0.0,0.0,0.0
26060000,-0.00333497,-8.3745e-05,-0.000714101,0.0,0.0,0.0,0.0
26088000,5.33133e-05,-0.00372202,0.00107284,0.0,0.0,0.0,0.0
26116000,0.00941207,0.000724063,-0.00770144,0.0,0.0,0.0,0.0
26148000,0.00656622,0.00014734,0.00449867,0.0,0.0,0.0,0.0
26176000,-0.00236923,0.00579357,0.00269003,0.0,0.0,0.0,0.0
26204000,0.000412423,-0.00596785,0.00626846,0.0,0.0,0.0,0.0
26236000,-0.00530379,-0.000288568,-0.00112973,0.0,0.0,0.0,0.0
26264000,-0.000504335,0.00573364,-0.000977197,0.0,0.0,0.0,0.0
26292000,0.00348157,-0.00159176,-0.000843538,0.0,0.0,0.0,0.0
26320000,-0.00334701,-0.000807842,0.001654,0.0,0.0,0.0,0.0
26352000,-0.00151551,0.00598602,0.00324321,0.0,0.0,0.0,0.0
26384000,-0.00409915,-0.0055189,0.00383192,0.0,0.0,0.0,0.0
26416000,-0.00558491,0.00272899,-0.00055461,0.0,0.0,0.0,0.0
26448000,-0.00760482,0.00148827,0.00885047,0.0,0.0,0.0,0.0
26480000,-0.00477716,-0.00338707,-0.000420336,0.0,0.0,0.0,0.0
26508000,0.00267679,0.00531479,0.00735775,0.0,0.0,0.0,0.0
26540000,-5.97286e-05,-0.00560393,0.00580358,0.0,0.0,0.0,0.0
26572000,-0.00499453,0.0149508,0.00345505,0.0,0.0,0.0,0.0
26600000,0.00366749,0.0042622,0.000145824,0.0,0.0,0.0,0.0
26632000,0.00470931,-0.00468562,0.00710863,0.0,0.0,0.0,0.0
26664000,0.00339681,0.00238155,-3.65679e-05,0.0,0.0,0.0,0.0
26692000,0.0038602,0.00376156,-0.000841371,0.0,0.0,0.0,0.0
26724000,-0.00454832,0.00537795,-0.00170301,0.0,0.0,0.0,0.0
26756000,0.00228344,-0.0144748,0.00492815,0.0,0.0,0.0,0.0
26784000,0.0041596,0.00517964,-0.00118838,0.0,0.0,0.0,0.0
26812000,-0.000564581,0.00119182,-0.00124368,0.0,0.0,0.0,0.0
26840000,-0.00549875,0.00195423,-0.00274981,0.0,0.0,0.0,0.0
26872000,-0.000602867,-0.000930159,0.00401283,0.0,0.0,0.0,0.0
26900000,-0.00483516,-0.000381157,0.00434828,0.0,0.0,0.0,0.0
26932000,-0.00348901,-0.00568766,-0.000840019,0.0,0.0,0.0,0.0
26964000,-0.00585239,0.00272601,-0.000323769,0.0,0.0,0.0,0.0
26996000,-0.00236246,0.015654,-0.00267512,0.0,0.0,0.0,0.0
27028000,-0.00351251,0.00217857,0.00441826,0.0,0.0,0.0,0.0
27060000,0.00235957,0.00307323,-4.76413e-05,0.0,0.0,0.0,0.0
27092000,0.00222551,-0.0128121,0.00269592,0.0,0.0,0.0,0.0
27124000,-0.00479542,0.00365448,0.00824307,0.0,0.0,0.0,0.0
27152000,-0.00994381,-0.000410627,0.00510009,0.0,0.0,0.0,0.0
27184000,0.00349339,0.00511826,0.0049746,0.0,0.0,0.0,0.0
27212000,-0.000979603,-0.0121209,-0.00661896,0.0,0.0,0.0,0.0
27244000,0.00217625,0.00940818,0.0025687,0.0,0.0,0.0,0.0
27272000,0.00135953,0.00221201,-0.00866861,0.0,0.0,0.0,0.0
27300000,-0.00330091,-0.000153086,0.00064043,0.0,0.0,0.0,0.0
27332000,-0.00314046,0.00418303,0.00913129,0.0,0.0,0.0,0.0
27364000,0.00533409,-0.00642087,0.00782757,0.0,0.0,0.0,0.0
27396000,0.00331088,-0.0034586,0.00420624,0.0,0.0,0.0,0.0
27428000,0.00643225,0.0104728,0.0073811,0.0,0.0,0.0,0.0
27456000,0.00491579,0.00262858,0.00585422,0.0,0.0,0.0,0.0
27484000,0.00020526,-0.00482596,-0.00138024,0.0,0.0,0.0,0.0
27512000,0.00354692,0.000452554,0.00508918,0.0,0.0,0.0,0.0
27540000,0.000424676,0.00370243,-0.00197789,0.0,0.0,0.0,0.0
27572000,5.76696e-05,0.00372524,-0.0117333,0.0,0.0,0.0,0.0
27604000,-0.000187352,0.00164312,-0.00110033,0.0,0.0,0.0,0.0
27636000,-0.000576838,-0.00396967,-0.00389731,0.0,0.0,0.0,0.0
27668000,-0.0108684,-0.00437509,-0.00759476,0.0,0.0,0.0,0.0
27696000,-0.00049169,-0.00160611,-0.00550078,0.0,0.0,0.0,0.0
27728000,-0.0114442,-0.00275535,0.000973989,0.0,0.0,0.0,0.0
27760000,-0.00207025,-0.00257736,-0.0055045,0.0,0.0,0.0,0.0
27788000,-0.0135136,0.00122409,0.00285577,0.0,0.0,0.0,0.0
27820000,-0.00557402,-0.00822722,-0.00448557,0.0,0.0,0.0,0.0
27848000,-0.00574092,0.00347352,-0.00076875,0.0,0.0,0.0,0.0
27880000,0.00199568,-0.00182119,0.000346074,0.0,0.0,0.0,0.0
27908000,0.00164299,-0.00277943,0.00267716,0.0,0.0,0.0,0.0
27936000,-0.00788031,0.0100735,0.000696724,0.0,0.0,0.0,0.0
27964000,0.00499943,0.00346288,0.000424075,0.0,0.0,0.0,0.0
27996000,0.00459805,0.00318297,-0.000709187,0.0,0.0,0.0,0.0
28028000,-0.00145225,0.00125104,-0.00570281,0.0,0.0,0.0,0.0
28060000,-0.00195859,-0.00109201,0.0016596,0.0,0.0,0.0,0.0
28092000,0.00183946,-0.000822825,-0.00649729,0.0,0.0,0.0,0.0
28124000,-0.00710603,-0.00123856,-0.00461588,0.0,0.0,0.0,0.0
28156000,-0.00312569,-0.00267586,-0.000603827,0.0,0.0,0.0,0.0
28188000,0.00758638,0.00563823,-0.000922838,0.0,0.0,0.0,0.0
28216000,-0.000173271,0.00616282,0.00670939,0.0,0.0,0.0,0.0
28248000,-0.00285864,0.00472293,0.000538699,0.0,0.0,0.0,0.0
28280000,0.00012846,0.00687664,-0.00389059,0.0,0.0,0.0,0.0
28308000,0.00192992,0.00670791,-0.00412693,0.0,0.0,0.0,0.0
28340000,0.00184667,0.00117812,0.00499363,0.0,0.0,0.0,0.0
28368000,-0.00566233,-0.00607728,0.00136233,0.0,0.0,0.0,0.0
28400000,-0.00527117,0.00402491,-0.00416236,0.0,0.0,0.0,0.0
28428000,0.00411609,0.00422289,0.00168067,0.0,0.0,0.0,0.0
28456000,-0.00376014,0.00237105,3.12608e-05,0.0,0.0,0.0,0.0
28484000,-0.000312354,-0.00178818,-0.00672665,0.0,0.0,0.0,0.0
28512000,0.00215037,0.00866782,0.000165547,0.0,0.0,0.0,0.0
28544000,-0.00542905,-0.00350242,-0.000696929,0.0,0.0,0.0,0.0
28572000,-0.00528756,0.00466664,0.00412602,0.0,0.0,0.0,0.0
28604000,0.00787609,0.00388204,-0.00775072,0.0,0.0,0.0,0.0
28636000,-0.00179764,-0.00496959,0.00508222,0.0,0.0,0.0,0.0
28668000,0.00218854,0.00344318,0.000612266,0.0,0.0,0.0,0.0
28696000,-0.00461985,-0.00218291,0.00369759,0.0,0.0,0.0,0.0
28724000,0.00632378,-0.00330406,0.00747555,0.0,0.0,0.0,0.0
28756000,0.000929707,0.00196303,-0.00173143,0.0,0.0,0.0,0.0
28784000,0.00405839,-0.005572,-0.000287354,0.0,0.0,0.0,0.0
28816000,0.00278376,-0.00833578,0.000782981,0.0,0.0,0.0,0.0
28848000,0.00221989,-0.00345961,0.00338622,0.0,0.0,0.0,0.0
28880000,-0.000678874,-0.00204191,0.00193512,0.0,0.0,0.0,0.0
28908000,0.00878866,-0.00177408,0.00426443,0.0,0.0,0.0,0.0
28940000,0.00268492,0.00264777,0.00144108,0.0,0.0,0.0,0.0
28968000,-9.48409e-05,-0.00146589,-0.00153675,0.0,0.0,0.0,0.0
28996000,0.00371558,0.00494997,0.0036556,0.0,0.0,0.0,0.0
29028000,-0.00587379,-0.00396458,-0.00201787,0.0,0.0,0.0,0.0
29060000,-0.00354064,0.00391423,0.00516829,0.0,0.0,0.0,0.0
29088000,0.000123304,-0.00259945,-0.00296986,0.0,0.0,0.0,0.0
29116000,0.00257928,-0.000920433,0.00221665,0.0,0.0,0.0,0.0
29148000,-0.00325242,0.00245379,0.00834674,0.0,0.0,0.0,0.0
29180000,0.00242332,0.000536635,-0.00638938,0.0,0.0,0.0,0.0
29212000,-0.00203116,0.0047041,-0.000334466,0.0,0.0,0.0,0.0
29244000,-0.000131752,0.000538431,-2.23839e-05,0.0,0.0,0.0,0.0
29276000,0.00131602,0.00637171,-0.0015659,0.0,0.0,0.0,0.0
29304000,-0.000489793,0.00425387,-0.000590654,0.0,0.0,0.0,0.0
29336000,-0.00125041,0.00138301,0.00232348,0.0,0.0,0.0,0.0
29368000,-0.00556764,0.00321303,-0.000485782,0.0,0.0,0.0,0.0
29400000,-0.00309507,0.0056579,0.00721423,0.0,0.0,0.0,0.0
29432000,0.00395033,-0.00187743,-0.00492462,0.0,0.0,0.0,0.0
29464000,0.00285829,0.00144479,-0.00232611,0.0,0.0,0.0,0.0
29492000,-0.000875984,0.00715655,-0.00167389,0.0,0.0,0.0,0.0
29524000,-0.00300009,0.00616985,0.00282983,0.0,0.0,0.0,0.0
29556000,-0.00384671,-0.00404494,0.000205748,0.0,0.0,0.0,0.0
29588000,0.00839035,-0.000351615,-0.00318293,0.0,0.0,0.0,0.0
29616000,0.000108268,0.000777237,-0.00629416,0.0,0.0,0.0,0.0
29648000,0.00989038,-0.00775267,-0.00607912,0.0,0.0,0.0,0.0
29680000,-0.00148679,-0.00194234,-0.000974586,0.0,0.0,0.0,0.0
29712000,-0.00164403,-0.00156858,-0.00518282,0.0,0.0,0.0,0.0
29744000,-0.0043756,-0.00402283,-0.00115855,0.0,0.0,0.0,0.0
29776000,0.00333382,0.00159288,-0.00293418,0.0,0.0,0.0,0.0
29804000,-0.00291912,0.00565275,-0.00325104,0.0,0.0,0.0,0.0
29836000,0.00593329,0.00555429,0.0026613,0.0,0.0,0.0,0.0
29864000,0.000320379,-0.00173531,-0.000154117,0.0,0.0,0.0,0.0
29896000,0.00457149,0.00467625,0.0051332,0.0,0.0,0.0,0.0
29928000,0.000812225,-0.00120479,0.00864294,0.0,0.0,0.0,0.0
29956000,-0.0107891,0.00893539,0.00562368,0.0,0.0,0.0,0.0
29984000,-0.00191425,-0.00164077,0.00207243,0.0,0.0,0.0,0.0
30012000,-0.00142994,-0.00289728,-0.00193022,0.0,0.0,0.0,0.0
30040000,-0.00187494,-0.000346065,0.00203622,0.0,0.0,0.0,0.0
30068000,-0.00440187,-0.0105065,0.00912142,0.0,0.0,0.0,0.0
30100000,0.000818034,-0.000856994,0.00735768,0.0,0.0,0.0,0.0
30128000,0.00596114,-0.00261491,0.00329108,0.0,0.0,0.0,0.0
30160000,0.00166924,0.00517237,-0.0102707,0.0,0.0,0.0,0.0
30188000,0.00314942,0.0113387,-0.00338721,0.0,0.0,0.0,0.0
30220000,-0.0057213,0.00444101,0.00811027,0.0,0.0,0.0,0.0
30252000,0.00694251,0.00837097,0.0024398,0.0,0.0,0.0,0.0
30284000,-0.00104802,0.000410227,0.000557854,0.0,0.0,0.0,0.0
30312000,-0.000596064,-0.000630182,-0.00271315,0.0,0.0,0.0,0.0
30344000,-0.00518824,-0.00251599,0.00434173,0.0,0.0,0.0,0.0
30376000,-0.0042655,0.00264842,-0.00348871,0.0,0.0,0.0,0.0
30404000,0.00110273,-0.0131097,0.00300658,0.0,0.0,0.0,0.0
30436000,-0.00695249,0.00235226,-0.00100278,0.0,0.0,0.0,0.0
30468000,-0.00143956,-0.00381055,-0.00265506,0.0,0.0,0.0,0.0
30500000,-0.000250554,-0.00606642,-0.000853736,0.0,0.0,0.0,0.0
30532000,-0.00307813,-0.00669249,-0.000581552,0.0,0.0,0.0,0.0
30560000,0.0015738,-0.00131515,0.00410752,0.0,0.0,0.0,0.0
30588000,-3.43329e-05,0.00485155,0.00668746,0.0,0.0,0.0,0.0
30620000,0.00232402,-0.00692373,-0.00408487,0.0,0.0,0.0,0.0
30648000,0.000766459,-0.00494083,0.0109037,0.0,0.0,0.0,0.0
