timestamp,x,y,z,yaw,yawspeed,vx,vy,vz,acc_x,acc_y,acc_z,jerk_x,jerk_y,jerk_z,thrust[0],thrust[1],thrust[2]
71664000,0.0270423,0.0213348,-0.863329,0.00766141,nan,-0.00129923,-0.000207569,-1.49988,0.0,-9.31323e-10,-0.00602875,0.0,0.0,0.0,nan,nan,nan
71852000,0.026798,0.0213021,-1.14532,0.00766141,nan,-0.00129923,0.000112431,-1.49994,0.0,0.0,0.0,0.0,-0.8,0.0,nan,nan,nan
72036000,0.026559,0.0213228,-1.42131,0.00766141,nan,-0.00129923,0.000112431,-1.49994,0.0,0.0,0.0,0.0,0.0,0.0,nan,nan,nan
72224000,0.0261915,0.0214432,-1.70329,0.00766141,nan,-0.00201923,0.000848431,-1.49994,0.0,-0.016,0.0,0.0,-0.8,0.0,nan,nan,nan
72412000,0.0258362,0.0215737,-1.98528,0.00766141,nan,-0.00169923,0.000688431,-1.49994,0.0,0.0,0.0,0.0,0.0,0.0,nan,nan,nan
72596000,0.0255236,0.0217004,-2.26127,0.00766141,nan,-0.00169923,0.000688431,-1.49994,0.0,0.0,0.0,0.0,0.0,0.0,nan,nan,nan
72784000,0.0252579,0.0218119,-2.54326,0.00766141,nan,-0.00137923,0.000368431,-1.49994,0.0,0.0,0.0,0.0,0.0,0.0,nan,nan,nan
72972000,0.0249986,0.0218812,-2.82525,0.00766141,nan,-0.00137923,0.000368431,-1.49994,0.0,0.0,0.0,0.0,0.0,0.0,nan,nan,nan
73156000,0.0247922,0.021949,-3.10124,0.00766141,nan,-0.00105923,0.000368431,-1.49994,0.0,0.0,0.0,0.0,0.0,0.0,nan,nan,nan
73344000,0.0245931,0.0220183,-3.38322,0.00766141,nan,-0.00105923,0.000368431,-1.49994,0.0,0.0,0.0,0.0,0.0,0.0,nan,nan,nan
73532000,0.0244003,0.0220875,-3.66521,0.00766141,nan,-0.000739227,0.000368431,-1.49994,0.0,0.0,0.0,-0.8,0.0,0.0,nan,nan,nan
73716000,0.0242643,0.0221553,-3.9412,0.00766141,nan,-0.000739227,0.000368431,-1.49994,0.0,0.0,0.0,0.0,0.0,0.0,nan,nan,nan
73904000,0.0241253,0.0222246,-4.22319,0.00766141,nan,-0.000739227,0.000368431,-1.49994,0.0,0.0,0.0,0.0,0.0,0.0,nan,nan,nan
74092000,0.0239864,0.0222516,-4.50518,0.00766141,nan,-0.000739227,4.84307e-05,-1.49994,0.0,0.0,0.0,0.0,0.0,0.0,nan,nan,nan
74276000,0.0238798,0.0222605,-4.78117,0.00766141,nan,-0.000419227,4.84307e-05,-1.49994,0.0,0.0,0.0,0.0,0.0,0.0,nan,nan,nan
74464000,0.023801,0.0222696,-5.06316,0.00766141,nan,-0.000419227,4.84307e-05,-1.49994,0.0,0.0,0.0,0.0,0.0,0.0,nan,nan,nan
74652000,0.0237222,0.0222787,-5.34515,0.00766141,nan,-0.000419227,4.84307e-05,-1.49994,0.0,0.0,0.0,0.0,0.0,0.0,nan,nan,nan
74836000,0.023645,0.0222876,-5.62114,0.00766141,nan,-0.000419227,4.84307e-05,-1.49994,0.0,0.0,0.0,0.0,0.0,0.0,nan,nan,nan
75024000,0.0235662,0.0222967,-5.90313,0.00766141,nan,-0.000419227,4.84307e-05,-1.49994,0.0,0.0,0.0,0.0,0.0,0.0,nan,nan,nan
75212000,0.0234874,0.0223058,-6.18512,0.00766141,nan,-0.000419227,4.84307e-05,-1.49994,0.0,0.0,0.0,0.0,0.0,0.0,nan,nan,nan
75396000,0.0234103,0.0223148,-6.4611,0.00766141,nan,-0.000419227,4.84307e-05,-1.49994,0.0,0.0,0.0,0.0,0.0,0.0,nan,nan,nan
75584000,0.0233494,0.0223239,-6.74309,0.00766141,nan,-9.92267e-05,4.84307e-05,-1.49994,0.0,0.0,0.0,0.0,0.0,0.0,nan,nan,nan
75772000,0.0233308,0.022333,-7.02508,0.00766141,nan,-9.92267e-05,4.84307e-05,-1.49994,0.0,0.0,0.0,0.0,0.0,0.0,nan,nan,nan
75956000,0.0233125,0.0223419,-7.30107,0.00766141,nan,-9.92267e-05,4.84307e-05,-1.49994,0.0,0.0,0.0,0.0,0.0,0.0,nan,nan,nan
76144000,0.0232939,0.022351,-7.58306,0.00766141,nan,-9.92267e-05,4.84307e-05,-1.49994,0.0,0.0,0.0,0.0,0.0,0.0,nan,nan,nan
76332000,0.0232752,0.0223601,-7.86505,0.00766141,nan,-9.92267e-05,4.84307e-05,-1.49994,0.0,0.0,0.0,0.0,0.0,0.0,nan,nan,nan
76516000,0.023257,0.022369,-8.14104,0.00766141,nan,-9.92267e-05,4.84307e-05,-1.49994,0.0,0.0,0.0,0.0,0.0,0.0,nan,nan,nan
76704000,0.0232383,0.0223781,-8.42303,0.00766141,nan,-9.92267e-05,4.84307e-05,-1.49994,0.0,0.0,0.0,0.0,0.0,0.0,nan,nan,nan
76892000,0.0232197,0.0223872,-8.70502,0.00766141,nan,-9.92267e-05,4.84307e-05,-1.49994,0.0,0.0,0.0,0.0,0.0,0.0,nan,nan,nan
77076000,0.0232014,0.0223961,-8.98101,0.00766141,nan,-9.92267e-05,4.84307e-05,-1.49994,0.0,0.0,0.0,0.0,0.0,0.0,nan,nan,nan
77264000,0.0231828,0.0224052,-9.263,0.00766141,nan,-9.92267e-05,4.84307e-05,-1.49994,0.0,0.0,0.0,0.0,0.0,0.0,nan,nan,nan
77452000,0.0231641,0.0224143,-9.54499,0.00766141,nan,-9.92267e-05,4.84307e-05,-1.49994,0.0,0.0,0.0,0.0,0.0,0.0,nan,nan,nan
77636000,0.0231459,0.0224232,-9.82098,0.00766141,nan,-9.92267e-05,4.84307e-05,-1.49994,0.0,0.0,0.0,0.0,0.0,0.0,nan,nan,nan
77824000,0.0231272,0.0224323,-10.1035,0.00766141,nan,-9.92267e-05,4.84307e-05,-1.52304,0.0,0.0,-0.608,0.0,0.0,-8.0,nan,nan,nan
78012000,0.0231086,0.0224414,-10.4095,0.00766141,nan,-9.92267e-05,4.84307e-05,-1.77872,0.0,0.0,-2.112,0.0,0.0,-8.0,nan,nan,nan
78196000,0.0230903,0.0224504,-10.7808,0.00766141,nan,-9.92267e-05,4.84307e-05,-2.3007,0.0,0.0,-3.328,0.0,0.0,8.0,nan,nan,nan
78384000,0.0230717,0.0224595,-11.2633,0.00766141,nan,-9.92267e-05,4.84307e-05,-2.78499,0.0,0.0,-1.824,0.0,0.0,8.0,nan,nan,nan
78572000,0.023053,0.0224686,-11.8103,0.00766141,nan,-9.92267e-05,4.84307e-05,-2.98653,0.0,0.0,-0.32,0.0,0.0,8.0,nan,nan,nan
78756000,0.0230348,0.0224775,-12.3617,0.00766141,nan,-9.92267e-05,4.84307e-05,-2.99805,0.0,0.0,0.0,0.0,0.0,0.0,nan,nan,nan
78944000,0.0230161,0.0224866,-12.9251,0.00766141,nan,-9.92267e-05,4.84307e-05,-2.99805,0.0,0.0,0.0,0.0,0.0,0.0,nan,nan,nan
79132000,0.0229975,0.0224957,-13.4871,0.00766141,nan,-9.92267e-05,4.84307e-05,-2.99805,0.0,0.0,0.0,0.0,0.0,0.0,nan,nan,nan
79316000,0.0229794,0.0225045,-14.0364,0.00766141,nan,-9.92267e-05,4.84307e-05,-2.99805,0.0,0.0,0.0,0.0,0.0,0.0,nan,nan,nan
79504000,0.0229608,0.0225136,-14.5971,0.00766141,nan,-9.92267e-05,4.84307e-05,-2.99805,0.0,0.0,0.0,0.0,0.0,0.0,nan,nan,nan
79692000,0.0229423,0.0225226,-15.1573,0.00766141,nan,-9.92267e-05,4.84307e-05,-2.99805,0.0,0.0,0.0,0.0,0.0,0.0,nan,nan,nan
79876000,0.0229241,0.0225315,-15.7051,0.00766141,nan,-9.92267e-05,4.84307e-05,-2.99805,0.0,0.0,0.0,0.0,0.0,0.0,nan,nan,nan
80064000,0.0229056,0.0225405,-16.2643,0.00766141,nan,-9.92267e-05,4.84307e-05,-2.99805,0.0,0.0,0.0,0.0,0.0,0.0,nan,nan,nan
80252000,0.0228871,0.0225495,-16.8231,0.00766141,nan,-9.92267e-05,4.84307e-05,-2.99805,0.0,0.0,0.0,0.0,0.0,0.0,nan,nan,nan
80436000,0.022869,0.0225584,-17.3698,0.00766141,nan,-9.92267e-05,4.84307e-05,-2.99805,0.0,0.0,0.0,0.0,0.0,0.0,nan,nan,nan
80624000,0.0228505,0.0225674,-17.9285,0.00766141,nan,-9.92267e-05,4.84307e-05,-2.99805,0.0,0.0,0.0,0.0,0.0,0.0,nan,nan,nan
80812000,0.022832,0.0225764,-18.4874,0.00766141,nan,-9.92267e-05,4.84307e-05,-2.99805,0.0,0.0,0.0,0.0,0.0,0.0,nan,nan,nan
80996000,0.0228139,0.0225853,-19.0352,0.00766141,nan,-9.92267e-05,4.84307e-05,-2.99805,0.0,0.0,0.0,0.0,0.0,0.0,nan,nan,nan
81184000,0.0227954,0.0225943,-19.5957,0.00766141,nan,-9.92267e-05,4.84307e-05,-2.99805,0.0,0.0,0.0,0.0,0.0,0.0,nan,nan,nan
81372000,0.0227768,0.0226034,-20.157,0.00766141,nan,-9.92267e-05,4.84307e-05,-2.99805,0.0,0.0,0.0,0.0,0.0,0.0,nan,nan,nan
81556000,0.0227586,0.0226123,-20.7067,0.00766141,nan,-9.92267e-05,4.84307e-05,-2.99805,0.0,0.0,0.0,0.0,0.0,0.0,nan,nan,nan
81744000,0.02274,0.0226036,-21.2682,0.00766141,nan,-9.92267e-05,-0.000271954,-2.99805,0.0,-6.23036e-05,0.0,0.0,0.0,0.0,nan,nan,nan
81932000,0.0227214,0.0225516,-21.8295,0.00766141,nan,-9.92267e-05,-0.000283617,-2.99805,0.0,-6.23036e-05,0.0,0.0,0.0,0.0,nan,nan,nan
82116000,0.0227033,0.0224986,-22.3785,0.00766141,nan,-9.92267e-05,-0.000295027,-2.99805,0.0,-6.23036e-05,0.0,0.0,0.0,0.0,nan,nan,nan
82304000,0.0226847,0.0224423,-22.9391,0.00766141,nan,-9.92267e-05,-0.000306677,-2.99805,0.0,-6.23036e-05,0.0,0.0,0.0,0.0,nan,nan,nan
82492000,0.0226662,0.0223839,-23.4993,0.00766141,nan,-9.92267e-05,-0.000318319,-2.99805,0.0,-6.23036e-05,0.0,0.0,0.0,0.0,nan,nan,nan
82676000,0.022648,0.0223541,-24.0471,0.00766141,nan,-9.92267e-05,-7.25666e-08,-2.99805,0.0,0.000109438,0.0,0.0,0.0,0.0,nan,nan,nan
82864000,0.0226295,0.022356,-24.6062,0.00766141,nan,-9.92267e-05,2.03335e-05,-2.99805,0.0,0.000109438,0.0,0.0,0.0,0.0,nan,nan,nan
83052000,0.0226111,0.0223617,-25.164,0.00766141,nan,-9.92267e-05,4.06963e-05,-2.99805,0.0,0.000109438,0.0,0.0,0.0,0.0,nan,nan,nan
83236000,0.0225931,0.0223709,-25.7084,0.00766141,nan,-9.92267e-05,6.05683e-05,-2.99805,0.0,0.000109438,0.0,0.0,0.0,0.0,nan,nan,nan
83424000,0.0225747,0.022384,-26.2632,0.00766141,nan,-9.92267e-05,8.08188e-05,-2.99805,0.0,0.000109438,0.0,0.0,0.0,0.0,nan,nan,nan
83612000,0.0225562,0.0224009,-26.822,0.00766141,nan,-9.92267e-05,0.000101217,-2.99805,0.0,0.000109438,0.0,0.0,0.0,0.0,nan,nan,nan
83796000,0.022538,0.0224214,-27.3736,0.00766141,nan,-9.92267e-05,0.000121354,-2.99805,0.0,0.000109438,0.0,0.0,0.0,0.0,nan,nan,nan
83984000,0.0225193,0.0224462,-27.9373,0.00766141,nan,-9.92267e-05,0.000141928,-2.99805,0.0,0.000109438,0.0,0.0,0.0,0.0,nan,nan,nan
84172000,0.022525,0.0224684,-28.5009,0.00766141,nan,0.000220773,-0.000158592,-2.99805,0.0,0.0,0.0,0.0,0.794528,0.0,nan,nan,nan
84356000,0.0225653,0.0224394,-29.048,0.00766141,nan,0.000220773,-0.000158592,-2.99805,0.0,0.0,0.0,0.0,0.0,0.0,nan,nan,nan
84544000,0.0226068,0.0224096,-29.6116,0.00766141,nan,0.000220773,-0.000158592,-2.99805,0.0,0.0,0.0,0.0,0.0,0.0,nan,nan,nan
84732000,0.0226483,0.0223798,-30.1752,0.00766141,nan,0.000220773,-0.000158592,-2.99805,0.0,0.0,0.0,0.0,0.0,0.0,nan,nan,nan
84916000,0.0226889,0.0223506,-30.7269,0.00766141,nan,0.000220773,-0.000158592,-2.99805,0.0,0.0,0.0,0.0,0.0,0.0,nan,nan,nan
85104000,0.0227304,0.0223208,-31.2905,0.00766141,nan,0.000220773,-0.000158592,-2.99805,0.0,0.0,0.0,0.0,0.0,0.0,nan,nan,nan
85292000,0.0227719,0.022291,-31.8541,0.00766141,nan,0.000220773,-0.000158592,-2.99805,0.0,0.0,0.0,0.0,0.0,0.0,nan,nan,nan
85476000,0.0228125,0.0222618,-32.4058,0.00766141,nan,0.000220773,-0.000158592,-2.99805,0.0,0.0,0.0,0.0,0.0,0.0,nan,nan,nan
85664000,0.0228541,0.022232,-32.9694,0.00766141,nan,0.000220773,-0.000158592,-2.99805,0.0,0.0,0.0,0.0,0.0,0.0,nan,nan,nan
85852000,0.0228956,0.0222022,-33.533,0.00766141,nan,0.000220773,-0.000158592,-2.99805,0.0,0.0,0.0,0.0,0.0,0.0,nan,nan,nan
86036000,0.0229359,0.0221732,-34.0807,0.00766141,nan,0.000220773,-0.000158592,-2.99805,0.0,0.0,0.0,0.0,0.0,0.0,nan,nan,nan
86224000,0.0229768,0.0221438,-34.6368,0.00766141,nan,0.000220773,-0.000158592,-2.99805,0.0,0.0,0.0,0.0,0.0,0.0,nan,nan,nan
86412000,0.0230179,0.0221143,-35.1938,0.00766141,nan,0.000220773,-0.000158592,-2.99805,0.0,0.0,0.0,0.0,0.0,0.0,nan,nan,nan
86596000,0.0230581,0.0220854,-35.7399,0.00766141,nan,0.000220773,-0.000158592,-2.99805,0.0,0.0,0.0,0.0,0.0,0.0,nan,nan,nan
86784000,0.0230992,0.0220559,-36.2987,0.00766141,nan,0.000220773,-0.000158592,-2.99805,0.0,0.0,0.0,0.0,0.0,0.0,nan,nan,nan
86972000,0.0230983,0.0220263,-36.8584,0.00766141,nan,-0.000108608,-0.000158592,-2.99805,-0.000116467,0.0,0.0,0.0,0.0,0.0,nan,nan,nan
87156000,0.0230764,0.0219973,-37.4069,0.00766141,nan,-0.000129916,-0.000158592,-2.99805,-0.000116467,0.0,0.0,0.0,0.0,0.0,nan,nan,nan
87344000,0.0230501,0.0219676,-37.9677,0.00766141,nan,-0.000151705,-0.000158592,-2.99805,-0.000116467,0.0,0.0,0.0,0.0,0.0,nan,nan,nan
87532000,0.0230196,0.0219378,-38.53,0.00766141,nan,-0.000173549,-0.000158592,-2.99805,-0.000116467,0.0,0.0,0.0,0.0,0.0,nan,nan,nan
87716000,0.0229857,0.0219087,-39.0817,0.00766141,nan,-0.000194979,-0.000158592,-2.99805,-0.000116467,0.0,0.0,0.0,0.0,0.0,nan,nan,nan
87904000,0.022947,0.0218788,-39.6453,0.00766141,nan,-0.000216875,-0.000158592,-2.99805,-0.000116467,0.0,0.0,0.0,0.0,0.0,nan,nan,nan
88092000,0.0229287,0.021849,-40.2089,0.00766141,nan,8.89163e-05,-0.000158592,-2.99805,0.0,0.0,0.0,0.0,0.0,0.0,nan,nan,nan
88276000,0.022945,0.021868,-40.7565,0.00766141,nan,8.89163e-05,0.000177989,-2.99805,0.0,0.000130834,0.0,0.0,0.0,0.0,nan,nan,nan
88464000,0.0229615,0.0219018,-41.3137,0.00766141,nan,8.89163e-05,0.000182089,-2.99805,0.0,1.37842e-06,0.0,0.0,0.0,0.0,nan,nan,nan
88652000,0.022978,0.0219356,-41.8696,0.00766141,nan,8.89163e-05,0.000182344,-2.99805,0.0,1.37842e-06,0.0,0.0,0.0,0.0,nan,nan,nan
88840000,0.0229944,0.0219693,-42.4241,0.00766141,nan,8.89163e-05,0.000182599,-2.99805,0.0,1.37842e-06,0.0,0.0,0.0,0.0,nan,nan,nan
89028000,0.0230108,0.0220031,-42.9775,0.00766141,nan,8.89163e-05,0.000182854,-2.99805,0.0,1.37842e-06,0.0,0.0,0.0,0.0,nan,nan,nan
89212000,0.0230269,0.0220361,-43.5181,0.00766141,nan,8.89163e-05,0.000183102,-2.99805,0.0,1.37842e-06,0.0,0.0,0.0,0.0,nan,nan,nan
89400000,0.0230432,0.0220698,-44.0695,0.00766141,nan,8.89163e-05,0.000183356,-2.99805,0.0,1.37842e-06,0.0,0.0,0.0,0.0,nan,nan,nan
89588000,0.0230595,0.0221035,-44.6203,0.00766141,nan,8.89163e-05,0.000183609,-2.99805,0.0,1.37842e-06,0.0,0.0,0.0,0.0,nan,nan,nan
89772000,0.0230755,0.0221365,-45.1585,0.00766141,nan,8.89163e-05,0.000183857,-2.99805,0.0,1.37842e-06,0.0,0.0,0.0,0.0,nan,nan,nan
89960000,0.0230918,0.0221702,-45.7076,0.00766141,nan,8.89163e-05,0.000184109,-2.99805,0.0,1.37842e-06,0.0,0.0,0.0,0.0,nan,nan,nan
90148000,0.0231081,0.0222039,-46.2562,0.00766141,nan,8.89163e-05,0.000184361,-2.99805,0.0,1.37842e-06,0.0,0.0,0.0,0.0,nan,nan,nan
90332000,0.023124,0.0222369,-46.7926,0.00766141,nan,8.89163e-05,0.000184608,-2.99805,0.0,1.37842e-06,0.0,0.0,0.0,0.0,nan,nan,nan
90520000,0.0231402,0.0222706,-47.3404,0.00766141,nan,8.89163e-05,0.00018486,-2.99805,0.0,1.37842e-06,0.0,0.0,0.0,0.0,nan,nan,nan
90708000,0.0231565,0.0222985,-47.8878,0.00766141,nan,8.89163e-05,-0.000120902,-2.99805,0.0,-0.000455196,0.0,0.0,0.776594,0.0,nan,nan,nan
90892000,0.0231728,0.0222686,-48.4394,0.00766141,nan,8.89163e-05,-0.000204658,-2.99805,0.0,-0.000455196,0.0,0.0,0.0,0.0,nan,nan,nan
91080000,0.0231895,0.022222,-49.003,0.00766141,nan,8.89163e-05,-0.000290235,-2.99805,0.0,-0.000455196,0.0,0.0,0.0,0.0,nan,nan,nan
91268000,0.0232063,0.0222051,-49.5667,0.00766141,nan,8.89163e-05,-2.77709e-07,-2.99805,0.0,0.0,0.0,0.0,0.0,0.0,nan,nan,nan
91452000,0.0232226,0.022205,-50.1183,0.00766141,nan,8.89163e-05,-2.77709e-07,-2.99805,0.0,0.0,0.0,0.0,0.0,0.0,nan,nan,nan
91640000,0.0232394,0.022205,-50.6819,0.00766141,nan,8.89163e-05,-2.77709e-07,-2.99805,0.0,0.0,0.0,0.0,0.0,0.0,nan,nan,nan
91828000,0.0232561,0.0222049,-51.2456,0.00766141,nan,8.89163e-05,-2.77709e-07,-2.99805,0.0,0.0,0.0,0.0,0.0,0.0,nan,nan,nan
92012000,0.0232724,0.0222049,-51.7972,0.00766141,nan,8.89163e-05,-2.77709e-07,-2.99805,0.0,0.0,0.0,0.0,0.0,0.0,nan,nan,nan
92200000,0.0232892,0.0222048,-52.3608,0.00766141,nan,8.89163e-05,-2.77709e-07,-2.99805,0.0,0.0,0.0,0.0,0.0,0.0,nan,nan,nan
92388000,0.0233059,0.0222048,-52.9244,0.00766141,nan,8.89163e-05,-2.77709e-07,-2.99805,0.0,0.0,0.0,0.0,0.0,0.0,nan,nan,nan
92572000,0.0233222,0.0222047,-53.4761,0.00766141,nan,8.89163e-05,-2.77709e-07,-2.99805,0.0,0.0,0.0,0.0,0.0,0.0,nan,nan,nan
92760000,0.023339,0.0222047,-54.0397,0.00766141,nan,8.89163e-05,-2.77709e-07,-2.99805,0.0,0.0,0.0,0.0,0.0,0.0,nan,nan,nan
92948000,0.0233557,0.0222046,-54.6033,0.00766141,nan,8.89163e-05,-2.77709e-07,-2.99805,0.0,0.0,0.0,0.0,0.0,0.0,nan,nan,nan
93132000,0.0233721,0.0222046,-55.155,0.00766141,nan,8.89163e-05,-2.77709e-07,-2.99805,0.0,0.0,0.0,0.0,0.0,0.0,nan,nan,nan
93320000,0.0233888,0.0222045,-55.7186,0.00766141,nan,8.89163e-05,-2.77709e-07,-2.99805,0.0,0.0,0.0,0.0,0.0,0.0,nan,nan,nan
93508000,0.0234055,0.0222045,-56.2822,0.00766141,nan,8.89163e-05,-2.77709e-07,-2.99805,0.0,0.0,0.0,0.0,0.0,0.0,nan,nan,nan
93692000,0.0234219,0.0222044,-56.8339,0.00766141,nan,8.89163e-05,-2.77709e-07,-2.99805,0.0,0.0,0.0,0.0,0.0,0.0,nan,nan,nan
93880000,0.0234386,0.0222044,-57.3975,0.00766141,nan,8.89163e-05,-2.77709e-07,-2.99805,0.0,0.0,0.0,0.0,0.0,0.0,nan,nan,nan
94068000,0.0234553,0.0222043,-57.9611,0.00766141,nan,8.89163e-05,-2.77709e-07,-2.99805,0.0,0.0,0.0,0.0,0.0,0.0,nan,nan,nan
94252000,0.0234717,0.0222043,-58.5127,0.00766141,nan,8.89163e-05,-2.77709e-07,-2.99805,0.0,0.0,0.0,0.0,0.0,0.0,nan,nan,nan
94440000,0.0234884,0.0222042,-59.0764,0.00766141,nan,8.89163e-05,-2.77709e-07,-2.99805,0.0,0.0,0.0,0.0,0.0,0.0,nan,nan,nan
94628000,0.0235051,0.0222042,-59.64,0.00766141,nan,8.89163e-05,-2.77709e-07,-2.99805,0.0,0.0,0.0,0.0,0.0,0.0,nan,nan,nan
94812000,0.0235215,0.0222041,-60.1916,0.00766141,nan,8.89163e-05,-2.77709e-07,-2.99286,0.0,0.0,0.288,0.0,0.0,8.0,nan,nan,nan
95000000,0.0235018,0.0222041,-60.7382,0.00766141,nan,-0.000250238,-2.77709e-07,-2.85429,-0.000211366,0.0,0.864406,0.0,0.0,0.0,nan,nan,nan
95188000,0.0234518,0.022204,-61.2523,0.00766141,nan,-0.000289408,-2.77709e-07,-2.6941,-0.000211366,0.0,0.864406,0.0,0.0,0.0,nan,nan,nan
95372000,0.0233959,0.022204,-61.7274,0.00766141,nan,-0.000327713,-2.77709e-07,-2.55,-0.000211366,0.0,0.738326,0.0,0.0,0.0,nan,nan,nan
95564000,0.0233302,0.0222039,-62.1956,0.00766141,nan,-0.000367651,-2.77709e-07,-2.40683,-0.000211366,0.0,0.706855,0.0,0.0,0.0,nan,nan,nan
95752000,0.0233154,0.0222039,-62.6276,0.00766141,nan,-2.47659e-05,-2.77709e-07,-2.26943,0.000253946,0.0,0.801192,0.0,0.0,6.4,nan,nan,nan
95940000,0.0233152,0.0222038,-63.0375,0.00766141,nan,2.2455e-05,-2.77709e-07,-2.13989,0.000253946,0.0,0.609056,0.0,0.0,-8.0,nan,nan,nan
96124000,0.0233236,0.0222038,-63.4202,0.00766141,nan,6.9181e-05,-2.77709e-07,-2.02149,0.000253946,0.0,0.577056,0.0,0.0,0.0,nan,nan,nan
96312000,0.0233411,0.0222037,-63.7892,0.00766141,nan,0.000116923,-2.77709e-07,-1.9057,0.000253946,0.0,0.705056,0.0,0.0,8.0,nan,nan,nan
96500000,0.0233613,0.0222037,-64.1363,0.00766141,nan,-0.000157793,-2.77709e-07,-1.79681,-0.000359049,0.0,0.516704,0.787303,0.0,-8.0,nan,nan,nan
96684000,0.0233271,0.0222036,-64.4505,0.00766141,nan,-0.000222351,-2.77709e-07,-1.69957,-0.000359049,0.0,0.485434,0.0,0.0,0.0,nan,nan,nan
96872000,0.0232802,0.0222036,-64.754,0.00766141,nan,-0.000288296,-2.77709e-07,-1.60516,-0.000359049,0.0,0.610466,0.0,0.0,8.0,nan,nan,nan
97060000,0.0232454,0.0222035,-65.0403,0.00766141,nan,-2.68728e-06,-2.77709e-07,-1.51544,0.000362724,0.0,0.422975,0.0,0.0,-8.0,nan,nan,nan
97244000,0.023251,0.0222035,-65.311,0.00766141,nan,6.39148e-05,-2.77709e-07,-1.43323,0.000362724,0.0,0.390975,0.0,0.0,0.0,nan,nan,nan
97432000,0.0232694,0.0222034,-65.5725,0.00766141,nan,0.000132107,-2.77709e-07,-1.35026,0.000362724,0.0,0.454975,0.0,0.0,0.0,nan,nan,nan
97620000,0.0232757,0.0222034,-65.8172,0.00766141,nan,-0.000143641,-2.77709e-07,-1.27146,0.0,0.0,0.422975,0.0,0.0,0.0,nan,nan,nan
97804000,0.0232499,0.0222033,-66.0402,0.00766141,nan,-0.000143641,-2.77709e-07,-1.20388,0.0,0.0,0.297734,0.0,0.0,-8.0,nan,nan,nan
97992000,0.0232234,0.0222033,-66.2556,0.00766141,nan,-0.000143641,-2.77709e-07,-1.13791,0.0,0.0,0.360391,0.0,0.0,0.0,nan,nan,nan
98180000,0.023197,0.0222032,-66.4594,0.00766141,nan,-0.000143641,-2.77709e-07,-1.07576,0.0,0.0,0.329047,0.0,0.0,0.0,nan,nan,nan
98364000,0.023171,0.0222032,-66.6481,0.00766141,nan,-0.000143641,-2.77709e-07,-1.01638,0.0,0.0,0.329047,0.0,0.0,0.0,nan,nan,nan
98552000,0.0231445,0.0222031,-66.8305,0.00766141,nan,-0.000143641,-2.77709e-07,-0.961015,0.0,0.0,0.29765,0.0,0.0,0.0,nan,nan,nan
98740000,0.023118,0.0222031,-67.0029,0.00766141,nan,-0.000143641,-2.77709e-07,-0.906027,0.0,0.0,0.29765,0.0,0.0,0.0,nan,nan,nan
98924000,0.023092,0.022203,-67.1626,0.00766141,nan,-0.000143641,-2.77709e-07,-0.859035,0.0,0.0,0.266203,0.0,0.0,8.0,nan,nan,nan
99112000,0.0230654,0.022203,-67.317,0.00766141,nan,-0.000143641,-2.77709e-07,-0.809787,0.0,0.0,0.266203,0.0,0.0,0.0,nan,nan,nan
99300000,0.0230388,0.0222029,-67.4628,0.00766141,nan,-0.000143641,-2.77709e-07,-0.765909,0.0,0.0,0.108661,0.0,0.0,-8.0,nan,nan,nan
99484000,0.0230128,0.0222029,-67.5979,0.00766141,nan,-0.000143641,-2.77709e-07,-0.724375,0.0,0.0,0.234707,0.0,0.0,0.0,nan,nan,nan
99672000,0.0229862,0.0222028,-67.7284,0.00766141,nan,-0.000143641,-2.77709e-07,-0.685078,0.0,0.0,0.329271,0.0,0.0,6.4,nan,nan,nan
99860000,0.0229596,0.0222028,-67.8517,0.00766141,nan,-0.000143641,-2.77709e-07,-0.646629,0.0,0.0,0.234743,0.0,0.0,0.0,nan,nan,nan
100044000,0.0229335,0.0222027,-67.9657,0.00766141,nan,-0.000143641,-2.77709e-07,-0.610565,0.0,0.0,0.203207,0.0,0.0,0.0,nan,nan,nan
100232000,0.0229069,0.0222027,-68.0761,0.00766141,nan,-0.000143641,-2.77709e-07,-0.577717,0.0,0.0,0.266417,0.0,0.0,6.4,nan,nan,nan
100420000,0.0228802,0.0222026,-68.1805,0.00766141,nan,-0.000143641,-2.77709e-07,-0.546662,0.0,0.0,0.108428,0.0,0.0,-8.0,nan,nan,nan
100604000,0.0228541,0.0222026,-68.2772,0.00766141,nan,-0.000143641,-2.77709e-07,-0.517593,0.0,0.0,0.108422,0.0,0.0,0.0,nan,nan,nan
100792000,0.0228624,0.0222025,-68.3713,0.00766141,nan,0.000170543,-2.77709e-07,-0.4877,0.0,0.0,0.171249,0.0,0.0,0.0,nan,nan,nan
100980000,0.0228945,0.0222025,-68.4605,0.00766141,nan,0.000170543,-2.77709e-07,-0.461713,0.0,0.0,0.139249,0.0,0.0,0.0,nan,nan,nan
101164000,0.0229258,0.0222024,-68.5431,0.00766141,nan,0.000170543,-2.77709e-07,-0.436091,0.0,0.0,0.139249,0.0,0.0,0.0,nan,nan,nan
101352000,0.0229579,0.0222024,-68.6226,0.00766141,nan,0.000170543,-2.77709e-07,-0.409912,0.0,0.0,0.139249,0.0,0.0,0.0,nan,nan,nan
101540000,0.02299,0.0222023,-68.6978,0.00766141,nan,0.000170543,-2.77709e-07,-0.38804,0.0,0.0,0.128,0.0,0.0,0.0,nan,nan,nan
101724000,0.0230213,0.0222023,-68.7672,0.00766141,nan,0.000170543,-2.77709e-07,-0.366792,0.0,0.0,0.128,0.0,0.0,0.0,nan,nan,nan
101912000,0.0230534,0.0222022,-68.8341,0.00766141,nan,0.000170543,-2.77709e-07,-0.345032,0.0,0.0,0.128,0.0,0.0,0.0,nan,nan,nan
102100000,0.0230855,0.0222022,-68.8973,0.00766141,nan,0.000170543,-2.77709e-07,-0.326907,0.0,0.0,0.128,0.0,0.0,0.0,nan,nan,nan
102284000,0.0231168,0.0222021,-68.9558,0.00766141,nan,0.000170543,-2.77709e-07,-0.308782,0.0,0.0,0.0256,0.0,0.0,-6.4,nan,nan,nan
102472000,0.0231489,0.0222021,-69.0123,0.00766141,nan,0.000170543,-2.77709e-07,-0.292142,0.0,0.0,0.128,0.0,0.0,0.0,nan,nan,nan
102660000,0.0231808,0.022202,-69.0653,0.00766141,nan,0.000170543,-2.77709e-07,-0.275355,0.0,0.0,0.00141756,0.0,0.0,-6.39942,nan,nan,nan
102844000,0.0232118,0.022202,-69.1141,0.00766141,nan,0.000170543,-2.77709e-07,-0.261468,0.0,0.0,0.00174236,0.0,0.0,0.0,nan,nan,nan
103032000,0.0232078,0.0222019,-69.1616,0.00766141,nan,-0.000160876,-2.77709e-07,-0.246888,-0.000184821,0.0,0.16,0.0,0.0,8.0,nan,nan,nan
103220000,0.0231743,0.0222019,-69.2066,0.0080451,nan,-0.000195623,-2.77709e-07,-0.23236,-0.000184821,0.0,0.0,0.0,0.0,-6.4,nan,nan,nan
103404000,0.0231351,0.0222018,-69.2483,0.0080451,nan,-0.00022963,-2.77709e-07,-0.221096,-0.000184821,0.0,0.0,0.0,0.0,0.0,nan,nan,nan
103592000,0.0230887,0.0222018,-69.2885,0.0080451,nan,-0.000264376,-2.77709e-07,-0.208232,-0.000184821,0.0,0.16,0.0,0.0,8.0,nan,nan,nan
103780000,0.0230793,0.0222017,-69.3262,0.0080451,nan,4.34257e-05,-2.77709e-07,-0.196097,0.0,0.0,0.00173545,0.0,0.0,-6.3993,nan,nan,nan
103968000,0.0230873,0.0222017,-69.3617,0.0080451,nan,4.34257e-05,-2.77709e-07,-0.186373,0.0,0.0,0.00218251,0.0,0.0,0.0,nan,nan,nan
104156000,0.0230954,0.0222016,-69.3951,0.0080451,nan,4.34257e-05,-2.77709e-07,-0.174636,0.0,0.0,0.00224264,0.0,0.0,-7.9992,nan,nan,nan
104340000,0.0231033,0.0222016,-69.426,0.0080451,nan,4.34257e-05,-2.77709e-07,-0.166176,0.0,0.0,0.00184917,0.0,0.0,0.0,nan,nan,nan
104528000,0.0231113,0.0222015,-69.4559,0.0080451,nan,4.34257e-05,-2.77709e-07,-0.156489,0.0,0.0,0.128439,0.0,0.0,6.4,nan,nan,nan
104716000,0.0231194,0.0222015,-69.4841,0.0080451,nan,4.34257e-05,-2.77709e-07,-0.147437,0.0,0.0,0.00196312,0.0,0.0,-6.39911,nan,nan,nan
104900000,0.0231272,0.0222014,-69.5101,0.0080451,nan,4.34257e-05,-2.77709e-07,-0.139635,0.0,0.0,0.00200544,0.0,0.0,0.0,nan,nan,nan
105088000,0.0231353,0.0222014,-69.5353,0.0080451,nan,4.34257e-05,-2.77709e-07,-0.133001,0.0,0.0,0.159494,0.0,0.0,8.0,nan,nan,nan
105276000,0.0231433,0.0222013,-69.5591,0.0080451,nan,4.34257e-05,-2.77709e-07,-0.126089,0.0,0.0,0.00203814,0.0,0.0,0.0,nan,nan,nan
105460000,0.0231512,0.0222013,-69.5812,0.0080451,nan,4.34257e-05,-2.77709e-07,-0.120111,0.0,0.0,0.00208341,0.0,0.0,0.0,nan,nan,nan
105648000,0.0231592,0.0222012,-69.6026,0.0080451,nan,4.34257e-05,-2.77709e-07,-0.112574,0.0,0.0,0.159475,0.0,0.0,8.0,nan,nan,nan
105836000,0.0231672,0.0222012,-69.6227,0.0080451,nan,4.34257e-05,-2.77709e-07,-0.105655,0.0,0.0,0.00218445,0.0,0.0,-6.3981,nan,nan,nan
106020000,0.0231751,0.0222011,-69.6413,0.0080451,nan,4.34257e-05,-2.77709e-07,-0.100312,0.0,0.0,0.0022389,0.0,0.0,0.0,nan,nan,nan
106208000,0.0231831,0.0222011,-69.6595,0.0080451,nan,4.34257e-05,-2.77709e-07,-0.0952087,0.0,0.0,0.159973,0.0,0.0,8.0,nan,nan,nan
106396000,0.0231911,0.022201,-69.6765,0.0080451,nan,4.34257e-05,-2.77709e-07,-0.0882371,0.0,0.0,0.00232522,0.0,0.0,-6.40019,nan,nan,nan
106580000,0.023199,0.022201,-69.6922,0.0080451,nan,4.34257e-05,-2.77709e-07,-0.0853458,0.0,0.0,0.0024015,0.0,0.0,0.0,nan,nan,nan
106768000,0.0232069,0.0222009,-69.7073,0.0080451,nan,4.34257e-05,-2.77709e-07,-0.0799616,0.0,0.0,0.00271718,0.0,0.0,0.0,nan,nan,nan
106956000,0.0232149,0.0222009,-69.7216,0.0080451,nan,4.34257e-05,-2.77709e-07,-0.074554,0.0,0.0,0.00318624,0.0,0.0,-6.38922,nan,nan,nan
107140000,0.0232227,0.0222009,-69.7348,0.0080451,nan,4.34257e-05,-2.77709e-07,-0.0715527,0.0,0.0,0.00349448,0.0,0.0,0.0,nan,nan,nan
107328000,0.0232306,0.0222008,-69.7475,0.0080451,nan,4.34257e-05,-2.77709e-07,-0.0684818,0.0,0.0,0.0036651,0.0,0.0,0.0,nan,nan,nan
107516000,0.0232385,0.0222008,-69.7596,0.0080451,nan,4.34257e-05,-2.77709e-07,-0.0629773,0.0,0.0,0.00400228,0.0,0.0,-6.39438,nan,nan,nan
107700000,0.0232463,0.0222007,-69.7706,0.0080451,nan,4.34257e-05,-2.77709e-07,-0.0598641,0.0,0.0,0.00417051,0.0,0.0,0.0,nan,nan,nan
107888000,0.0232542,0.0222007,-69.7814,0.0080451,nan,4.34257e-05,-2.77709e-07,-0.0579117,0.0,0.0,0.127828,0.0,0.0,6.4,nan,nan,nan
108076000,0.023262,0.0222006,-69.7916,0.0080451,nan,4.34257e-05,-2.77709e-07,-0.053542,0.0,0.0,0.00440815,0.0,0.0,-6.39692,nan,nan,nan
108260000,0.0232698,0.0222006,-69.8011,0.0080451,nan,4.34257e-05,-2.77709e-07,-0.0527591,0.0,0.0,0.00440815,0.0,0.0,0.0,nan,nan,nan
108448000,0.0232776,0.0222005,-69.8102,0.0080451,nan,4.34257e-05,-2.77709e-07,-0.0495634,0.0,0.0,0.00448995,0.0,0.0,0.0,nan,nan,nan
108636000,0.0232855,0.0222005,-69.8188,0.0080451,nan,4.34257e-05,-2.77709e-07,-0.0463579,0.0,0.0,0.0045919,0.0,0.0,0.0,nan,nan,nan
108820000,0.0232932,0.0222004,-69.8267,0.0080451,nan,4.34257e-05,-2.77709e-07,-0.0431597,0.0,0.0,0.00470778,0.0,0.0,0.0,nan,nan,nan
109008000,0.0233011,0.0222004,-69.8345,0.0080451,nan,4.34257e-05,-2.77709e-07,-0.0423076,0.0,0.0,0.00470778,0.0,0.0,0.0,nan,nan,nan
109196000,0.0233089,0.0222003,-69.8417,0.0080451,nan,4.34257e-05,-2.77709e-07,-0.0390778,0.0,0.0,0.00473899,0.0,0.0,0.0,nan,nan,nan
109380000,-0.0468889,0.00755509,-39.8395,0.0,nan,nan,nan,nan,nan,nan,nan,nan,nan,nan,nan,nan,nan
109568000,-0.0468889,0.00755509,-39.8395,0.0,nan,nan,nan,nan,nan,nan,nan,nan,nan,nan,nan,nan,nan
109756000,-0.0468889,0.00755509,-39.8395,0.0,nan,nan,nan,nan,nan,nan,nan,nan,nan,nan,nan,nan,nan
109940000,-0.0468889,0.00755509,-39.8395,0.0,nan,nan,nan,nan,nan,nan,nan,nan,nan,nan,nan,nan,nan
110132000,-0.0468889,0.00755509,-39.8395,0.0,nan,nan,nan,nan,nan,nan,nan,nan,nan,nan,nan,nan,nan
110316000,-0.0468889,0.00755509,-39.8395,0.0,nan,nan,nan,nan,nan,nan,nan,nan,nan,nan,nan,nan,nan
110504000,-0.0468889,0.00755509,-39.8395,0.0,nan,nan,nan,nan,nan,nan,nan,nan,nan,nan,nan,nan,nan
110692000,-0.0468889,0.00755509,-39.8395,0.0,nan,nan,nan,nan,nan,nan,nan,nan,nan,nan,nan,nan,nan
110876000,-0.0468889,0.00755509,-39.8395,0.0,nan,nan,nan,nan,nan,nan,nan,nan,nan,nan,nan,nan,nan
111064000,-0.0468889,0.00755509,-39.8395,0.0,nan,nan,nan,nan,nan,nan,nan,nan,nan,nan,nan,nan,nan
111252000,-0.0468889,0.00755509,-39.8395,0.0,nan,nan,nan,nan,nan,nan,nan,nan,nan,nan,nan,nan,nan
111440000,-0.0468889,0.00755509,-39.8395,0.0,nan,nan,nan,nan,nan,nan,nan,nan,nan,nan,nan,nan,nan
111628000,-0.0468889,0.00755509,-39.8395,0.0,nan,nan,nan,nan,nan,nan,nan,nan,nan,nan,nan,nan,nan
111812000,-0.0468889,0.00755509,-39.8395,0.0,nan,nan,nan,nan,nan,nan,nan,nan,nan,nan,nan,nan,nan
112000000,-0.0468889,0.00755509,-39.8395,0.0,nan,nan,nan,nan,nan,nan,nan,nan,nan,nan,nan,nan,nan
112188000,-0.0468889,0.00755509,-39.8395,0.0,nan,nan,nan,nan,nan,nan,nan,nan,nan,nan,nan,nan,nan
112380000,-0.0468889,0.00755509,-39.8395,0.0,nan,nan,nan,nan,nan,nan,nan,nan,nan,nan,nan,nan,nan
112568000,-0.0468889,0.00755509,-39.8395,0.0,nan,nan,nan,nan,nan,nan,nan,nan,nan,nan,nan,nan,nan
112756000,-0.0468889,0.00755509,-39.8395,0.0,nan,nan,nan,nan,nan,nan,nan,nan,nan,nan,nan,nan,nan
112940000,-0.0468889,0.00755509,-39.8395,0.0,nan,nan,nan,nan,nan,nan,nan,nan,nan,nan,nan,nan,nan
113128000,-0.0468889,0.00755509,-39.8395,0.0,nan,nan,nan,nan,nan,nan,nan,nan,nan,nan,nan,nan,nan
113316000,-0.0468889,0.00755509,-39.8395,0.0,nan,nan,nan,nan,nan,nan,nan,nan,nan,nan,nan,nan,nan
113504000,-0.0468889,0.00755509,-39.8395,0.0,nan,nan,nan,nan,nan,nan,nan,nan,nan,nan,nan,nan,nan
113692000,-0.0468889,0.00755509,-39.8395,0.0,nan,nan,nan,nan,nan,nan,nan,nan,nan,nan,nan,nan,nan
113876000,-0.0468889,0.00755509,-39.8395,0.0,nan,nan,nan,nan,nan,nan,nan,nan,nan,nan,nan,nan,nan
114064000,-0.0468889,0.00755509,-39.8395,0.0,nan,nan,nan,nan,nan,nan,nan,nan,nan,nan,nan,nan,nan
114252000,-0.0468889,0.00755509,-39.8395,0.0,nan,nan,nan,nan,nan,nan,nan,nan,nan,nan,nan,nan,nan
114436000,-0.0468889,0.00755509,-39.8395,0.0,nan,nan,nan,nan,nan,nan,nan,nan,nan,nan,nan,nan,nan
114624000,-0.0468889,0.00755509,-39.8395,0.0,nan,nan,nan,nan,nan,nan,nan,nan,nan,nan,nan,nan,nan
114812000,-0.0468889,0.00755509,-39.8395,0.0,nan,nan,nan,nan,nan,nan,nan,nan,nan,nan,nan,nan,nan
114996000,-0.0468889,0.00755509,-39.8395,0.0,nan,nan,nan,nan,nan,nan,nan,nan,nan,nan,nan,nan,nan
115184000,-0.0468889,0.00755509,-39.8395,0.0,nan,nan,nan,nan,nan,nan,nan,nan,nan,nan,nan,nan,nan
115372000,-0.0468889,0.00755509,-39.8395,0.0,nan,nan,nan,nan,nan,nan,nan,nan,nan,nan,nan,nan,nan
115556000,-0.0468889,0.00755509,-39.8395,0.0,nan,nan,nan,nan,nan,nan,nan,nan,nan,nan,nan,nan,nan
115744000,-0.0468889,0.00755509,-39.8395,0.0,nan,nan,nan,nan,nan,nan,nan,nan,nan,nan,nan,nan,nan
115932000,-0.0468889,0.00755509,-39.8395,0.0,nan,nan,nan,nan,nan,nan,nan,nan,nan,nan,nan,nan,nan
116116000,-0.0468889,0.00755509,-39.8395,0.0,nan,nan,nan,nan,nan,nan,nan,nan,nan,nan,nan,nan,nan
116304000,-0.0468889,0.00755509,-39.8395,0.0,nan,nan,nan,nan,nan,nan,nan,nan,nan,nan,nan,nan,nan
116492000,-0.0468889,0.00755509,-39.8395,0.0,nan,nan,nan,nan,nan,nan,nan,nan,nan,nan,nan,nan,nan
116676000,-0.0468889,0.00755509,-39.8395,0.0,nan,nan,nan,nan,nan,nan,nan,nan,nan,nan,nan,nan,nan
116864000,-0.0468889,0.00755509,-39.8395,0.0,nan,nan,nan,nan,nan,nan,nan,nan,nan,nan,nan,nan,nan
117052000,-0.0468889,0.00755509,-39.8395,0.0,nan,nan,nan,nan,nan,nan,nan,nan,nan,nan,nan,nan,nan
117240000,-0.0468889,0.00755509,-39.8395,0.0,nan,nan,nan,nan,nan,nan,nan,nan,nan,nan,nan,nan,nan
117428000,-0.0468889,0.00755509,-39.8395,0.0,nan,nan,nan,nan,nan,nan,nan,nan,nan,nan,nan,nan,nan
117612000,-0.0468889,0.00755509,-39.8395,0.0,nan,nan,nan,nan,nan,nan,nan,nan,nan,nan,nan,nan,nan
117800000,-0.0468889,0.00755509,-39.8395,0.0,nan,nan,nan,nan,nan,nan,nan,nan,nan,nan,nan,nan,nan
117988000,-0.0468889,0.00755509,-39.8395,0.0,nan,nan,nan,nan,nan,nan,nan,nan,nan,nan,nan,nan,nan
118172000,-0.0468889,0.00755509,-39.8395,0.0,nan,nan,nan,nan,nan,nan,nan,nan,nan,nan,nan,nan,nan
118360000,-0.0468889,0.00755509,-39.8395,0.0,nan,nan,nan,nan,nan,nan,nan,nan,nan,nan,nan,nan,nan
118548000,-0.0468889,0.00755509,-39.8395,0.0,nan,nan,nan,nan,nan,nan,nan,nan,nan,nan,nan,nan,nan
118736000,-0.0468889,0.00755509,-39.8395,0.0,nan,nan,nan,nan,nan,nan,nan,nan,nan,nan,nan,nan,nan
118924000,-0.0468889,0.00755509,-39.8395,0.0,nan,nan,nan,nan,nan,nan,nan,nan,nan,nan,nan,nan,nan
119108000,-0.0468889,0.00755509,-39.8395,0.0,nan,nan,nan,nan,nan,nan,nan,nan,nan,nan,nan,nan,nan
119296000,-0.0468889,0.00755509,-39.8395,0.0,nan,nan,nan,nan,nan,nan,nan,nan,nan,nan,nan,nan,nan
119484000,-0.0468889,0.00755509,-39.8395,0.0,nan,nan,nan,nan,nan,nan,nan,nan,nan,nan,nan,nan,nan
119668000,-0.0468889,0.00755509,-39.8395,0.0,nan,nan,nan,nan,nan,nan,nan,nan,nan,nan,nan,nan,nan
119856000,-0.0468889,0.00755509,-39.8395,0.0,nan,nan,nan,nan,nan,nan,nan,nan,nan,nan,nan,nan,nan
120044000,-0.0468889,0.00755509,-39.8395,0.0,nan,nan,nan,nan,nan,nan,nan,nan,nan,nan,nan,nan,nan
120228000,-0.0468889,0.00755509,-39.8395,0.0,nan,nan,nan,nan,nan,nan,nan,nan,nan,nan,nan,nan,nan
120416000,-0.0468889,0.00755509,-39.8395,0.0,nan,nan,nan,nan,nan,nan,nan,nan,nan,nan,nan,nan,nan
120604000,-0.0468889,0.00755509,-39.8395,0.0,nan,nan,nan,nan,nan,nan,nan,nan,nan,nan,nan,nan,nan
120788000,-0.0468889,0.00755509,-39.8395,0.0,nan,nan,nan,nan,nan,nan,nan,nan,nan,nan,nan,nan,nan
120976000,-0.0468889,0.00755509,-39.8395,0.0,nan,nan,nan,nan,nan,nan,nan,nan,nan,nan,nan,nan,nan
121164000,-0.0468889,0.00755509,-39.8395,0.0,nan,nan,nan,nan,nan,nan,nan,nan,nan,nan,nan,nan,nan
121348000,-0.0468889,0.00755509,-39.8395,0.0,nan,nan,nan,nan,nan,nan,nan,nan,nan,nan,nan,nan,nan
121536000,-0.0468889,0.00755509,-39.8395,0.0,nan,nan,nan,nan,nan,nan,nan,nan,nan,nan,nan,nan,nan
121724000,-0.0468889,0.00755509,-39.8395,0.0,nan,nan,nan,nan,nan,nan,nan,nan,nan,nan,nan,nan,nan
121908000,-0.0468889,0.00755509,-39.8395,0.0,nan,nan,nan,nan,nan,nan,nan,nan,nan,nan,nan,nan,nan
122096000,-0.0468889,0.00755509,-39.8395,0.0,nan,nan,nan,nan,nan,nan,nan,nan,nan,nan,nan,nan,nan
122284000,-0.0468889,0.00755509,-39.8395,0.0,nan,nan,nan,nan,nan,nan,nan,nan,nan,nan,nan,nan,nan
122468000,-0.0468889,0.00755509,-39.8395,0.0,nan,nan,nan,nan,nan,nan,nan,nan,nan,nan,nan,nan,nan
122656000,-0.0468889,0.00755509,-39.8395,0.0,nan,nan,nan,nan,nan,nan,nan,nan,nan,nan,nan,nan,nan
122844000,-0.0468889,0.00755509,-39.8395,0.0,nan,nan,nan,nan,nan,nan,nan,nan,nan,nan,nan,nan,nan
123028000,-0.0468889,0.00755509,-39.8395,0.0,nan,nan,nan,nan,nan,nan,nan,nan,nan,nan,nan,nan,nan
123216000,-0.0468889,0.00755509,-39.8395,0.0,nan,nan,nan,nan,nan,nan,nan,nan,nan,nan,nan,nan,nan
123404000,-0.0468889,0.00755509,-39.8395,0.0,nan,nan,nan,nan,nan,nan,nan,nan,nan,nan,nan,nan,nan
123588000,-0.0468889,0.00755509,-39.8395,0.0,nan,nan,nan,nan,nan,nan,nan,nan,nan,nan,nan,nan,nan
123776000,-0.0468889,0.00755509,-39.8395,0.0,nan,nan,nan,nan,nan,nan,nan,nan,nan,nan,nan,nan,nan
123964000,-0.0468889,0.00755509,-39.8395,0.0,nan,nan,nan,nan,nan,nan,nan,nan,nan,nan,nan,nan,nan
124148000,-0.0468889,0.00755509,-39.8395,0.0,nan,nan,nan,nan,nan,nan,nan,nan,nan,nan,nan,nan,nan
124336000,-0.0468889,0.00755509,-39.8395,0.0,nan,nan,nan,nan,nan,nan,nan,nan,nan,nan,nan,nan,nan
124524000,-0.0468889,0.00755509,-39.8395,0.0,nan,nan,nan,nan,nan,nan,nan,nan,nan,nan,nan,nan,nan
124708000,-0.0468889,0.00755509,-39.8395,0.0,nan,nan,nan,nan,nan,nan,nan,nan,nan,nan,nan,nan,nan
124896000,-0.0468889,0.00755509,-39.8395,0.0,nan,nan,nan,nan,nan,nan,nan,nan,nan,nan,nan,nan,nan
125084000,-0.0468889,0.00755509,-39.8395,0.0,nan,nan,nan,nan,nan,nan,nan,nan,nan,nan,nan,nan,nan
125268000,-0.0468889,0.00755509,-39.8395,0.0,nan,nan,nan,nan,nan,nan,nan,nan,nan,nan,nan,nan,nan
125456000,-0.0468889,0.00755509,-39.8395,0.0,nan,nan,nan,nan,nan,nan,nan,nan,nan,nan,nan,nan,nan
125644000,-0.0468889,0.00755509,-39.8395,0.0,nan,nan,nan,nan,nan,nan,nan,nan,nan,nan,nan,nan,nan
125828000,-0.0468889,0.00755509,-39.8395,0.0,nan,nan,nan,nan,nan,nan,nan,nan,nan,nan,nan,nan,nan
126016000,-0.0468889,0.00755509,-39.8395,0.0,nan,nan,nan,nan,nan,nan,nan,nan,nan,nan,nan,nan,nan
126204000,-0.0468889,0.00755509,-39.8395,0.0,nan,nan,nan,nan,nan,nan,nan,nan,nan,nan,nan,nan,nan
126388000,-0.0468889,0.00755509,-39.8395,0.0,nan,nan,nan,nan,nan,nan,nan,nan,nan,nan,nan,nan,nan
126576000,-0.0468889,0.00755509,-39.8395,0.0,nan,nan,nan,nan,nan,nan,nan,nan,nan,nan,nan,nan,nan
126764000,-0.0468889,0.00755509,-39.8395,0.0,nan,nan,nan,nan,nan,nan,nan,nan,nan,nan,nan,nan,nan
126948000,-0.0468889,0.00755509,-39.8395,0.0,nan,nan,nan,nan,nan,nan,nan,nan,nan,nan,nan,nan,nan
127136000,-0.0468889,0.00755509,-39.8395,0.0,nan,nan,nan,nan,nan,nan,nan,nan,nan,nan,nan,nan,nan
127324000,-0.0468889,0.00755509,-39.8395,0.0,nan,nan,nan,nan,nan,nan,nan,nan,nan,nan,nan,nan,nan
127508000,-0.0468889,0.00755509,-39.8395,0.0,nan,nan,nan,nan,nan,nan,nan,nan,nan,nan,nan,nan,nan
127696000,-0.0468889,0.00755509,-39.8395,0.0,nan,nan,nan,nan,nan,nan,nan,nan,nan,nan,nan,nan,nan
127884000,-0.0468889,0.00755509,-39.8395,0.0,nan,nan,nan,nan,nan,nan,nan,nan,nan,nan,nan,nan,nan
128068000,-0.0468889,0.00755509,-39.8395,0.0,nan,nan,nan,nan,nan,nan,nan,nan,nan,nan,nan,nan,nan
128260000,-0.0468889,0.00755509,-39.8395,0.0,nan,nan,nan,nan,nan,nan,nan,nan,nan,nan,nan,nan,nan
128444000,-0.0468889,0.00755509,-39.8395,0.0,nan,nan,nan,nan,nan,nan,nan,nan,nan,nan,nan,nan,nan
128632000,-0.0468889,0.00755509,-39.8395,0.0,nan,nan,nan,nan,nan,nan,nan,nan,nan,nan,nan,nan,nan
128820000,-0.0468889,0.00755509,-39.8395,0.0,nan,nan,nan,nan,nan,nan,nan,nan,nan,nan,nan,nan,nan
129004000,-0.0468889,0.00755509,-39.8395,0.0,nan,nan,nan,nan,nan,nan,nan,nan,nan,nan,nan,nan,nan
129192000,-0.0468889,0.00755509,-39.8395,0.0,nan,nan,nan,nan,nan,nan,nan,nan,nan,nan,nan,nan,nan
129380000,-0.0468889,0.00755509,-39.8395,0.0,nan,nan,nan,nan,nan,nan,nan,nan,nan,nan,nan,nan,nan
129564000,-0.0468889,0.00755509,-39.8395,0.0,nan,nan,nan,nan,nan,nan,nan,nan,nan,nan,nan,nan,nan
129752000,-0.0468889,0.00755509,-39.8395,0.0,nan,nan,nan,nan,nan,nan,nan,nan,nan,nan,nan,nan,nan
129940000,-0.0468889,0.00755509,-39.8395,0.0,nan,nan,nan,nan,nan,nan,nan,nan,nan,nan,nan,nan,nan
130128000,-0.0468889,0.00755509,-39.8395,0.0,nan,nan,nan,nan,nan,nan,nan,nan,nan,nan,nan,nan,nan
130316000,-0.0468889,0.00755509,-39.8395,0.0,nan,nan,nan,nan,nan,nan,nan,nan,nan,nan,nan,nan,nan
130508000,-0.0468889,0.00755509,-39.8395,0.0,nan,nan,nan,nan,nan,nan,nan,nan,nan,nan,nan,nan,nan
130692000,-0.0468889,0.00755509,-39.8395,0.0,nan,nan,nan,nan,nan,nan,nan,nan,nan,nan,nan,nan,nan
130880000,-0.0468889,0.00755509,-39.8395,0.0,nan,nan,nan,nan,nan,nan,nan,nan,nan,nan,nan,nan,nan
131068000,-0.0468889,0.00755509,-39.8395,0.0,nan,nan,nan,nan,nan,nan,nan,nan,nan,nan,nan,nan,nan
131252000,-0.0468889,0.00755509,-39.8395,0.0,nan,nan,nan,nan,nan,nan,nan,nan,nan,nan,nan,nan,nan
131440000,-0.0468889,0.00755509,-39.8395,0.0,nan,nan,nan,nan,nan,nan,nan,nan,nan,nan,nan,nan,nan
131628000,-0.0468889,0.00755509,-39.8395,0.0,nan,nan,nan,nan,nan,nan,nan,nan,nan,nan,nan,nan,nan
131820000,-0.0468889,0.00755509,-39.8395,0.0,nan,nan,nan,nan,nan,nan,nan,nan,nan,nan,nan,nan,nan
132004000,-0.0468889,0.00755509,-39.8395,0.0,nan,nan,nan,nan,nan,nan,nan,nan,nan,nan,nan,nan,nan
132192000,-0.0468889,0.00755509,-39.8395,0.0,nan,nan,nan,nan,nan,nan,nan,nan,nan,nan,nan,nan,nan
132380000,-0.0468889,0.00755509,-39.8395,0.0,nan,nan,nan,nan,nan,nan,nan,nan,nan,nan,nan,nan,nan
132564000,-0.0468889,0.00755509,-39.8395,0.0,nan,nan,nan,nan,nan,nan,nan,nan,nan,nan,nan,nan,nan
132752000,-0.0468889,0.00755509,-39.8395,0.0,nan,nan,nan,nan,nan,nan,nan,nan,nan,nan,nan,nan,nan
132940000,-0.0468889,0.00755509,-39.8395,0.0,nan,nan,nan,nan,nan,nan,nan,nan,nan,nan,nan,nan,nan
133124000,-0.0468889,0.00755509,-39.8395,0.0,nan,nan,nan,nan,nan,nan,nan,nan,nan,nan,nan,nan,nan
133312000,-0.0468889,0.00755509,-39.8395,0.0,nan,nan,nan,nan,nan,nan,nan,nan,nan,nan,nan,nan,nan
133500000,-0.0468889,0.00755509,-39.8395,0.0,nan,nan,nan,nan,nan,nan,nan,nan,nan,nan,nan,nan,nan
133684000,-0.0468889,0.00755509,-39.8395,0.0,nan,nan,nan,nan,nan,nan,nan,nan,nan,nan,nan,nan,nan
133872000,-0.0468889,0.00755509,-39.8395,0.0,nan,nan,nan,nan,nan,nan,nan,nan,nan,nan,nan,nan,nan
134060000,-0.0468889,0.00755509,-39.8395,0.0,nan,nan,nan,nan,nan,nan,nan,nan,nan,nan,nan,nan,nan
134244000,-0.0468889,0.00755509,-39.8395,0.0,nan,nan,nan,nan,nan,nan,nan,nan,nan,nan,nan,nan,nan
134436000,-0.0468889,0.00755509,-39.8395,0.0,nan,nan,nan,nan,nan,nan,nan,nan,nan,nan,nan,nan,nan
134620000,-0.0468889,0.00755509,-39.8395,0.0,nan,nan,nan,nan,nan,nan,nan,nan,nan,nan,nan,nan,nan
134808000,-0.0468889,0.00755509,-39.8395,0.0,nan,nan,nan,nan,nan,nan,nan,nan,nan,nan,nan,nan,nan
134996000,-0.0468889,0.00755509,-39.8395,0.0,nan,nan,nan,nan,nan,nan,nan,nan,nan,nan,nan,nan,nan
135180000,-0.0468889,0.00755509,-39.8395,0.0,nan,nan,nan,nan,nan,nan,nan,nan,nan,nan,nan,nan,nan
135368000,-0.0468889,0.00755509,-39.8395,0.0,nan,nan,nan,nan,nan,nan,nan,nan,nan,nan,nan,nan,nan
135556000,-0.0468889,0.00755509,-39.8395,0.0,nan,nan,nan,nan,nan,nan,nan,nan,nan,nan,nan,nan,nan
135740000,-0.0468889,0.00755509,-39.8395,0.0,nan,nan,nan,nan,nan,nan,nan,nan,nan,nan,nan,nan,nan
135928000,-0.0468889,0.00755509,-39.8395,0.0,nan,nan,nan,nan,nan,nan,nan,nan,nan,nan,nan,nan,nan
136116000,-0.0468889,0.00755509,-39.8395,0.0,nan,nan,nan,nan,nan,nan,nan,nan,nan,nan,nan,nan,nan
136300000,-0.0468889,0.00755509,-39.8395,0.0,nan,nan,nan,nan,nan,nan,nan,nan,nan,nan,nan,nan,nan
136488000,-0.0468889,0.00755509,-39.8395,0.0,nan,nan,nan,nan,nan,nan,nan,nan,nan,nan,nan,nan,nan
136676000,-0.0468889,0.00755509,-39.8395,0.0,nan,nan,nan,nan,nan,nan,nan,nan,nan,nan,nan,nan,nan
136860000,-0.0468889,0.00755509,-39.8395,0.0,nan,nan,nan,nan,nan,nan,nan,nan,nan,nan,nan,nan,nan
137048000,-0.0468889,0.00755509,-39.8395,0.0,nan,nan,nan,nan,nan,nan,nan,nan,nan,nan,nan,nan,nan
137236000,-0.0468889,0.00755509,-39.8395,0.0,nan,nan,nan,nan,nan,nan,nan,nan,nan,nan,nan,nan,nan
137420000,-0.0468889,0.00755509,-39.8395,0.0,nan,nan,nan,nan,nan,nan,nan,nan,nan,nan,nan,nan,nan
137608000,-0.0468889,0.00755509,-39.8395,0.0,nan,nan,nan,nan,nan,nan,nan,nan,nan,nan,nan,nan,nan
137796000,-0.0468889,0.00755509,-39.8395,0.0,nan,nan,nan,nan,nan,nan,nan,nan,nan,nan,nan,nan,nan
137980000,-0.0468889,0.00755509,-39.8395,0.0,nan,nan,nan,nan,nan,nan,nan,nan,nan,nan,nan,nan,nan
138168000,-0.0468889,0.00755509,-39.8395,0.0,nan,nan,nan,nan,nan,nan,nan,nan,nan,nan,nan,nan,nan
138356000,-0.0468889,0.00755509,-39.8395,0.0,nan,nan,nan,nan,nan,nan,nan,nan,nan,nan,nan,nan,nan
138540000,-0.0468889,0.00755509,-39.8395,0.0,nan,nan,nan,nan,nan,nan,nan,nan,nan,nan,nan,nan,nan
138728000,-0.0468889,0.00755509,-39.8395,0.0,nan,nan,nan,nan,nan,nan,nan,nan,nan,nan,nan,nan,nan
138916000,-0.0468889,0.00755509,-39.8395,0.0,nan,nan,nan,nan,nan,nan,nan,nan,nan,nan,nan,nan,nan
139100000,-0.0468889,0.00755509,-39.8395,0.0,nan,nan,nan,nan,nan,nan,nan,nan,nan,nan,nan,nan,nan
139288000,-0.0468889,0.00755509,-39.8395,0.0,nan,nan,nan,nan,nan,nan,nan,nan,nan,nan,nan,nan,nan
139476000,-0.0468889,0.00755509,-39.8395,0.0,nan,nan,nan,nan,nan,nan,nan,nan,nan,nan,nan,nan,nan
139660000,-0.0468889,0.00755509,-39.8395,0.0,nan,nan,nan,nan,nan,nan,nan,nan,nan,nan,nan,nan,nan
139848000,-0.0468889,0.00755509,-39.8395,0.0,nan,nan,nan,nan,nan,nan,nan,nan,nan,nan,nan,nan,nan
140036000,-0.0468889,0.00755509,-39.8395,0.0,nan,nan,nan,nan,nan,nan,nan,nan,nan,nan,nan,nan,nan
140220000,-0.0468889,0.00755509,-39.8395,0.0,nan,nan,nan,nan,nan,nan,nan,nan,nan,nan,nan,nan,nan
140408000,nan,nan,nan,nan,0.0,-0.00129517,6.80312e-05,-0.999999,nan,nan,nan,nan,nan,nan,nan,nan,nan
140596000,nan,nan,nan,nan,0.0,-0.0012952,6.74627e-05,-0.999999,nan,nan,nan,nan,nan,nan,nan,nan,nan
140780000,nan,nan,nan,nan,0.0,-0.00129521,6.74426e-05,-0.999999,nan,nan,nan,nan,nan,nan,nan,nan,nan
140968000,nan,nan,nan,nan,0.0,-0.00129519,6.77256e-05,-0.999999,nan,nan,nan,nan,nan,nan,nan,nan,nan
141156000,nan,nan,nan,nan,0.0,-0.0012952,6.7546e-05,-0.999999,nan,nan,nan,nan,nan,nan,nan,nan,nan
141344000,nan,nan,nan,nan,0.0,-0.00129518,6.80073e-05,-0.999999,nan,nan,nan,nan,nan,nan,nan,nan,nan
141532000,nan,nan,nan,nan,0.0,-0.00129517,6.80395e-05,-0.999999,nan,nan,nan,nan,nan,nan,nan,nan,nan
141716000,nan,nan,nan,nan,0.0,-0.00129518,6.79817e-05,-0.999999,nan,nan,nan,nan,nan,nan,nan,nan,nan
141904000,nan,nan,nan,nan,0.0,-0.00129518,6.78396e-05,-0.999999,nan,nan,nan,nan,nan,nan,nan,nan,nan
142092000,nan,nan,nan,nan,0.0,-0.00129517,6.81295e-05,-0.999999,nan,nan,nan,nan,nan,nan,nan,nan,nan
142276000,nan,nan,nan,nan,0.0,-0.00129517,6.80456e-05,-0.999999,nan,nan,nan,nan,nan,nan,nan,nan,nan
142464000,nan,nan,nan,nan,0.0,-0.00129519,6.77362e-05,-0.999999,nan,nan,nan,nan,nan,nan,nan,nan,nan
142652000,nan,nan,nan,nan,0.0,-0.00129518,6.78802e-05,-0.999999,nan,nan,nan,nan,nan,nan,nan,nan,nan
142844000,nan,nan,nan,nan,0.0,-0.00129518,6.78743e-05,-0.999999,nan,nan,nan,nan,nan,nan,nan,nan,nan
143028000,nan,nan,nan,nan,0.0,-0.0012952,6.75701e-05,-0.999999,nan,nan,nan,nan,nan,nan,nan,nan,nan
143216000,nan,nan,nan,nan,0.0,-0.0012952,6.76348e-05,-0.999999,nan,nan,nan,nan,nan,nan,nan,nan,nan
143404000,nan,nan,nan,nan,0.0,-0.00129521,6.74094e-05,-0.999999,nan,nan,nan,nan,nan,nan,nan,nan,nan
143592000,nan,nan,nan,nan,0.0,-0.00129519,6.77336e-05,-0.999999,nan,nan,nan,nan,nan,nan,nan,nan,nan
143780000,nan,nan,nan,nan,0.0,-0.00129518,6.79751e-05,-0.999999,nan,nan,nan,nan,nan,nan,nan,nan,nan
143964000,nan,nan,nan,nan,0.0,-0.00129518,6.79666e-05,-0.999999,nan,nan,nan,nan,nan,nan,nan,nan,nan
144152000,nan,nan,nan,nan,0.0,-0.00129518,6.7981e-05,-0.999999,nan,nan,nan,nan,nan,nan,nan,nan,nan
144340000,nan,nan,nan,nan,0.0,-0.0012952,6.75856e-05,-0.999999,nan,nan,nan,nan,nan,nan,nan,nan,nan
144524000,nan,nan,nan,nan,0.0,-0.00129523,6.69883e-05,-0.999999,nan,nan,nan,nan,nan,nan,nan,nan,nan
144712000,nan,nan,nan,nan,0.0,-0.00129523,6.70007e-05,-0.999999,nan,nan,nan,nan,nan,nan,nan,nan,nan
144900000,nan,nan,nan,nan,0.0,-0.00129524,6.68241e-05,-0.999999,nan,nan,nan,nan,nan,nan,nan,nan,nan
145084000,nan,nan,nan,nan,0.0,-0.0012952,6.75606e-05,-0.999999,nan,nan,nan,nan,nan,nan,nan,nan,nan
145272000,nan,nan,nan,nan,0.0,-0.00129523,6.69492e-05,-0.999999,nan,nan,nan,nan,nan,nan,nan,nan,nan
145460000,nan,nan,nan,nan,0.0,-0.00129522,6.70794e-05,-0.999999,nan,nan,nan,nan,nan,nan,nan,nan,nan
145644000,nan,nan,nan,nan,0.0,-0.00129526,6.63768e-05,-0.999999,nan,nan,nan,nan,nan,nan,nan,nan,nan
145836000,nan,nan,nan,nan,0.0,-0.00129527,6.62289e-05,-0.999999,nan,nan,nan,nan,nan,nan,nan,nan,nan
146020000,nan,nan,nan,nan,0.0,-0.00129523,6.68881e-05,-0.999999,nan,nan,nan,nan,nan,nan,nan,nan,nan
146212000,nan,nan,nan,nan,0.0,-0.00129522,6.71641e-05,-0.999999,nan,nan,nan,nan,nan,nan,nan,nan,nan
146396000,nan,nan,nan,nan,0.0,-0.00129522,6.72408e-05,-0.999999,nan,nan,nan,nan,nan,nan,nan,nan,nan
146584000,nan,nan,nan,nan,0.0,-0.00129523,6.69074e-05,-0.999999,nan,nan,nan,nan,nan,nan,nan,nan,nan
146772000,nan,nan,nan,nan,0.0,-0.00129522,6.70912e-05,-0.999999,nan,nan,nan,nan,nan,nan,nan,nan,nan
146960000,nan,nan,nan,nan,0.0,-0.00129524,6.67774e-05,-0.999999,nan,nan,nan,nan,nan,nan,nan,nan,nan
147148000,nan,nan,nan,nan,0.0,-0.00129524,6.66921e-05,-0.999999,nan,nan,nan,nan,nan,nan,nan,nan,nan
147332000,nan,nan,nan,nan,0.0,-0.00129525,6.66011e-05,-0.999999,nan,nan,nan,nan,nan,nan,nan,nan,nan
147520000,nan,nan,nan,nan,0.0,-0.00129525,6.66512e-05,-0.999999,nan,nan,nan,nan,nan,nan,nan,nan,nan
147708000,nan,nan,nan,nan,0.0,-0.00129527,6.62836e-05,-0.999999,nan,nan,nan,nan,nan,nan,nan,nan,nan
147892000,nan,nan,nan,nan,0.0,-0.00129523,6.70185e-05,-0.999999,nan,nan,nan,nan,nan,nan,nan,nan,nan
148080000,nan,nan,nan,nan,0.0,-0.00129522,6.71382e-05,-0.999999,nan,nan,nan,nan,nan,nan,nan,nan,nan
148268000,nan,nan,nan,nan,0.0,-0.00129523,6.70044e-05,-0.999999,nan,nan,nan,nan,nan,nan,nan,nan,nan
148456000,nan,nan,nan,nan,0.0,-0.00129524,6.67452e-05,-0.999999,nan,nan,nan,nan,nan,nan,nan,nan,nan
148644000,nan,nan,nan,nan,0.0,-0.00129521,6.73748e-05,-0.999999,nan,nan,nan,nan,nan,nan,nan,nan,nan
148828000,nan,nan,nan,nan,0.0,-0.00129523,6.69819e-05,-0.999999,nan,nan,nan,nan,nan,nan,nan,nan,nan
149016000,nan,nan,nan,nan,0.0,-0.00129525,6.66791e-05,-0.999999,nan,nan,nan,nan,nan,nan,nan,nan,nan
149204000,nan,nan,nan,nan,0.0,-0.00129526,6.64406e-05,-0.999999,nan,nan,nan,nan,nan,nan,nan,nan,nan
149388000,nan,nan,nan,nan,0.0,-0.00129524,6.67357e-05,-0.999999,nan,nan,nan,nan,nan,nan,nan,nan,nan
149576000,nan,nan,nan,nan,0.0,-0.00129524,6.66836e-05,-0.999999,nan,nan,nan,nan,nan,nan,nan,nan,nan
149764000,nan,nan,nan,nan,0.0,-0.00129526,6.63841e-05,-0.999999,nan,nan,nan,nan,nan,nan,nan,nan,nan
149948000,nan,nan,nan,nan,0.0,-0.00129525,6.66619e-05,-0.999999,nan,nan,nan,nan,nan,nan,nan,nan,nan
150136000,nan,nan,nan,nan,0.0,-0.00129523,6.70021e-05,-0.999999,nan,nan,nan,nan,nan,nan,nan,nan,nan
150324000,nan,nan,nan,nan,0.0,-0.00129525,6.66162e-05,-0.999999,nan,nan,nan,nan,nan,nan,nan,nan,nan
150512000,nan,nan,nan,nan,0.0,-0.00129524,6.67698e-05,-0.999999,nan,nan,nan,nan,nan,nan,nan,nan,nan
150700000,nan,nan,nan,nan,0.0,-0.00129525,6.6613e-05,-0.999999,nan,nan,nan,nan,nan,nan,nan,nan,nan
150884000,nan,nan,nan,nan,0.0,-0.00129523,6.6894e-05,-0.999999,nan,nan,nan,nan,nan,nan,nan,nan,nan
151076000,nan,nan,nan,nan,0.0,-0.00129524,6.6719e-05,-0.999999,nan,nan,nan,nan,nan,nan,nan,nan,nan
151260000,nan,nan,nan,nan,0.0,-0.00129523,6.69934e-05,-0.999999,nan,nan,nan,nan,nan,nan,nan,nan,nan
151452000,nan,nan,nan,nan,0.0,-0.00129521,6.73804e-05,-0.999999,nan,nan,nan,nan,nan,nan,nan,nan,nan
151636000,nan,nan,nan,nan,0.0,-0.00129521,6.73262e-05,-0.999999,nan,nan,nan,nan,nan,nan,nan,nan,nan
151824000,nan,nan,nan,nan,0.0,-0.00129524,6.66941e-05,-0.999999,nan,nan,nan,nan,nan,nan,nan,nan,nan
152012000,nan,nan,nan,nan,0.0,-0.00129526,6.64088e-05,-0.999999,nan,nan,nan,nan,nan,nan,nan,nan,nan
152196000,nan,nan,nan,nan,0.0,-0.00129522,6.71915e-05,-0.999999,nan,nan,nan,nan,nan,nan,nan,nan,nan
152384000,nan,nan,nan,nan,0.0,-0.00129524,6.67568e-05,-0.999999,nan,nan,nan,nan,nan,nan,nan,nan,nan
152572000,nan,nan,nan,nan,0.0,-0.00129527,6.62866e-05,-0.999999,nan,nan,nan,nan,nan,nan,nan,nan,nan
152756000,nan,nan,nan,nan,0.0,-0.00129525,6.65715e-05,-0.999999,nan,nan,nan,nan,nan,nan,nan,nan,nan
152944000,nan,nan,nan,nan,0.0,-0.00129525,6.65597e-05,-0.999999,nan,nan,nan,nan,nan,nan,nan,nan,nan
153132000,nan,nan,nan,nan,0.0,-0.00129524,6.67083e-05,-0.999999,nan,nan,nan,nan,nan,nan,nan,nan,nan
153320000,nan,nan,nan,nan,0.0,-0.00129526,6.64337e-05,-0.999999,nan,nan,nan,nan,nan,nan,nan,nan,nan
153508000,nan,nan,nan,nan,0.0,-0.00129525,6.65978e-05,-0.999999,nan,nan,nan,nan,nan,nan,nan,nan,nan
153692000,nan,nan,nan,nan,0.0,-0.00129521,6.72962e-05,-0.999999,nan,nan,nan,nan,nan,nan,nan,nan,nan
153880000,nan,nan,nan,nan,0.0,-0.00129521,6.73702e-05,-0.999999,nan,nan,nan,nan,nan,nan,nan,nan,nan
154068000,nan,nan,nan,nan,0.0,-0.00129523,6.70662e-05,-0.999999,nan,nan,nan,nan,nan,nan,nan,nan,nan
154252000,nan,nan,nan,nan,0.0,-0.00129523,6.70363e-05,-0.999999,nan,nan,nan,nan,nan,nan,nan,nan,nan
154440000,nan,nan,nan,nan,0.0,-0.00129522,6.71286e-05,-0.999999,nan,nan,nan,nan,nan,nan,nan,nan,nan
154628000,nan,nan,nan,nan,0.0,-0.00129521,6.73438e-05,-0.999999,nan,nan,nan,nan,nan,nan,nan,nan,nan
154816000,nan,nan,nan,nan,0.0,-0.00129519,6.76897e-05,-0.999999,nan,nan,nan,nan,nan,nan,nan,nan,nan
155004000,nan,nan,nan,nan,0.0,-0.00129519,6.77056e-05,-0.999999,nan,nan,nan,nan,nan,nan,nan,nan,nan
155188000,nan,nan,nan,nan,0.0,-0.0012952,6.75193e-05,-0.999999,nan,nan,nan,nan,nan,nan,nan,nan,nan
155376000,nan,nan,nan,nan,0.0,-0.00129521,6.73712e-05,-0.999999,nan,nan,nan,nan,nan,nan,nan,nan,nan
155564000,nan,nan,nan,nan,0.0,-0.0012952,6.75422e-05,-0.999999,nan,nan,nan,nan,nan,nan,nan,nan,nan
155752000,nan,nan,nan,nan,0.0,-0.00129517,6.81345e-05,-0.999999,nan,nan,nan,nan,nan,nan,nan,nan,nan
155940000,nan,nan,nan,nan,0.0,-0.00129519,6.77079e-05,-0.999999,nan,nan,nan,nan,nan,nan,nan,nan,nan
156128000,nan,nan,nan,nan,0.0,-0.00129517,6.80613e-05,-0.999999,nan,nan,nan,nan,nan,nan,nan,nan,nan
156316000,nan,nan,nan,nan,0.0,-0.00129518,6.7898e-05,-0.999999,nan,nan,nan,nan,nan,nan,nan,nan,nan
156500000,nan,nan,nan,nan,0.0,-0.00129516,6.82307e-05,-0.999999,nan,nan,nan,nan,nan,nan,nan,nan,nan
156688000,nan,nan,nan,nan,0.0,-0.0012952,6.76094e-05,-0.999999,nan,nan,nan,nan,nan,nan,nan,nan,nan
156876000,nan,nan,nan,nan,0.0,-0.00129522,6.71953e-05,-0.999999,nan,nan,nan,nan,nan,nan,nan,nan,nan
157064000,nan,nan,nan,nan,0.0,-0.00129519,6.77505e-05,-0.999999,nan,nan,nan,nan,nan,nan,nan,nan,nan
157252000,nan,nan,nan,nan,0.0,-0.00129519,6.76486e-05,-0.999999,nan,nan,nan,nan,nan,nan,nan,nan,nan
157436000,nan,nan,nan,nan,0.0,-0.00129516,6.83602e-05,-0.999999,nan,nan,nan,nan,nan,nan,nan,nan,nan
157624000,nan,nan,nan,nan,0.0,-0.00129517,6.80717e-05,-0.999999,nan,nan,nan,nan,nan,nan,nan,nan,nan
157812000,nan,nan,nan,nan,0.0,-0.00129518,6.78816e-05,-0.999999,nan,nan,nan,nan,nan,nan,nan,nan,nan
158000000,nan,nan,nan,nan,0.0,-0.00129517,6.80925e-05,-0.999999,nan,nan,nan,nan,nan,nan,nan,nan,nan
158188000,nan,nan,nan,nan,0.0,-0.00129516,6.83551e-05,-0.999999,nan,nan,nan,nan,nan,nan,nan,nan,nan
158376000,nan,nan,nan,nan,0.0,-0.00129514,6.86216e-05,-0.999999,nan,nan,nan,nan,nan,nan,nan,nan,nan
158564000,nan,nan,nan,nan,0.0,-0.00129511,6.9328e-05,-0.999999,nan,nan,nan,nan,nan,nan,nan,nan,nan
158748000,nan,nan,nan,nan,0.0,-0.00129512,6.90985e-05,-0.999999,nan,nan,nan,nan,nan,nan,nan,nan,nan
158936000,nan,nan,nan,nan,0.0,-0.0012951,6.93609e-05,-0.999999,nan,nan,nan,nan,nan,nan,nan,nan,nan
159124000,nan,nan,nan,nan,0.0,-0.00129511,6.93425e-05,-0.999999,nan,nan,nan,nan,nan,nan,nan,nan,nan
159312000,nan,nan,nan,nan,0.0,-0.00129512,6.90505e-05,-0.999999,nan,nan,nan,nan,nan,nan,nan,nan,nan
159500000,nan,nan,nan,nan,0.0,-0.0012951,6.94361e-05,-0.999999,nan,nan,nan,nan,nan,nan,nan,nan,nan
159684000,nan,nan,nan,nan,0.0,-0.00129509,6.95436e-05,-0.999999,nan,nan,nan,nan,nan,nan,nan,nan,nan
159872000,nan,nan,nan,nan,0.0,-0.00129509,6.9629e-05,-0.999999,nan,nan,nan,nan,nan,nan,nan,nan,nan
160060000,nan,nan,nan,nan,0.0,-0.00129512,6.89933e-05,-0.999999,nan,nan,nan,nan,nan,nan,nan,nan,nan
160244000,nan,nan,nan,nan,0.0,-0.00129511,6.91783e-05,-0.999999,nan,nan,nan,nan,nan,nan,nan,nan,nan
160432000,nan,nan,nan,nan,0.0,-0.00129509,6.9688e-05,-0.999999,nan,nan,nan,nan,nan,nan,nan,nan,nan
160620000,nan,nan,nan,nan,0.0,-0.00129509,6.97159e-05,-0.999999,nan,nan,nan,nan,nan,nan,nan,nan,nan
160804000,nan,nan,nan,nan,0.0,-0.00129508,6.98301e-05,-0.999999,nan,nan,nan,nan,nan,nan,nan,nan,nan
160992000,nan,nan,nan,nan,0.0,-0.00129509,6.96705e-05,-0.999999,nan,nan,nan,nan,nan,nan,nan,nan,nan
161180000,nan,nan,nan,nan,0.0,-0.00129511,6.93311e-05,-0.999999,nan,nan,nan,nan,nan,nan,nan,nan,nan
161368000,nan,nan,nan,nan,0.0,-0.0012951,6.95286e-05,-0.999999,nan,nan,nan,nan,nan,nan,nan,nan,nan
161556000,nan,nan,nan,nan,0.0,-0.00129507,7.00264e-05,-0.999999,nan,nan,nan,nan,nan,nan,nan,nan,nan
161740000,nan,nan,nan,nan,0.0,-0.00129508,6.97232e-05,-0.999999,nan,nan,nan,nan,nan,nan,nan,nan,nan
161928000,nan,nan,nan,nan,0.0,-0.00129507,6.99311e-05,-0.999999,nan,nan,nan,nan,nan,nan,nan,nan,nan
162116000,nan,nan,nan,nan,0.0,-0.00129506,7.01875e-05,-0.999999,nan,nan,nan,nan,nan,nan,nan,nan,nan
162300000,nan,nan,nan,nan,0.0,-0.00129505,7.03083e-05,-0.999999,nan,nan,nan,nan,nan,nan,nan,nan,nan
162488000,nan,nan,nan,nan,0.0,-0.00129505,7.0436e-05,-0.999999,nan,nan,nan,nan,nan,nan,nan,nan,nan
162676000,nan,nan,nan,nan,0.0,-0.00129504,7.0571e-05,-0.999999,nan,nan,nan,nan,nan,nan,nan,nan,nan
162860000,nan,nan,nan,nan,0.0,-0.00129502,7.09319e-05,-0.999999,nan,nan,nan,nan,nan,nan,nan,nan,nan
163048000,nan,nan,nan,nan,0.0,-0.00129504,7.05859e-05,-0.999999,nan,nan,nan,nan,nan,nan,nan,nan,nan
163236000,nan,nan,nan,nan,0.0,-0.00129504,7.05283e-05,-0.999999,nan,nan,nan,nan,nan,nan,nan,nan,nan
163424000,nan,nan,nan,nan,0.0,-0.00129504,7.0554e-05,-0.999999,nan,nan,nan,nan,nan,nan,nan,nan,nan
163612000,nan,nan,nan,nan,0.0,-0.001295,7.12069e-05,-0.999999,nan,nan,nan,nan,nan,nan,nan,nan,nan
163796000,nan,nan,nan,nan,0.0,-0.00129499,7.14069e-05,-0.999999,nan,nan,nan,nan,nan,nan,nan,nan,nan
163988000,nan,nan,nan,nan,0.0,-0.00129501,7.11827e-05,-0.999999,nan,nan,nan,nan,nan,nan,nan,nan,nan
164176000,nan,nan,nan,nan,0.0,-0.00129501,7.10686e-05,-0.999999,nan,nan,nan,nan,nan,nan,nan,nan,nan
164364000,nan,nan,nan,nan,0.0,-0.00129502,7.09303e-05,-0.999999,nan,nan,nan,nan,nan,nan,nan,nan,nan
164548000,nan,nan,nan,nan,0.0,-0.00129499,7.14501e-05,-0.999999,nan,nan,nan,nan,nan,nan,nan,nan,nan
164736000,nan,nan,nan,nan,0.0,-0.001295,7.12091e-05,-0.999999,nan,nan,nan,nan,nan,nan,nan,nan,nan
164924000,nan,nan,nan,nan,0.0,-0.00129499,7.15343e-05,-0.999999,nan,nan,nan,nan,nan,nan,nan,nan,nan
165108000,nan,nan,nan,nan,0.0,-0.00129495,7.2218e-05,-0.999999,nan,nan,nan,nan,nan,nan,nan,nan,nan
165296000,nan,nan,nan,nan,0.0,-0.00129497,7.17794e-05,-0.999999,nan,nan,nan,nan,nan,nan,nan,nan,nan
165484000,nan,nan,nan,nan,0.0,-0.00129498,7.1622e-05,-0.999999,nan,nan,nan,nan,nan,nan,nan,nan,nan
165668000,nan,nan,nan,nan,0.0,-0.00129495,7.21271e-05,-0.999999,nan,nan,nan,nan,nan,nan,nan,nan,nan
165856000,nan,nan,nan,nan,0.0,-0.00129494,7.2411e-05,-0.999999,nan,nan,nan,nan,nan,nan,nan,nan,nan
166044000,nan,nan,nan,nan,0.0,-0.00129493,7.26249e-05,-0.999999,nan,nan,nan,nan,nan,nan,nan,nan,nan
166228000,nan,nan,nan,nan,0.0,-0.00129494,7.24248e-05,-0.999999,nan,nan,nan,nan,nan,nan,nan,nan,nan
166416000,nan,nan,nan,nan,0.0,-0.00129495,7.22409e-05,-0.999999,nan,nan,nan,nan,nan,nan,nan,nan,nan
166604000,nan,nan,nan,nan,0.0,-0.00129493,7.24529e-05,-0.999999,nan,nan,nan,nan,nan,nan,nan,nan,nan
166788000,nan,nan,nan,nan,0.0,-0.00129494,7.24222e-05,-0.999999,nan,nan,nan,nan,nan,nan,nan,nan,nan
166976000,nan,nan,nan,nan,0.0,-0.00129493,7.25144e-05,-0.999999,nan,nan,nan,nan,nan,nan,nan,nan,nan
167164000,nan,nan,nan,nan,0.0,-0.00129495,7.21207e-05,-0.999999,nan,nan,nan,nan,nan,nan,nan,nan,nan
167348000,nan,nan,nan,nan,0.0,-0.00129492,7.2689e-05,-0.999999,nan,nan,nan,nan,nan,nan,nan,nan,nan
167536000,nan,nan,nan,nan,0.0,-0.00129493,7.25829e-05,-0.999999,nan,nan,nan,nan,nan,nan,nan,nan,nan
167724000,nan,nan,nan,nan,0.0,-0.00129492,7.26887e-05,-0.999999,nan,nan,nan,nan,nan,nan,nan,nan,nan
167908000,nan,nan,nan,nan,0.0,-0.00129492,7.26885e-05,-0.999999,nan,nan,nan,nan,nan,nan,nan,nan,nan
168096000,nan,nan,nan,nan,0.0,-0.0012949,7.30352e-05,-0.999999,nan,nan,nan,nan,nan,nan,nan,nan,nan
168284000,nan,nan,nan,nan,0.0,-0.00129493,7.25713e-05,-0.999999,nan,nan,nan,nan,nan,nan,nan,nan,nan
168476000,nan,nan,nan,nan,0.0,-0.00129491,7.28497e-05,-0.999999,nan,nan,nan,nan,nan,nan,nan,nan,nan
168660000,nan,nan,nan,nan,0.0,-0.00129491,7.28664e-05,-0.999999,nan,nan,nan,nan,nan,nan,nan,nan,nan
168848000,nan,nan,nan,nan,0.0,-0.00129491,7.29512e-05,-0.999999,nan,nan,nan,nan,nan,nan,nan,nan,nan
169036000,nan,nan,nan,nan,0.0,-0.00129492,7.27727e-05,-0.999999,nan,nan,nan,nan,nan,nan,nan,nan,nan
169220000,nan,nan,nan,0.0,nan,0.0,0.0,0.0,nan,nan,nan,nan,nan,nan,nan,nan,nan
169408000,nan,nan,nan,0.0,nan,0.0,0.0,0.0,nan,nan,nan,nan,nan,nan,nan,nan,nan
169596000,nan,nan,nan,0.0,nan,0.0,0.0,0.0,nan,nan,nan,nan,nan,nan,nan,nan,nan
169780000,nan,nan,nan,0.0,nan,0.0,0.0,0.0,nan,nan,nan,nan,nan,nan,nan,nan,nan
169968000,nan,nan,nan,0.0,nan,0.0,0.0,0.0,nan,nan,nan,nan,nan,nan,nan,nan,nan
170156000,nan,nan,nan,0.0,nan,0.0,0.0,0.0,nan,nan,nan,nan,nan,nan,nan,nan,nan
170340000,nan,nan,nan,0.0,nan,0.0,0.0,0.0,nan,nan,nan,nan,nan,nan,nan,nan,nan
170528000,nan,nan,nan,0.0,nan,0.0,0.0,0.0,nan,nan,nan,nan,nan,nan,nan,nan,nan
170716000,nan,nan,nan,0.0,nan,0.0,0.0,0.0,nan,nan,nan,nan,nan,nan,nan,nan,nan
170900000,nan,nan,nan,0.0,nan,0.0,0.0,0.0,nan,nan,nan,nan,nan,nan,nan,nan,nan
171088000,nan,nan,nan,0.0,nan,0.0,0.0,0.0,nan,nan,nan,nan,nan,nan,nan,nan,nan
171276000,nan,nan,nan,nan,0.0,0.000411154,0.998835,0.0482456,nan,nan,nan,nan,nan,nan,nan,nan,nan
171460000,nan,nan,nan,nan,0.0,0.000190191,0.998444,0.0557616,nan,nan,nan,nan,nan,nan,nan,nan,nan
171648000,nan,nan,nan,nan,0.0,0.000679023,0.996346,0.0854106,nan,nan,nan,nan,nan,nan,nan,nan,nan
171836000,nan,nan,nan,nan,0.0,0.000879448,0.992992,0.118175,nan,nan,nan,nan,nan,nan,nan,nan,nan
172024000,nan,nan,nan,nan,0.0,0.000344159,0.987317,0.158761,nan,nan,nan,nan,nan,nan,nan,nan,nan
172212000,nan,nan,nan,nan,0.0,0.000279264,0.979571,0.201099,nan,nan,nan,nan,nan,nan,nan,nan,nan
172396000,nan,nan,nan,nan,0.0,0.000472283,0.971255,0.238041,nan,nan,nan,nan,nan,nan,nan,nan,nan
172584000,nan,nan,nan,nan,0.0,0.00040722,0.958976,0.283488,nan,nan,nan,nan,nan,nan,nan,nan,nan
172772000,nan,nan,nan,nan,0.0,0.000338763,0.946629,0.322324,nan,nan,nan,nan,nan,nan,nan,nan,nan
172956000,nan,nan,nan,nan,0.0,0.000595499,0.930159,0.367156,nan,nan,nan,nan,nan,nan,nan,nan,nan
173144000,nan,nan,nan,nan,0.0,0.000637296,0.909749,0.415158,nan,nan,nan,nan,nan,nan,nan,nan,nan
173332000,nan,nan,nan,nan,0.0,0.0007812,0.89239,0.451265,nan,nan,nan,nan,nan,nan,nan,nan,nan
173516000,nan,nan,nan,nan,0.0,0.000353208,0.86746,0.497506,nan,nan,nan,nan,nan,nan,nan,nan,nan
173704000,nan,nan,nan,nan,0.0,0.000470162,0.846419,0.532517,nan,nan,nan,nan,nan,nan,nan,nan,nan
173892000,nan,nan,nan,nan,0.0,0.000593643,0.818078,0.575108,nan,nan,nan,nan,nan,nan,nan,nan,nan
174076000,nan,nan,nan,nan,0.0,0.000183279,0.787276,0.616601,nan,nan,nan,nan,nan,nan,nan,nan,nan
174264000,nan,nan,nan,nan,0.0,0.000101673,0.759495,0.650513,nan,nan,nan,nan,nan,nan,nan,nan,nan
174452000,nan,nan,nan,nan,0.0,0.000470523,0.725033,0.688714,nan,nan,nan,nan,nan,nan,nan,nan,nan
