timestamp,lat,lon,alt,alt_ellipsoid,delta_alt,vel_n,vel_e,vel_d,yaw,eph,epv,terrain_alt,lat_lon_reset_counter,alt_reset_counter,terrain_alt_valid,dead_reckoning
15884000,47.3977419837,8.54559397744,488.017,-0.00335693,-0.0,-0.00780073,-0.000784036,0.000979433,0.00707259,2.30108,2.40134,0.0,2,0,0,0
16084000,47.3977419694,8.54559398119,488.016,-0.00476074,-0.0,-0.0118276,-0.00231426,0.000946927,0.00732595,2.30017,2.40146,0.0,2,0,0,0
16276000,47.3977419474,8.54559397525,488.016,-0.0043335,-0.0,-0.0128493,-0.00229813,0.000770728,0.00728722,2.3005,2.40159,0.0,2,0,0,0
16468000,47.3977419299,8.54559397238,488.018,-0.00305176,-0.0,-0.0112447,-0.0016084,0.000985597,0.00714456,2.29994,2.40158,0.0,2,0,0,0
16660000,47.3977419225,8.5455939826,488.019,-0.00125122,-0.0,-0.0127418,-0.000725101,-0.000876437,0.00666519,2.29954,2.40154,0.0,2,0,0,0
16852000,47.3977419212,8.54559399721,488.019,-0.00134277,-0.0,-0.0129025,-0.00216408,-0.00172355,0.00628788,2.29924,2.40163,0.0,2,0,0,0
17044000,47.3977419104,8.54559400725,488.019,-0.0012207,-0.0,-0.0170292,-0.00421867,-0.00206074,0.0061932,2.29902,2.40154,0.0,2,0,0,0
17236000,47.3977418899,8.54559399949,488.02,-0.000762939,-0.0,-0.0200356,-0.00662266,-0.00147692,0.00594528,2.29885,2.40142,0.0,2,0,0,0
17428000,47.397741867,8.54559398958,488.019,-0.00158691,-0.0,-0.0190283,-0.00751944,-0.00100836,0.00606434,2.29871,2.4013,0.0,2,0,0,0
17620000,47.3977418387,8.54559398445,488.018,-0.00274658,-0.0,-0.0174965,-0.00904877,-0.000329698,0.00638449,2.29861,2.40131,0.0,2,0,0,0
17812000,47.3977418287,8.5455939772,488.018,-0.00265503,-0.0,-0.0143245,-0.0116514,-0.00280881,0.00610949,2.29853,2.40116,0.0,2,0,0,0
18004000,47.397741826,8.5455939528,488.018,-0.00198364,-0.0,-0.0151243,-0.0116815,-0.00251016,0.00590983,2.29846,2.401,0.0,2,0,0,0
18196000,47.3977418166,8.54559393279,488.019,-0.00131226,-0.0,-0.0157233,-0.0120563,-0.00275419,0.00557815,2.29841,2.40085,0.0,2,0,0,0
18388000,47.3977417976,8.54559390586,488.02,-0.000396729,-0.0,-0.0170242,-0.0125855,-0.00304855,0.00553984,2.29836,2.40084,0.0,2,0,0,0
18580000,47.3977417845,8.54559387915,488.021,0.000427246,-0.0,-0.0183106,-0.0168805,-0.00393508,0.00603925,2.29833,2.40068,0.0,2,0,0,0
18772000,47.3977417783,8.5455938453,488.022,0.00164795,-0.0,-0.0163565,-0.0208699,-0.00177663,0.00615845,2.29919,2.40063,0.0,2,0,0,0
18964000,47.3977417726,8.54559382268,488.021,0.000396729,-0.0,-0.0158539,-0.0226117,0.000684665,0.00589242,2.29916,2.40062,0.0,2,0,0,0
19156000,47.3977417631,8.54559379556,488.02,-0.000671387,-0.0,-0.0159089,-0.0230687,0.00106257,0.00582768,2.29913,2.40048,0.0,2,0,0,0
19348000,47.3977417632,8.54559378175,488.019,-0.000915527,-0.0,-0.0136051,-0.0230736,-1.16933e-06,0.00594582,2.29909,2.40035,0.0,2,0,0,0
19540000,47.3977417664,8.54559378176,488.02,-0.000335693,-0.0,-0.015288,-0.020122,0.00173479,0.00581338,2.29906,2.40024,0.0,2,0,0,0
19732000,47.3977417697,8.5455937885,488.02,-0.000793457,-0.0,-0.0157164,-0.0169615,0.000438993,0.00537541,2.29901,2.40026,0.0,2,0,0,0
19924000,47.397741772,8.54559380135,488.019,-0.00140381,-0.0,-0.01664,-0.0165098,0.00065353,0.00541972,2.29897,2.40016,0.0,2,0,0,0
20116000,47.3977417788,8.54559380538,488.019,-0.00170898,-0.0,-0.0168254,-0.0167782,-0.0016433,0.00553894,2.29891,2.40008,0.0,2,0,0,0
20308000,47.3977417859,8.54559380091,488.019,-0.00167847,-0.0,-0.0176137,-0.01297,-0.00169795,0.00563786,2.29885,2.40001,0.0,2,0,0,0
20500000,47.3977417887,8.54559379608,488.017,-0.00274658,-0.0,-0.0162213,-0.0108898,-0.00046466,0.00554263,2.29879,2.40006,0.0,2,0,0,0
20692000,47.3977417889,8.54559378487,488.016,-0.00378418,-0.0,-0.0168944,-0.0109622,-0.000266391,0.00570524,2.29872,2.40001,0.0,2,0,0,0
20884000,47.3977417947,8.54559378365,488.016,-0.00457764,-0.0,-0.0163077,-0.0113406,0.000285023,0.00581887,2.29865,2.39996,0.0,2,0,0,0
21076000,47.3977418062,8.54559378878,488.016,-0.0043335,-0.0,-0.0155821,-0.00981969,0.00194407,0.00571722,2.29858,2.40004,0.0,2,0,0,0
21268000,47.3977418114,8.54559379812,488.016,-0.00427246,-0.0,-0.0133375,-0.0102444,0.00221481,0.00598334,2.29945,2.40009,0.0,2,0,0,0
21460000,47.397741821,8.54559380188,488.017,-0.00256348,-0.0,-0.0101201,-0.00932025,6.99236e-05,0.00572528,2.29936,2.40006,0.0,2,0,0,0
21652000,47.3977418414,8.5455938042,488.02,-0.000335693,-0.0,-0.00862717,-0.00477853,-0.00124364,0.00549516,2.29927,2.40004,0.0,2,0,0,0
21844000,47.3977418609,8.54559382419,488.021,0.00137329,-0.0,-0.00641892,-0.000625253,-0.0033498,0.00585516,2.29917,2.40002,0.0,2,0,0,0
22036000,47.3977418737,8.54559386067,488.022,0.00238037,-0.0,-0.0035754,0.00443344,-0.000626253,0.00583575,2.29908,2.40013,0.0,2,0,0,0
22228000,47.397741881,8.54559391319,488.022,0.0017395,-0.0,-0.00201834,0.00916245,0.00117501,0.00599904,2.29898,2.40011,0.0,2,0,0,0
22420000,47.3977418916,8.54559396779,488.021,0.0010376,-0.0,-0.00188028,0.0137182,0.00210625,0.00555863,2.29889,2.4001,0.0,2,0,0,0
22612000,47.3977419042,8.54559401014,488.021,0.000946045,-0.0,-0.00081207,0.0148991,0.00251261,0.00552971,2.29879,2.40021,0.0,2,0,0,0
22804000,47.3977419173,8.54559404901,488.021,0.00125122,-0.0,0.0045716,0.0163445,8.01661e-05,0.00561857,2.2987,2.40019,0.0,2,0,0,0
22996000,47.3977419385,8.54559407905,488.021,0.00119019,-0.0,0.00722552,0.0205989,0.00138348,0.00584312,2.29861,2.40018,0.0,2,0,0,0
23188000,47.3977419541,8.5455941118,488.02,0.000274658,-0.0,0.00864234,0.0229138,6.12234e-05,0.00582691,2.29852,2.40016,0.0,2,0,0,0
23380000,47.3977419631,8.54559413703,488.019,-0.000579834,-0.0,0.00806814,0.0229664,0.000263306,0.005996,2.29843,2.40027,0.0,2,0,0,0
23572000,47.3977419777,8.54559416397,488.019,-0.000640869,-0.0,0.00885327,0.025623,-0.000385054,0.00606536,2.29922,2.40035,0.0,2,0,0,0
23764000,47.3977419871,8.54559418534,488.019,-0.00131226,-0.0,0.00947276,0.0236843,-0.0023446,0.00649487,2.29912,2.40032,0.0,2,0,0,0
23956000,47.3977419934,8.54559417644,488.019,-0.00115967,-0.0,0.00950487,0.018719,-0.000431768,0.00684257,2.29903,2.4003,0.0,2,0,0,0
24148000,47.3977419982,8.54559415481,488.018,-0.00180054,-0.0,0.0096173,0.0148091,-0.00185792,0.00666961,2.29893,2.4004,0.0,2,0,0,0
24340000,47.3977419986,8.54559413194,488.017,-0.00247192,-0.0,0.00954826,0.0121084,-0.00119323,0.00635265,2.29884,2.40037,0.0,2,0,0,0
24532000,47.3977420076,8.54559411423,488.015,-0.00460815,-0.0,0.0114983,0.00986777,2.53211e-05,0.00660888,2.29875,2.40034,0.0,2,0,0,0
24724000,47.3977420093,8.54559409174,488.015,-0.00509644,-0.0,0.0113872,0.00878197,0.000760588,0.00657148,2.29866,2.40043,0.0,2,0,0,0
24916000,47.3977420243,8.54559408497,488.013,-0.00637817,-0.0,0.0145903,0.00747166,0.0020005,0.00633938,2.29858,2.4004,0.0,2,0,0,0
25108000,47.397742038,8.54559407774,488.011,-0.00869751,-0.0,0.014086,0.0081609,0.00291904,0.0060393,2.2985,2.40036,0.0,2,0,0,0
25300000,47.397742039,8.54559407565,488.009,-0.0106201,-0.0,0.0138805,0.00927428,0.00729481,0.00595245,2.29842,2.40032,0.0,2,0,0,0
25492000,47.397742029,8.54559408062,488.008,-0.0106506,-0.0,0.0139452,0.00865446,0.00817122,0.00614838,2.29834,2.40041,0.0,2,0,0,0
25684000,47.3977420242,8.5455940759,488.008,-0.0114136,-0.0,0.0127008,0.00686762,0.00868272,0.00624124,2.29826,2.40037,0.0,2,0,0,0
25876000,47.3977420263,8.54559406241,488.006,-0.0127869,-0.0,0.0117599,0.00600253,0.0104909,0.00612238,2.29818,2.40033,0.0,2,0,0,0
26068000,47.3977420336,8.54559404523,488.006,-0.0127258,-0.0,0.0102807,0.00442068,0.00990899,0.00662892,2.29893,2.40039,0.0,2,0,0,0
26260000,47.3977420367,8.54559401317,488.008,-0.00997925,-0.0,0.0080527,0.00443634,0.00923488,0.00675825,2.29885,2.40048,0.0,2,0,0,0
26460000,47.3977420337,8.54559398141,488.01,-0.00778198,-0.0,0.00740063,0.00433762,0.00915411,0.00722443,2.29884,2.40049,0.0,2,0,0,0
26652000,47.3977420232,8.54559394097,488.01,-0.00805664,-0.0,0.00427282,0.00116663,0.0106927,0.00778198,2.29876,2.40044,0.0,2,0,0,0
26852000,47.3977420142,8.54559390062,488.01,-0.0078125,-0.0,0.00231468,-0.00185874,0.0096598,0.00757046,2.29874,2.40045,0.0,2,0,0,0
27044000,47.3977420052,8.54559387103,488.011,-0.00637817,-0.0,0.000572404,-0.00538488,0.00674604,0.00780097,2.29867,2.40041,0.0,2,0,0,0
27244000,47.3977419995,8.54559386427,488.012,-0.00579834,-0.0,-0.000192139,-0.00652282,0.00682218,0.00802458,2.29866,2.40042,0.0,2,0,0,0
27436000,47.3977419941,8.54559385641,488.014,-0.00338745,-0.0,-0.00343247,-0.00778005,0.00546172,0.00826588,2.29858,2.40037,0.0,2,0,0,0
27628000,47.3977419805,8.54559385539,488.017,6.10352e-05,-0.0,-0.00576449,-0.00639543,0.00380169,0.00808304,2.29851,2.40033,0.0,2,0,0,0
27820000,47.3977419626,8.54559386721,488.021,0.00369263,-0.0,-0.00729771,-0.00836987,0.00117191,0.00743783,2.29844,2.40041,0.0,2,0,0,0
28012000,47.3977419516,8.54559387169,488.024,0.00656128,-0.0,-0.0084243,-0.00913203,-0.00201622,0.00746334,2.29836,2.40036,0.0,2,0,0,0
28204000,47.3977419434,8.5455938594,488.028,0.00997925,-0.0,-0.00988944,-0.010953,-0.00488263,0.00695249,2.29829,2.40032,0.0,2,0,0,0
28396000,47.3977419383,8.5455938438,488.027,0.009552,-0.0,-0.0098559,-0.0122082,-0.00426723,0.00690528,2.29823,2.4004,0.0,2,0,0,0
28596000,47.3977419325,8.54559384196,488.025,0.00701904,-0.0,-0.0123643,-0.0130724,-0.00332718,0.0068389,2.29822,2.40028,0.0,2,0,0,0
28788000,47.397741926,8.54559383407,488.024,0.00570679,-0.0,-0.0150018,-0.0170043,-0.00102934,0.00695128,2.29815,2.40037,0.0,2,0,0,0
28980000,47.3977419182,8.54559381525,488.023,0.00500488,-0.0,-0.0154889,-0.0171504,-0.000145445,0.00700693,2.29808,2.40032,0.0,2,0,0,0
29172000,47.397741906,8.54559380289,488.025,0.0062561,-0.0,-0.0208583,-0.017788,-0.00044847,0.00702022,2.29881,2.40037,0.0,2,0,0,0
29364000,47.3977418941,8.54559379802,488.027,0.00839233,-0.0,-0.0189237,-0.0181969,-0.0035881,0.00668476,2.29874,2.40045,0.0,2,0,0,0
29556000,47.3977418912,8.54559378636,488.029,0.0105591,-0.0,-0.0204365,-0.0172782,-0.00385578,0.0065475,2.29867,2.40041,0.0,2,0,0,0
29748000,47.3977418848,8.54559378315,488.031,0.0119324,-0.0,-0.0227025,-0.0174599,-0.00461688,0.0063464,2.29859,2.40036,0.0,2,0,0,0
29940000,47.397741879,8.54559378181,488.03,0.0105896,-0.0,-0.0223759,-0.016616,-0.0047953,0.00622714,2.29852,2.40044,0.0,2,0,0,0
30132000,47.3977418762,8.54559377936,488.026,0.00717163,-0.0,-0.0236275,-0.0167788,-0.00211389,0.00673082,2.29845,2.4004,0.0,2,0,0,0
30324000,47.3977418714,8.54559377323,488.024,0.0045166,-0.0,-0.0223574,-0.0153076,-0.00253797,0.00658927,2.29839,2.40035,0.0,2,0,0,0
30516000,47.3977418696,8.54559377788,488.019,0.0,-0.0,-0.0222858,-0.0132522,-0.000474603,0.00645559,2.29832,2.40031,0.0,2,0,0,0
30708000,47.3977418684,8.54559377316,488.018,-0.00140381,-0.0,-0.024018,-0.011714,0.000188171,0.00672715,2.29825,2.40039,0.0,2,0,0,0
30900000,47.3977418587,8.54559377002,488.018,-0.00128174,-0.0,-0.026219,-0.011591,-0.00157392,0.0067606,2.29818,2.40035,0.0,2,0,0,0
31092000,47.3977418409,8.54559376602,488.02,0.000793457,-0.0,-0.0262099,-0.0100189,-0.00344306,0.0064287,2.29812,2.4003,0.0,2,0,0,0
31284000,47.3977418167,8.54559377184,488.021,0.00149536,-0.0,-0.0265153,-0.00751833,-0.00441653,0.00694561,2.29805,2.40026,0.0,2,0,0,0
31476000,47.3977417947,8.54559377956,488.021,0.00137329,-0.0,-0.0257299,-0.00647364,-0.00473981,0.00682812,2.29799,2.40035,0.0,2,0,0,0
31668000,47.3977417714,8.54559379682,488.021,0.00195312,-0.0,-0.023778,-0.00460022,-0.00419922,0.0069831,2.2987,2.4004,0.0,2,0,0,0
31860000,47.3977417605,8.5455938176,488.021,0.00158691,-0.0,-0.021058,-0.0013979,-0.00394541,0.00700466,2.29863,2.40036,0.0,2,0,0,0
32052000,47.3977417618,8.54559383589,488.021,0.00143433,-0.0,-0.0167434,-0.000759749,-0.0020513,0.00673815,2.29856,2.40044,0.0,2,0,0,0
32244000,47.3977417789,8.54559385381,488.021,0.00119019,-0.0,-0.0152192,0.00150036,-0.00502285,0.0070406,2.29849,2.4004,0.0,2,0,0,0
32436000,47.3977417933,8.54559387479,488.023,0.00296021,-0.0,-0.0105752,0.0043476,-0.0034467,0.00694746,2.29842,2.40036,0.0,2,0,0,0
32628000,47.397741803,8.54559390031,488.024,0.00427246,-0.0,-0.00973542,0.00363517,-0.00462025,0.00712952,2.29836,2.40031,0.0,2,0,0,0
32820000,47.3977418131,8.54559393376,488.027,0.00744629,-0.0,-0.00615744,0.00411328,-0.00533979,0.00731037,2.29829,2.4004,0.0,2,0,0,0
33012000,47.3977418278,8.54559395893,488.031,0.0110779,-0.0,-0.00406073,0.00488227,-0.0061228,0.00687289,2.29823,2.40036,0.0,2,0,0,0
33204000,47.3977418422,8.54559397387,488.035,0.0147705,-0.0,-0.00281038,0.00663657,-0.00815008,0.00654991,2.29816,2.40031,0.0,2,0,0,0
33404000,47.3977418599,8.54559398067,488.037,0.0161743,-0.0,-0.000422377,0.00858314,-0.00737906,0.006679,2.29816,2.40033,0.0,2,0,0,0
33596000,47.3977418823,8.54559397612,488.037,0.0161438,-0.0,0.00151171,0.00696306,-0.00829975,0.00649043,2.2981,2.40028,0.0,2,0,0,0
33788000,47.3977419069,8.545593969,488.037,0.0163879,-0.0,0.00406868,0.00638236,-0.00983804,0.00641268,2.29803,2.40037,0.0,2,0,0,0
33980000,47.3977419225,8.54559396098,488.035,0.0136108,-0.0,0.0066411,0.00284979,-0.00722749,0.00650648,2.29797,2.40033,0.0,2,0,0,0
34172000,47.3977419446,8.54559394849,488.033,0.0110474,-0.0,0.0060396,0.000551494,-0.00837783,0.00610861,2.29868,2.40038,0.0,2,0,0,0
34364000,47.3977419672,8.54559394507,488.03,0.00827026,-0.0,0.0084398,-0.00015955,-0.0100329,0.00583576,2.29861,2.40034,0.0,2,0,0,0
34564000,47.3977419823,8.54559395035,488.028,0.00650024,-0.0,0.00883457,0.00197845,-0.0093682,0.00567715,2.29861,2.40035,0.0,2,0,0,0
34756000,47.3977419895,8.54559396604,488.027,0.0050354,-0.0,0.00730089,0.00211646,-0.00883568,0.0058395,2.29854,2.40044,0.0,2,0,0,0
34948000,47.3977420043,8.54559396455,488.026,0.00378418,-0.0,0.0116506,0.00309109,-0.0077258,0.00540848,2.29847,2.40039,0.0,2,0,0,0
35140000,47.3977420117,8.5455939572,488.024,0.00140381,-0.0,0.0118021,0.00408237,-0.00445548,0.00525196,2.29841,2.40035,0.0,2,0,0,0
35332000,47.3977420147,8.54559395784,488.023,0.000457764,-0.0,0.0138893,0.00494519,-0.00320511,0.00455407,2.29834,2.40031,0.0,2,0,0,0
35524000,47.3977420207,8.54559396006,488.023,0.00131226,-0.0,0.0151156,0.00604844,-0.00385536,0.00448324,2.29828,2.40039,0.0,2,0,0,0
35716000,47.3977420378,8.54559396052,488.025,0.00323486,-0.0,0.0193544,0.00595962,-0.00426411,0.00434715,2.29822,2.40035,0.0,2,0,0,0
35908000,47.3977420636,8.54559396475,488.028,0.00582886,-0.0,0.0216987,0.00816918,-0.00346901,0.00451255,2.29815,2.40031,0.0,2,0,0,0
36100000,47.3977420954,8.54559397812,488.03,0.00799561,-0.0,0.0250285,0.00861812,-0.00266327,0.00472557,2.29809,2.40039,0.0,2,0,0,0
36292000,47.3977421316,8.54559399315,488.031,0.00863647,-0.0,0.028401,0.0081841,-0.00112213,0.0047598,2.29803,2.40035,0.0,2,0,0,0
36484000,47.397742159,8.5455939972,488.031,0.00839233,-0.0,0.0290835,0.00554625,-0.000261107,0.00520007,2.29797,2.40031,0.0,2,0,0,0
36676000,47.3977421728,8.54559399693,488.03,0.00753784,-0.0,0.0308093,0.00695747,0.000367585,0.00484423,2.29791,2.40026,0.0,2,0,0,0
36868000,47.3977421725,8.54559399503,488.029,0.00561523,-0.0,0.0304085,0.00695261,0.000848099,0.0050562,2.29861,2.40045,0.0,2,0,0,0
37060000,47.3977421666,8.54559399159,488.026,0.00271606,-0.0,0.0310655,0.00696512,0.00274168,0.00444828,2.29854,2.40041,0.0,2,0,0,0
37252000,47.397742155,8.54559398154,488.022,-0.000762939,-0.0,0.0281289,0.0057139,-0.000100035,0.00494946,2.29848,2.40036,0.0,2,0,0,0
37444000,47.3977421494,8.54559397053,488.021,-0.00216675,-0.0,0.0264178,0.00455204,0.00194156,0.00511103,2.29841,2.40032,0.0,2,0,0,0
37636000,47.3977421412,8.54559396401,488.02,-0.00335693,-0.0,0.023988,0.00329578,0.00404223,0.00512559,2.29835,2.40041,0.0,2,0,0,0
37828000,47.3977421274,8.54559396775,488.019,-0.00384521,-0.0,0.0193099,0.00437512,0.00184222,0.00511029,2.29829,2.40037,0.0,2,0,0,0
38020000,47.397742113,8.54559397986,488.02,-0.0032959,-0.0,0.0171911,0.00363414,-0.000105813,0.00470297,2.29822,2.40032,0.0,2,0,0,0
38212000,47.3977421055,8.54559400135,488.02,-0.00317383,-0.0,0.0153026,0.00519318,-0.00056339,0.00462003,2.29816,2.40028,0.0,2,0,0,0
38404000,47.3977421013,8.54559400819,488.019,-0.00341797,-0.0,0.016254,0.00421275,0.00165108,0.0048624,2.2981,2.40037,0.0,2,0,0,0
38596000,47.3977421018,8.54559400139,488.019,-0.00332642,-0.0,0.0146205,0.00404811,0.000466838,0.00470291,2.29804,2.40033,0.0,2,0,0,0
38788000,47.3977420994,8.54559399258,488.019,-0.00363159,-0.0,0.0143966,0.00272424,-0.000650078,0.00475384,2.29798,2.40028,0.0,2,0,0,0
38980000,47.3977420896,8.54559398093,488.018,-0.00445557,-0.0,0.0121743,1.03259e-06,-0.00299507,0.00518284,2.29792,2.40024,0.0,2,0,0,0
39172000,47.3977420704,8.54559395838,488.018,-0.00442505,-0.0,0.00874069,0.000211449,-0.00120389,0.00552103,2.29862,2.40043,0.0,2,0,0,0
39364000,47.3977420503,8.54559394701,488.017,-0.00537109,-0.0,0.00458036,0.00145934,-0.00163665,0.00550597,2.29855,2.40039,0.0,2,0,0,0
39556000,47.3977420325,8.54559394751,488.016,-0.00680542,-0.0,0.00477821,0.00105782,0.00256338,0.00544773,2.29849,2.40035,0.0,2,0,0,0
39748000,47.3977420192,8.54559394413,488.014,-0.00802612,-0.0,0.00330968,0.00293585,-6.5943e-06,0.00539329,2.29843,2.40043,0.0,2,0,0,0
39940000,47.3977419943,8.54559394478,488.014,-0.00817871,-0.0,-0.000961966,0.00468068,-0.0014597,0.0059985,2.29836,2.40039,0.0,2,0,0,0
40132000,47.3977419676,8.54559395696,488.014,-0.00738525,-0.0,-0.00922146,0.00553463,-0.00443431,0.00598655,2.2983,2.40035,0.0,2,0,0,0
40332000,47.3977419406,8.54559397583,488.015,-0.00643921,-0.0,-0.0144441,0.00861167,-0.0043339,0.00655293,2.2983,2.40036,0.0,2,0,0,0
40524000,47.3977419233,8.54559399118,488.018,-0.00393677,-0.0,-0.0148483,0.00873496,-0.00560521,0.00654925,2.29824,2.40032,0.0,2,0,0,0
40724000,47.3977419077,8.54559401256,488.021,-0.000915527,-0.0,-0.018814,0.0111045,-0.00503069,0.00690872,2.29824,2.40033,0.0,2,0,0,0
40916000,47.3977418864,8.54559402627,488.022,0.000732422,-0.0,-0.0204496,0.0124318,-0.00413073,0.00749603,2.29818,2.40042,0.0,2,0,0,0
41108000,47.3977418717,8.54559402884,488.023,0.00125122,-0.0,-0.0180394,0.0121106,-0.00445848,0.00713985,2.29812,2.40037,0.0,2,0,0,0
41300000,47.3977418583,8.54559404614,488.022,0.000793457,-0.0,-0.0200968,0.0135476,-0.00361749,0.00774383,2.29806,2.40033,0.0,2,0,0,0
41492000,47.3977418383,8.545594065,488.022,0.000793457,-0.0,-0.0207778,0.0127519,-0.00342257,0.00716073,2.298,2.40029,0.0,2,0,0,0
41684000,47.3977418201,8.54559408426,488.023,0.00109863,-0.0,-0.02259,0.0120738,-0.00549805,0.00698117,2.29794,2.40037,0.0,2,0,0,0
41876000,47.3977417981,8.54559411273,488.022,0.000488281,-0.0,-0.0217631,0.0135747,-0.00214782,0.00715308,2.29788,2.40033,0.0,2,0,0,0
42068000,47.3977417799,8.54559412819,488.021,-0.000152588,-0.0,-0.0220505,0.0159461,-0.000967101,0.0073729,2.29857,2.40039,0.0,2,0,0,0
42260000,47.3977417743,8.54559414588,488.021,-0.000732422,-0.0,-0.0222618,0.0186997,0.000645652,0.00725629,2.2985,2.40034,0.0,2,0,0,0
42452000,47.3977417751,8.54559416786,488.02,-0.00128174,-0.0,-0.0227007,0.0193669,0.0051468,0.00705392,2.29844,2.40043,0.0,2,0,0,0
42652000,47.3977417774,8.54559418341,488.02,-0.00170898,-0.0,-0.0225201,0.0214548,0.00604456,0.00704185,2.29844,2.40044,0.0,2,0,0,0
42844000,47.3977417668,8.54559420562,488.019,-0.00268555,-0.0,-0.0242788,0.0211882,0.00816811,0.00721182,2.29838,2.4004,0.0,2,0,0,0
43036000,47.397741747,8.54559422175,488.017,-0.00463867,-0.0,-0.0248296,0.0228225,0.00798792,0.00719149,2.29832,2.40036,0.0,2,0,0,0
43228000,47.3977417322,8.54559424278,488.015,-0.00604248,-0.0,-0.0259348,0.0206005,0.00872359,0.00675846,2.29825,2.40031,0.0,2,0,0,0
43420000,47.3977417268,8.54559425596,488.015,-0.00628662,-0.0,-0.0259802,0.0198622,0.00820098,0.00699237,2.29819,2.4004,0.0,2,0,0,0
43612000,47.3977417266,8.54559425777,488.013,-0.00793457,-0.0,-0.0262037,0.0188567,0.00979328,0.00703227,2.29813,2.40035,0.0,2,0,0,0
43804000,47.3977417269,8.54559426227,488.012,-0.00933838,-0.0,-0.0256636,0.0185219,0.01489,0.00690853,2.29807,2.40031,0.0,2,0,0,0
43996000,47.3977417292,8.54559425485,488.011,-0.0100708,-0.0,-0.0256336,0.0159405,0.0166936,0.00678758,2.29801,2.40039,0.0,2,0,0,0
44188000,47.3977417369,8.54559424994,488.009,-0.0111389,-0.0,-0.0251257,0.0170125,0.015411,0.00670975,2.29796,2.40035,0.0,2,0,0,0
44380000,47.3977417533,8.54559426095,488.009,-0.0115967,-0.0,-0.0227814,0.0137356,0.0164927,0.00693628,2.2979,2.40031,0.0,2,0,0,0
44572000,47.3977417679,8.54559426029,488.007,-0.0130615,-0.0,-0.0216007,0.00982604,0.0151945,0.00675488,2.29859,2.40049,0.0,2,0,0,0
44764000,47.3977417753,8.54559424431,488.007,-0.013031,-0.0,-0.0206065,0.00616764,0.0142842,0.0064701,2.29853,2.40044,0.0,2,0,0,0
44956000,47.3977417779,8.54559420853,488.008,-0.0119629,-0.0,-0.0179861,0.000599076,0.0130808,0.00654678,2.29846,2.4004,0.0,2,0,0,0
45148000,47.3977417801,8.54559415851,488.008,-0.0114136,-0.0,-0.0171662,-0.00174263,0.0125283,0.00643706,2.2984,2.40035,0.0,2,0,0,0
45340000,47.3977417822,8.54559410378,488.008,-0.0114746,-0.0,-0.0163471,-0.00523444,0.0129656,0.00622945,2.29834,2.40043,0.0,2,0,0,0
45532000,47.3977417916,8.54559404048,488.006,-0.0131836,-0.0,-0.0116439,-0.00871463,0.0130552,0.00562625,2.29828,2.40039,0.0,2,0,0,0
45724000,47.3977417964,8.54559397714,488.006,-0.0124817,-0.0,-0.0105309,-0.0131845,0.0125306,0.00518554,2.29822,2.40034,0.0,2,0,0,0
45916000,47.3977417958,8.54559392911,488.007,-0.0120544,-0.0,-0.0092858,-0.0163074,0.00925469,0.00468126,2.29816,2.40043,0.0,2,0,0,0
46116000,47.397741804,8.54559389634,488.005,-0.0135498,-0.0,-0.00804074,-0.0158006,0.00929604,0.00493966,2.29816,2.40044,0.0,2,0,0,0
46308000,47.3977418192,8.54559385867,488.003,-0.014679,-0.0,-0.00734512,-0.0175302,0.00982327,0.00468639,2.2981,2.40039,0.0,2,0,0,0
46500000,47.3977418364,8.54559381601,488.003,-0.0144348,-0.0,-0.00675723,-0.0187366,0.00638564,0.00475399,2.29804,2.40034,0.0,2,0,0,0
46692000,47.3977418554,8.54559378479,488.005,-0.0123291,-0.0,-0.00492712,-0.0192593,0.00619127,0.00486395,2.29798,2.4003,0.0,2,0,0,0
46884000,47.3977418658,8.54559376458,488.008,-0.00875854,-0.0,-0.00517005,-0.0194514,0.0021133,0.0053117,2.29792,2.40038,0.0,2,0,0,0
47076000,47.397741868,8.54559375342,488.011,-0.00631714,-0.0,-0.00377906,-0.0178474,0.00105299,0.00507792,2.29786,2.40033,0.0,2,0,0,0
47268000,47.3977418803,8.54559374452,488.013,-0.00387573,-0.0,-0.00367165,-0.019525,0.000460859,0.00530601,2.29855,2.40039,0.0,2,0,0,0
47460000,47.3977418894,8.54559373992,488.015,-0.00234985,-0.0,-0.00236562,-0.0204993,0.00123735,0.00547589,2.29849,2.40034,0.0,2,0,0,0
47652000,47.3977419012,8.54559374061,488.016,-0.00128174,-0.0,-0.000136758,-0.0193105,0.00171801,0.00517798,2.29843,2.40043,0.0,2,0,0,0
47844000,47.3977419143,8.54559374553,488.016,-0.000549316,-0.0,-0.000314365,-0.0188264,0.000256569,0.00510241,2.29836,2.40038,0.0,2,0,0,0
48036000,47.3977419237,8.5455937601,488.018,0.000915527,-0.0,0.00165394,-0.020618,0.00105407,0.0054613,2.2983,2.40034,0.0,2,0,0,0
48228000,47.3977419249,8.54559376989,488.017,-0.000244141,-0.0,0.00105529,-0.018873,0.00551142,0.00544913,2.29824,2.40042,0.0,2,0,0,0
48420000,47.3977419256,8.54559376929,488.014,-0.00238037,-0.0,0.000839639,-0.0171034,0.00218208,0.00535058,2.29818,2.40038,0.0,2,0,0,0
48612000,47.3977419267,8.54559377207,488.014,-0.00231934,-0.0,0.00188232,-0.0171684,0.00179603,0.00490251,2.29812,2.40034,0.0,2,0,0,0
48804000,47.3977419322,8.54559378757,488.015,-0.00149536,-0.0,0.00350323,-0.0152871,0.00190569,0.0048635,2.29806,2.40029,0.0,2,0,0,0
48996000,47.3977419458,8.54559379946,488.016,-0.000457764,-0.0,0.00475372,-0.0130981,-0.000372813,0.00488604,2.298,2.40038,0.0,2,0,0,0
49196000,47.3977419607,8.54559382088,488.018,0.0010376,-0.0,0.00632928,-0.00982835,-0.00189555,0.00515178,2.298,2.40039,0.0,2,0,0,0
49388000,47.397741975,8.54559385182,488.019,0.00186157,-0.0,0.00346044,-0.00553393,-0.00245937,0.00511351,2.29795,2.40034,0.0,2,0,0,0
49580000,47.3977419908,8.54559387473,488.019,0.00231934,-0.0,0.00236118,-0.00446766,-0.00189258,0.00524358,2.29789,2.4003,0.0,2,0,0,0
49772000,47.3977419977,8.54559389344,488.018,0.00088501,-0.0,0.00126465,-0.00182427,-0.00148385,0.00557751,2.29858,2.40036,0.0,2,0,0,0
49964000,47.3977419881,8.54559391356,488.017,0.000579834,-0.0,-0.000574008,-0.000593354,-0.0028474,0.00575543,2.29852,2.40044,0.0,2,0,0,0
50156000,47.3977419766,8.5455939292,488.017,-9.15527e-05,-0.0,-0.00234523,-0.00211164,-0.00290578,0.00604586,2.29845,2.4004,0.0,2,0,0,0
50348000,47.3977419879,8.54559393569,488.016,-0.00131226,-0.0,0.00285044,-0.00196631,-0.00216683,0.00607544,2.29839,2.40036,0.0,2,0,0,0
50540000,47.3977420022,8.5455939375,488.014,-0.00250244,-0.0,0.00543789,-0.000785622,-0.00267726,0.0062019,2.29833,2.40031,0.0,2,0,0,0
50732000,47.397742008,8.54559393833,488.014,-0.00262451,-0.0,0.00744232,0.000145578,-0.00257972,0.00632274,2.29827,2.4004,0.0,2,0,0,0
50924000,47.3977420104,8.5455939419,488.015,-0.00170898,-0.0,0.00887559,-0.0037085,-0.00331561,0.00621894,2.29821,2.40036,0.0,2,0,0,0
51116000,47.3977420137,8.54559393787,488.014,-0.00234985,-0.0,0.00951723,-0.00367004,-0.00253524,0.00603235,2.29815,2.40031,0.0,2,0,0,0
51308000,47.3977420138,8.54559393309,488.014,-0.00219727,-0.0,0.0092384,-0.00143264,-0.00172436,0.00602273,2.29809,2.4004,0.0,2,0,0,0
51500000,47.397742007,8.54559393103,488.015,-0.00180054,-0.0,0.00889635,-0.00161729,-0.00132601,0.00623206,2.29803,2.40036,0.0,2,0,0,0
51692000,47.3977419975,8.54559391595,488.016,-0.000335693,-0.0,0.00900804,-0.00166651,-0.000687065,0.00625677,2.29797,2.40031,0.0,2,0,0,0
51884000,47.397741994,8.54559390671,488.018,0.00106812,-0.0,0.00980298,-0.00230563,0.000461696,0.00599076,2.29791,2.40027,0.0,2,0,0,0
52076000,47.3977419984,8.54559389829,488.019,0.0020752,-0.0,0.00810887,-0.0032376,0.000705206,0.00573966,2.29786,2.40036,0.0,2,0,0,0
52268000,47.3977420078,8.54559389113,488.02,0.00360107,-0.0,0.0086045,-0.00452609,0.000247689,0.00545971,2.29854,2.40041,0.0,2,0,0,0
52460000,47.3977420191,8.54559389552,488.021,0.00411987,-0.0,0.00723291,-0.00356542,-0.00192616,0.00538567,2.29848,2.40037,0.0,2,0,0,0
52652000,47.3977420279,8.54559391822,488.02,0.00341797,-0.0,0.00861892,-0.00259909,-0.00156814,0.00582569,2.29842,2.40033,0.0,2,0,0,0
52844000,47.3977420233,8.54559392114,488.02,0.00357056,-0.0,0.00884233,-0.00232969,-0.000737477,0.0053703,2.29836,2.40041,0.0,2,0,0,0
53036000,47.3977420194,8.54559390579,488.021,0.00387573,-0.0,0.00910984,-0.00269519,-0.00195587,0.00548042,2.2983,2.40037,0.0,2,0,0,0
53228000,47.3977420166,8.54559387712,488.022,0.00466919,-0.0,0.00737816,-0.00350324,-0.00187797,0.00557528,2.29823,2.40033,0.0,2,0,0,0
53428000,47.3977420073,8.54559385646,488.023,0.00610352,-0.0,0.00867935,-0.00362723,-0.00115553,0.0058987,2.29823,2.40034,0.0,2,0,0,0
53620000,47.3977420075,8.54559382735,488.025,0.00808716,-0.0,0.00859195,-0.00474085,0.000118848,0.0060895,2.29817,2.4003,0.0,2,0,0,0
53812000,47.3977420124,8.545593804,488.027,0.00961304,-0.0,0.0100921,-0.00585428,-0.000707858,0.00616059,2.29812,2.40038,0.0,2,0,0,0
54004000,47.3977420122,8.54559380134,488.028,0.0105591,-0.0,0.00995174,-0.00641371,-0.00123787,0.00608189,2.29806,2.40034,0.0,2,0,0,0
54196000,47.3977420082,8.54559381689,488.029,0.0108643,-0.0,0.00970927,-0.00465304,-0.00265753,0.00608937,2.298,2.4003,0.0,2,0,0,0
54388000,47.3977420158,8.54559383085,488.03,0.0116577,-0.0,0.0114363,-0.00404399,-0.00279076,0.00605732,2.29794,2.40026,0.0,2,0,0,0
54580000,47.3977420271,8.54559382819,488.03,0.0119019,-0.0,0.0127654,-0.00369233,-0.00445695,0.00621176,2.29788,2.40034,0.0,2,0,0,0
54772000,47.3977420397,8.54559384057,488.029,0.0106201,-0.0,0.0141885,-0.00239166,-0.00632787,0.00594167,2.29857,2.4004,0.0,2,0,0,0
54964000,47.3977420601,8.54559386594,488.028,0.00918579,-0.0,0.0145733,-0.00423118,-0.00558556,0.00631582,2.29851,2.40036,0.0,2,0,0,0
55156000,47.397742078,8.54559389635,488.027,0.00863647,-0.0,0.0186154,-0.00479118,-0.00454171,0.00644457,2.29845,2.40044,0.0,2,0,0,0
55348000,47.3977420793,8.54559391536,488.026,0.00674438,-0.0,0.0181008,-0.00162604,-0.00315998,0.00692961,2.29839,2.4004,0.0,2,0,0,0
55540000,47.3977420861,8.54559392341,488.024,0.00512695,-0.0,0.0221471,0.000156708,-0.00520622,0.0064029,2.29832,2.40036,0.0,2,0,0,0
55732000,47.3977421014,8.5455939259,488.023,0.003479,-0.0,0.0241373,0.00126899,-0.00273201,0.00616625,2.29826,2.40032,0.0,2,0,0,0
55924000,47.3977421291,8.54559391724,488.021,0.00198364,-0.0,0.0267265,0.00230163,-0.00292818,0.00608212,2.2982,2.4004,0.0,2,0,0,0
56116000,47.3977421545,8.54559391406,488.021,0.00216675,-0.0,0.0295645,0.00316413,-0.00128531,0.00605846,2.29814,2.40036,0.0,2,0,0,0
56316000,47.397742176,8.54559392168,488.023,0.00415039,-0.0,0.0301162,0.00459131,-0.00172258,0.00616054,2.29814,2.40037,0.0,2,0,0,0
56508000,47.3977421888,8.54559392997,488.025,0.00518799,-0.0,0.0295618,0.00560691,-0.00196738,0.00634305,2.29809,2.40033,0.0,2,0,0,0
56700000,47.3977421985,8.5455939315,488.024,0.00442505,-0.0,0.0323226,0.00636656,-0.00397989,0.00651003,2.29803,2.40029,0.0,2,0,0,0
56892000,47.3977422034,8.54559393334,488.023,0.00314331,-0.0,0.0326943,0.00479149,-0.0053908,0.00668426,2.29797,2.40037,0.0,2,0,0,0
57084000,47.3977421949,8.54559394907,488.023,0.003479,-0.0,0.0302716,0.00612191,-0.00641509,0.0067431,2.29791,2.40033,0.0,2,0,0,0
57276000,47.3977421967,8.54559396568,488.024,0.0043335,-0.0,0.030452,0.00618767,-0.00674112,0.00739465,2.29785,2.40029,0.0,2,0,0,0
57468000,47.3977421982,8.54559397888,488.024,0.00463867,-0.0,0.0296386,0.00940309,-0.00303014,0.00763306,2.29854,2.40034,0.0,2,0,0,0
57660000,47.3977421883,8.54559401208,488.026,0.00570679,-0.0,0.0294099,0.0135915,-0.00339648,0.00782878,2.29848,2.40043,0.0,2,0,0,0
57860000,47.3977421814,8.54559405792,488.026,0.00579834,-0.0,0.0278971,0.0185677,-0.00316593,0.00775824,2.29848,2.40044,0.0,2,0,0,0
58052000,47.3977421741,8.54559408925,488.026,0.00552368,-0.0,0.0259058,0.0201766,-0.00358281,0.00804646,2.29841,2.4004,0.0,2,0,0,0
58244000,47.3977421737,8.54559410909,488.027,0.00686646,-0.0,0.025878,0.0228707,-0.000595037,0.00831657,2.29835,2.40035,0.0,2,0,0,0
58436000,47.3977421769,8.54559413781,488.026,0.00540161,-0.0,0.0273284,0.0254068,-0.0014665,0.00774786,2.29829,2.40031,0.0,2,0,0,0
58628000,47.3977421766,8.54559416671,488.023,0.00234985,-0.0,0.0279193,0.026732,-0.00331331,0.00752752,2.29823,2.4004,0.0,2,0,0,0
58820000,47.3977421726,8.54559418761,488.018,-0.00262451,-0.0,0.0274943,0.0276562,-0.0018372,0.00727901,2.29817,2.40036,0.0,2,0,0,0
59012000,47.3977421775,8.54559419621,488.014,-0.00631714,-0.0,0.0266093,0.0277905,-0.000522241,0.00752343,2.29811,2.40044,0.0,2,0,0,0
59204000,47.3977421812,8.54559419883,488.014,-0.0062561,-0.0,0.0260497,0.0292817,-0.000431636,0.00775145,2.29805,2.40039,0.0,2,0,0,0
59404000,47.3977421769,8.54559420848,488.015,-0.00521851,-0.0,0.0284454,0.0294934,-0.00250654,0.00778206,2.29805,2.4004,0.0,2,0,0,0
59604000,47.3977421723,8.54559420959,488.015,-0.00497437,-0.0,0.0298297,0.0295323,-0.00171475,0.00745595,2.29805,2.40041,0.0,2,0,0,0
59796000,47.3977421636,8.5455942175,488.015,-0.00469971,-0.0,0.0292225,0.029614,-0.00238135,0.00708649,2.298,2.40036,0.0,2,0,0,0
59988000,47.3977421513,8.54559422958,488.016,-0.00393677,-0.0,0.0296735,0.0292933,-0.00152506,0.00706746,2.29794,2.40032,0.0,2,0,0,0
60180000,47.3977421377,8.54559423897,488.016,-0.0039978,-0.0,0.031081,0.0295797,-0.000402284,0.00700032,2.29788,2.40027,0.0,2,0,0,0
60372000,47.3977421405,8.5455942504,488.014,-0.00527954,-0.0,0.030822,0.029125,0.00303727,0.006977,2.29857,2.40045,0.0,2,0,0,0
60572000,47.3977421451,8.54559425677,488.011,-0.00808716,-0.0,0.0298703,0.0285596,0.00153206,0.0069342,2.29857,2.40046,0.0,2,0,0,0
60764000,47.3977421441,8.54559427129,488.012,-0.00778198,-0.0,0.0265814,0.0275281,0.00214343,0.00665518,2.29851,2.40042,0.0,2,0,0,0
60956000,47.3977421417,8.54559428183,488.011,-0.00827026,-0.0,0.0283817,0.026412,0.00354793,0.00692576,2.29844,2.40037,0.0,2,0,0,0
61148000,47.3977421423,8.54559428006,488.009,-0.00946045,-0.0,0.0288772,0.0275764,0.00376495,0.00713313,2.29838,2.40045,0.0,2,0,0,0
61340000,47.3977421481,8.54559428507,488.008,-0.0108337,-0.0,0.0306691,0.0257479,0.00548333,0.00742389,2.29832,2.40041,0.0,2,0,0,0
61532000,47.3977421585,8.54559430494,488.007,-0.0115356,-0.0,0.0296408,0.0269971,0.0050042,0.00735871,2.29826,2.40036,0.0,2,0,0,0
61724000,47.3977421666,8.54559431324,488.005,-0.0127869,-0.0,0.0288278,0.0241335,0.00873189,0.00758456,2.2982,2.40031,0.0,2,0,0,0
61916000,47.3977421689,8.54559430995,488.005,-0.0132446,-0.0,0.0278281,0.0238004,0.00792881,0.00733093,2.29814,2.4004,0.0,2,0,0,0
62108000,47.397742168,8.54559430131,488.004,-0.0134277,-0.0,0.0268286,0.0212406,0.00540638,0.00681632,2.29808,2.40035,0.0,2,0,0,0
62300000,47.3977421619,8.54559429565,488.005,-0.0127258,-0.0,0.0229026,0.0192087,0.00464915,0.00672684,2.29802,2.40031,0.0,2,0,0,0
62492000,47.39774216,8.54559428451,488.007,-0.0106812,-0.0,0.0213682,0.016106,0.000675562,0.00720124,2.29797,2.40039,0.0,2,0,0,0
62684000,47.3977421551,8.54559425215,488.009,-0.00787354,-0.0,0.019736,0.0146258,-0.0020554,0.00735903,2.29791,2.40035,0.0,2,0,0,0
62876000,47.3977421526,8.5455942054,488.01,-0.00653076,-0.0,0.0177919,0.00943972,-0.00235721,0.00709082,2.29785,2.4003,0.0,2,0,0,0
63068000,47.3977421482,8.54559415161,488.01,-0.00698853,-0.0,0.0158554,0.00571063,-0.00177567,0.00719401,2.29854,2.40036,0.0,2,0,0,0
63260000,47.3977421416,8.54559409639,488.01,-0.00686646,-0.0,0.0133247,0.00152882,-0.00294364,0.0072964,2.29847,2.40044,0.0,2,0,0,0
63452000,47.3977421163,8.54559405535,488.01,-0.00671387,-0.0,0.0126516,-0.000460075,-0.00298909,0.00678723,2.29841,2.4004,0.0,2,0,0,0
63644000,47.3977420972,8.54559403401,488.01,-0.006073,-0.0,0.0110928,-0.000861402,-0.00256688,0.00736362,2.29835,2.40036,0.0,2,0,0,0
63836000,47.3977420928,8.54559401435,488.012,-0.00439453,-0.0,0.0107183,-0.00441103,-0.00313037,0.00758667,2.29829,2.40031,0.0,2,0,0,0
64028000,47.3977420811,8.54559398169,488.015,-0.00152588,-0.0,0.00840723,-0.00778203,-0.000288338,0.00820947,2.29823,2.4004,0.0,2,0,0,0
64220000,47.3977420651,8.5455939509,488.017,0.000213623,-0.0,0.00466339,-0.00861353,-0.00215068,0.0080627,2.29817,2.40036,0.0,2,0,0,0
64412000,47.3977420461,8.54559393154,488.016,-0.000488281,-0.0,0.00232533,-0.00940397,0.000107927,0.00823215,2.29811,2.40031,0.0,2,0,0,0
64604000,47.3977420186,8.54559390479,488.014,-0.00244141,-0.0,0.000467054,-0.00957314,0.000969489,0.00809069,2.29805,2.40027,0.0,2,0,0,0
64796000,47.3977420028,8.54559388445,488.014,-0.00271606,-0.0,0.000728419,-0.0114081,0.000448548,0.008074,2.29799,2.40036,0.0,2,0,0,0
64988000,47.3977419924,8.54559387702,488.011,-0.00543213,-0.0,0.0037213,-0.0127112,0.00156773,0.00799773,2.29794,2.40032,0.0,2,0,0,0
65180000,47.3977419876,8.54559386936,488.01,-0.00585938,-0.0,0.0035429,-0.0118829,0.00422351,0.00814301,2.29788,2.40028,0.0,2,0,0,0
65372000,47.3977419789,8.5455938671,488.01,-0.00634766,-0.0,0.00216959,-0.0109414,0.00251018,0.00768216,2.29857,2.40034,0.0,2,0,0,0
65564000,47.3977419652,8.54559386867,488.01,-0.00601196,-0.0,-0.00251712,-0.0101806,0.00334687,0.00766335,2.2985,2.40042,0.0,2,0,0,0
65756000,47.3977419423,8.54559387284,488.011,-0.00457764,-0.0,-0.00484125,-0.0097115,0.00131305,0.00769024,2.29844,2.40038,0.0,2,0,0,0
65948000,47.3977419247,8.54559387739,488.01,-0.00531006,-0.0,-0.00683505,-0.00849071,0.000292686,0.00738406,2.29838,2.40034,0.0,2,0,0,0
66140000,47.3977419116,8.54559387114,488.009,-0.00616455,-0.0,-0.00596736,-0.0074074,0.00193081,0.00688571,2.29832,2.40043,0.0,2,0,0,0
66340000,47.3977419053,8.54559385831,488.01,-0.00576782,-0.0,-0.00423783,-0.00585617,0.00040762,0.00643267,2.29832,2.40044,0.0,2,0,0,0
66532000,47.3977419081,8.54559386116,488.014,-0.00112915,-0.0,-0.00441434,-0.00271412,-0.00110623,0.00639296,2.29826,2.40039,0.0,2,0,0,0
66724000,47.3977419094,8.54559385997,488.018,0.00286865,-0.0,-0.00430619,-0.000603246,0.000717989,0.00653438,2.2982,2.40035,0.0,2,0,0,0
66916000,47.3977419129,8.54559386309,488.021,0.00564575,-0.0,-0.00325019,0.00111055,0.00153323,0.00638154,2.29814,2.4003,0.0,2,0,0,0
67108000,47.39774192,8.54559387851,488.023,0.00735474,-0.0,-0.00135907,0.00511363,0.00101088,0.00601755,2.29808,2.40039,0.0,2,0,0,0
67300000,47.3977419273,8.54559391371,488.025,0.00952148,-0.0,0.000815142,0.00998406,-0.0035607,0.00584231,2.29802,2.40034,0.0,2,0,0,0
67492000,47.3977419352,8.54559395434,488.028,0.0125122,-0.0,0.0014835,0.0100551,-0.00291391,0.00632302,2.29797,2.4003,0.0,2,0,0,0
67684000,47.3977419441,8.54559399827,488.03,0.0136719,-0.0,0.0015582,0.0145078,-0.00292914,0.00613724,2.29791,2.40038,0.0,2,0,0,0
67876000,47.397741954,8.54559404067,488.029,0.0121155,-0.0,0.0011308,0.017417,-0.00145724,0.00645609,2.29785,2.40034,0.0,2,0,0,0
68068000,47.3977419627,8.54559407088,488.028,0.0108948,-0.0,0.000895571,0.0201323,-0.00106312,0.0064029,2.29853,2.40039,0.0,2,0,0,0
68260000,47.3977419688,8.54559410276,488.027,0.0100708,-0.0,0.00180838,0.0219352,-0.00206312,0.00695725,2.29847,2.40035,0.0,2,0,0,0
68452000,47.3977419868,8.54559413547,488.025,0.00744629,-0.0,0.0057781,0.0243234,-0.0032776,0.00748314,2.29841,2.40044,0.0,2,0,0,0
68652000,47.3977420025,8.54559416837,488.023,0.00546265,-0.0,0.00749367,0.0235957,-0.0026888,0.00734161,2.29841,2.40045,0.0,2,0,0,0
68844000,47.3977420055,8.54559419008,488.024,0.00671387,-0.0,0.00859406,0.0239146,-0.00139639,0.00759588,2.29835,2.4004,0.0,2,0,0,0
69044000,47.3977420045,8.54559419718,488.023,0.00540161,-0.0,0.0105956,0.0217321,0.000325294,0.00749048,2.29835,2.40041,0.0,2,0,0,0
69244000,47.3977420007,8.54559419229,488.02,0.00256348,-0.0,0.0134098,0.019088,0.0019638,0.00775814,2.29835,2.40043,0.0,2,0,0,0
69436000,47.3977419971,8.54559419043,488.018,0.00088501,-0.0,0.0133181,0.01907,-0.00105479,0.00791224,2.29829,2.40038,0.0,2,0,0,0
69628000,47.3977420051,8.54559419355,488.017,-0.000640869,-0.0,0.0152829,0.0203109,0.0011045,0.00799561,2.29823,2.40034,0.0,2,0,0,0
69820000,47.3977420109,8.54559419562,488.017,-0.000640869,-0.0,0.0148973,0.0217005,0.00104929,0.00749077,2.29817,2.4003,0.0,2,0,0,0
70012000,47.3977420209,8.54559420343,488.02,0.00213623,-0.0,0.0133517,0.0205838,0.000446264,0.00745379,2.29811,2.40038,0.0,2,0,0,0
70204000,47.3977420389,8.54559420582,488.021,0.00372314,-0.0,0.0120067,0.0209151,0.000281461,0.00756579,2.29805,2.40034,0.0,2,0,0,0
70396000,47.3977420504,8.54559419002,488.021,0.003479,-0.0,0.011548,0.0171872,-4.04013e-05,0.00771698,2.29799,2.40029,0.0,2,0,0,0
70588000,47.3977420503,8.54559417303,488.021,0.00323486,-0.0,0.00986677,0.015091,-0.00201604,0.00808039,2.29794,2.40038,0.0,2,0,0,0
70780000,47.3977420468,8.54559415585,488.021,0.00350952,-0.0,0.0093505,0.0116438,-0.00392531,0.0082559,2.29788,2.40034,0.0,2,0,0,0
70972000,47.3977420469,8.54559413906,488.021,0.00323486,-0.0,0.00778864,0.010439,-0.00416322,0.0086704,2.29857,2.40039,0.0,2,0,0,0
71164000,47.3977420431,8.54559412854,488.021,0.00354004,-0.0,0.00871102,0.00577478,-0.00348093,0.00857092,2.2985,2.40035,0.0,2,0,0,0
71356000,47.3977420386,8.54559411948,488.022,0.00357056,-0.0,0.00638459,0.00523144,-0.0121135,0.00873671,2.29844,2.40044,0.0,2,0,0,0
71548000,47.397742027,8.5455941176,488.043,0.0244751,-0.0,0.000293448,0.00350925,-0.233192,0.00862912,2.29838,2.40039,0.0,2,0,0,0
71740000,47.3977420147,8.54559411,488.108,0.0888062,-0.0,-0.00518414,0.00300713,-0.485032,0.00781112,2.29832,2.40035,0.0,2,0,0,0
71940000,47.3977419926,8.5455941048,488.223,0.200531,-0.0,-0.00650648,0.00164456,-0.750627,0.0069719,2.29833,2.40036,0.0,2,0,0,0
72132000,47.3977419671,8.5455940981,488.384,0.35498,-0.0,-0.00427323,0.00404613,-1.00666,0.00704367,2.29828,2.40032,0.0,2,0,0,0
72324000,47.3977419571,8.54559408563,488.593,0.553925,-0.0,-0.00148775,0.00509694,-1.26079,0.00703485,2.29823,2.40041,0.0,2,0,0,0
72516000,47.3977419489,8.54559407407,488.85,0.804443,-0.0,-0.00270372,0.00514223,-1.51617,0.00767982,2.29819,2.40036,0.0,2,0,0,0
72708000,47.3977419321,8.54559406571,489.158,1.09512,-0.0,-0.00346353,0.00431044,-1.76792,0.00783688,2.29814,2.40032,0.0,2,0,0,0
72900000,47.3977419149,8.54559404598,489.518,1.43475,-0.0,-0.00108369,0.00437408,-2.01695,0.0074036,2.2981,2.4004,0.0,2,0,0,0
73092000,47.3977419004,8.54559404626,489.926,1.82263,-0.0,-0.00104776,0.00749889,-2.2615,-0.00130512,2.29806,2.40035,0.0,2,0,0,0
73284000,47.3977418848,8.54559407026,490.382,2.25879,-0.0,0.000885593,0.00950065,-2.50526,2.59728e-05,2.29799,2.40031,0.0,2,0,0,0
73476000,47.3977418657,8.54559411104,490.855,2.71155,-0.0,0.00177679,0.00919542,-2.39547,0.00234699,2.2979,2.40039,0.0,2,0,0,0
73668000,47.3977418488,8.54559417128,491.299,3.13528,-0.0,0.0044636,0.00733009,-2.22082,0.00505585,2.29853,2.40044,0.0,2,0,0,0
73860000,47.3977418329,8.5455942409,491.722,3.53815,-0.0,0.00621674,0.00484781,-2.06765,0.00744056,2.29844,2.40039,0.0,2,0,0,0
74052000,47.3977418165,8.54559431924,492.118,3.91495,-0.0,0.00822655,0.00387686,-1.92854,0.00864585,2.2984,2.40035,0.0,2,0,0,0
74252000,47.3977418037,8.54559440199,492.509,4.28558,-0.0,0.00943502,-0.00101141,-1.81508,0.00901827,2.29848,2.40036,0.0,2,0,0,0
74444000,47.3977417954,8.54559447106,492.864,4.62079,-0.0,0.010094,-0.00516485,-1.72808,0.00938231,2.29854,2.40044,0.0,2,0,0,0
74636000,47.3977417914,8.54559452404,493.203,4.93939,-0.0,0.0105049,-0.0087094,-1.66402,0.00887541,2.29864,2.40039,0.0,2,0,0,0
74828000,47.3977417834,8.54559458332,493.53,5.24603,-0.0,0.0112135,-0.0101967,-1.61634,0.00861318,2.29876,2.40034,0.0,2,0,0,0
75020000,47.3977417734,8.5455946631,493.846,5.54196,-0.0,0.0138945,-0.0110601,-1.58092,0.00808737,2.29887,2.40042,0.0,2,0,0,0
75212000,47.397741776,8.54559474199,494.154,5.84058,-0.0,0.0136896,-0.0148285,-1.55777,0.00781741,2.29896,2.40038,0.0,2,0,0,0
75404000,47.3977417913,8.54559481548,494.459,6.12585,-0.0,0.012475,-0.017109,-1.54065,0.00740384,2.29902,2.40033,0.0,2,0,0,0
75596000,47.3977418149,8.54559489353,494.761,6.40717,-0.0,0.0126333,-0.0220438,-1.52463,0.00726175,2.29906,2.40028,0.0,2,0,0,0
75788000,47.3977418335,8.54559496883,495.059,6.68509,-0.0,0.0130759,-0.0283945,-1.51522,0.00744011,2.29907,2.40037,0.0,2,0,0,0
75980000,47.39774186,8.54559502319,495.355,6.96109,-0.0,0.0130316,-0.0339069,-1.50748,0.00770173,2.29905,2.40032,0.0,2,0,0,0
76172000,47.3977418824,8.54559504361,495.647,7.23291,-0.0,0.0112145,-0.0402556,-1.50486,0.00767545,2.30017,2.40038,0.0,2,0,0,0
76372000,47.3977419069,8.54559505893,495.951,7.51733,-0.0,0.00979252,-0.0406119,-1.50651,0.00809462,2.30019,2.40039,0.0,2,0,0,0
76564000,47.3977419344,8.54559504164,496.242,7.78802,-0.0,0.00727582,-0.0456212,-1.50377,0.00815181,2.30008,2.40034,0.0,2,0,0,0
76756000,47.3977419418,8.54559499604,496.531,8.05746,-0.0,0.0042515,-0.0465557,-1.5066,0.00825039,2.29996,2.40043,0.0,2,0,0,0
76948000,47.3977419519,8.54559494635,496.824,8.33011,-0.0,0.00170528,-0.0445234,-1.50664,0.00810798,2.29983,2.40038,0.0,2,0,0,0
77140000,47.3977419641,8.54559487857,497.115,8.60156,-0.0,0.000861963,-0.0431214,-1.49985,0.00786636,2.29969,2.40034,0.0,2,0,0,0
77332000,47.3977419647,8.54559480516,497.404,8.8707,-0.0,-0.00159277,-0.0420198,-1.50066,0.0074702,2.29955,2.40043,0.0,2,0,0,0
77524000,47.3977419614,8.54559471615,497.692,9.13831,-0.0,-0.00113802,-0.038007,-1.50191,0.00741683,2.2994,2.40038,0.0,2,0,0,0
77716000,47.3977419635,8.54559461746,497.98,9.4162,-0.0,0.000371685,-0.0332402,-1.5075,0.007683,2.29925,2.40034,0.0,2,0,0,0
77908000,47.3977419648,8.54559451391,498.27,9.68625,-0.0,0.00151733,-0.0296968,-1.53956,0.00750723,2.2991,2.4003,0.0,2,0,0,0
78100000,47.3977419674,8.54559443044,498.588,9.9841,-0.0,0.00270271,-0.0240249,-1.83348,0.00741569,2.29896,2.40038,0.0,2,0,0,0
78292000,47.3977419761,8.54559436118,498.99,10.3663,-0.0,0.000238822,-0.0186765,-2.42474,0.00742475,2.29882,2.40034,0.0,2,0,0,0
78484000,47.3977419781,8.54559429727,499.5,10.8565,-0.0,0.000168438,-0.0147844,-2.93499,0.00742561,2.29868,2.4003,0.0,2,0,0,0
78676000,47.3977419823,8.5455942398,500.063,11.3994,-0.0,-0.00231,-0.0117405,-3.03208,0.00758252,2.29856,2.40025,0.0,2,0,0,0
78868000,47.3977419903,8.54559417892,500.634,11.9498,-0.0,-0.000573562,-0.00789879,-3.04086,0.00829136,2.29934,2.40044,0.0,2,0,0,0
79060000,47.3977420048,8.54559411795,501.211,12.5075,-0.0,0.000989565,-0.000984687,-3.04427,0.00807247,2.2992,2.40039,0.0,2,0,0,0
79252000,47.3977420277,8.54559408648,501.794,13.0697,-0.0,0.000891466,0.0045975,-3.04259,0.00765681,2.29906,2.40035,0.0,2,0,0,0
79444000,47.397742049,8.54559406972,502.383,13.6386,-0.0,-0.00174318,0.00537323,-3.03603,0.00754458,2.29892,2.40044,0.0,2,0,0,0
79636000,47.3977420571,8.54559405157,502.971,14.2065,-0.0,-0.00654356,0.00421102,-3.02574,0.00762204,2.29879,2.40039,0.0,2,0,0,0
79828000,47.3977420582,8.54559402566,503.557,14.7733,-0.0,-0.0103375,0.00138769,-3.01597,0.00747734,2.29867,2.40035,0.0,2,0,0,0
80028000,47.3977420667,8.5455940036,504.168,15.3641,-0.0,-0.00848243,0.0034479,-3.00917,0.0075124,2.29861,2.40035,0.0,2,0,0,0
80220000,47.3977420796,8.54559399388,504.754,15.9297,-0.0,-0.0110475,0.00383804,-3.00057,0.00745091,2.29849,2.40031,0.0,2,0,0,0
80412000,47.3977420814,8.54559398963,505.341,16.5064,-0.0,-0.012486,0.00537116,-2.99614,0.00772257,2.29838,2.40039,0.0,2,0,0,0
80604000,47.3977420727,8.54559398882,505.926,17.0722,-0.0,-0.0146186,0.00367663,-2.98653,0.00772232,2.29828,2.40035,0.0,2,0,0,0
80804000,47.397742058,8.54559400787,506.535,17.6606,-0.0,-0.014642,0.00627384,-2.97353,0.00767641,2.29823,2.40036,0.0,2,0,0,0
80996000,47.3977420469,8.54559404416,507.115,18.221,-0.0,-0.0122677,0.0075645,-2.96148,0.00767711,2.29814,2.40031,0.0,2,0,0,0
81188000,47.3977420432,8.54559408367,507.691,18.7771,-0.0,-0.0137277,0.0063096,-2.95215,0.00727589,2.29805,2.40027,0.0,2,0,0,0
81380000,47.3977420501,8.54559413097,508.264,19.3303,-0.0,-0.0109395,0.00347816,-2.95189,0.0071618,2.29796,2.40035,0.0,2,0,0,0
81572000,47.3977420643,8.54559418094,508.838,19.8835,-0.0,-0.00967414,0.00180196,-2.95224,0.00668109,2.29864,2.40041,0.0,2,0,0,0
81764000,47.3977420773,8.54559420921,509.411,20.4368,-0.0,-0.0115494,-0.0033959,-2.95137,0.00768965,2.29855,2.40037,0.0,2,0,0,0
81956000,47.3977420832,8.54559422706,509.982,20.9881,-0.0,-0.0125522,-0.00502229,-2.95484,0.00786423,2.29847,2.40045,0.0,2,0,0,0
82148000,47.3977420886,8.54559425438,510.554,21.5398,-0.0,-0.0118808,-0.0016456,-2.9593,0.00821183,2.2984,2.40041,0.0,2,0,0,0
82340000,47.3977420953,8.5455942749,511.127,22.093,-0.0,-0.00959248,-0.00510888,-2.95897,0.00797688,2.29833,2.40036,0.0,2,0,0,0
82540000,47.3977421032,8.54559429454,511.724,22.67,-0.0,-0.0101128,-0.00434542,-2.96079,0.00759583,2.29832,2.40038,0.0,2,0,0,0
82732000,47.3977421171,8.54559431975,512.295,23.2209,-0.0,-0.0103894,-0.00135155,-2.96092,0.00824517,2.29825,2.40033,0.0,2,0,0,0
82924000,47.3977421427,8.54559435497,512.868,23.7733,-0.0,-0.00717649,-0.00157268,-2.96573,0.00789293,2.29819,2.40042,0.0,2,0,0,0
83116000,47.3977421793,8.54559441065,513.439,24.3343,-0.0,-0.00571944,-0.000965097,-2.96049,0.00766779,2.29813,2.40037,0.0,2,0,0,0
83308000,47.397742208,8.5455944735,514.011,24.8862,-0.0,-0.00954468,-0.00273177,-2.96135,0.00744294,2.29807,2.40033,0.0,2,0,0,0
83508000,47.3977422195,8.54559454821,514.606,25.4616,-0.0,-0.0103827,-0.00432263,-2.95422,0.00741682,2.29808,2.40034,0.0,2,0,0,0
83700000,47.3977422202,8.54559460626,515.175,26.0111,-0.0,-0.013661,-0.00797056,-2.95625,0.00734743,2.29802,2.4003,0.0,2,0,0,0
83892000,47.3977422186,8.54559464303,515.745,26.5605,-0.0,-0.0159378,-0.0151848,-2.96375,0.00790115,2.29797,2.40038,0.0,2,0,0,0
84084000,47.3977422192,8.54559465771,516.316,27.112,-0.0,-0.0151417,-0.0169797,-2.96909,0.00796892,2.29792,2.40034,0.0,2,0,0,0
84276000,47.3977422255,8.54559465382,516.888,27.6633,-0.0,-0.0154474,-0.0191445,-2.97433,0.00798107,2.29787,2.4003,0.0,2,0,0,0
84468000,47.3977422254,8.54559463048,517.459,28.2147,-0.0,-0.0192569,-0.0231734,-2.977,0.00815372,2.29856,2.40048,0.0,2,0,0,0
84660000,47.3977422247,8.54559459977,518.03,28.7656,-0.0,-0.0178043,-0.0230579,-2.98641,0.00758861,2.29851,2.40043,0.0,2,0,0,0
84852000,47.3977422286,8.54559457899,518.602,29.3178,-0.0,-0.0149625,-0.0210722,-2.98875,0.00707335,2.29845,2.40039,0.0,2,0,0,0
85044000,47.3977422286,8.54559455877,519.177,29.8723,-0.0,-0.0163866,-0.0197659,-2.99331,0.00740121,2.29839,2.40034,0.0,2,0,0,0
85236000,47.3977422231,8.5455945359,519.752,30.427,-0.0,-0.0168301,-0.0156944,-2.99188,0.00765279,2.29834,2.40043,0.0,2,0,0,0
85428000,47.3977422128,8.54559450839,520.326,30.9815,-0.0,-0.0157743,-0.0146867,-2.99491,0.00750569,2.29828,2.40039,0.0,2,0,0,0
85620000,47.3977421985,8.54559450354,520.903,31.5381,-0.0,-0.0152825,-0.0137109,-2.99523,0.00774083,2.29823,2.40034,0.0,2,0,0,0
85812000,47.3977421769,8.54559450351,521.48,32.1051,-0.0,-0.015942,-0.014532,-2.9882,0.0074483,2.29817,2.4003,0.0,2,0,0,0
86004000,47.3977421489,8.54559450617,522.055,32.6606,-0.0,-0.0164524,-0.0147462,-2.99017,0.00761284,2.29811,2.40038,0.0,2,0,0,0
86196000,47.3977421226,8.54559449488,522.628,33.2136,-0.0,-0.0146436,-0.016488,-2.98638,0.0077624,2.29806,2.40034,0.0,2,0,0,0
86388000,47.3977420911,8.54559446334,523.2,33.7657,-0.0,-0.0141909,-0.0193427,-2.98302,0.00783474,2.298,2.4003,0.0,2,0,0,0
86588000,47.3977420629,8.54559442718,523.796,34.3409,-0.0,-0.00948517,-0.0163186,-2.97934,0.00758869,2.298,2.40031,0.0,2,0,0,0
86780000,47.3977420396,8.5455943965,524.365,34.89,-0.0,-0.00696046,-0.0125938,-2.98528,0.00759851,2.29795,2.40027,0.0,2,0,0,0
86972000,47.397742016,8.545594361,524.933,35.4384,-0.0,-0.00625587,-0.0115505,-2.98939,0.00759434,2.29865,2.40045,0.0,2,0,0,0
87164000,47.3977419854,8.54559432743,525.502,35.9872,-0.0,-0.00388376,-0.00847224,-2.99625,0.00751617,2.29859,2.40041,0.0,2,0,0,0
87356000,47.3977419647,8.54559429034,526.074,36.5396,-0.0,0.00159453,-0.00752056,-3.00258,0.00789945,2.29852,2.40036,0.0,2,0,0,0
87548000,47.3977419636,8.54559422813,526.648,37.0931,-0.0,0.00631358,-0.00583357,-3.00066,0.00788919,2.29846,2.40032,0.0,2,0,0,0
87740000,47.3977419645,8.54559415203,527.221,37.6459,-0.0,0.00320937,-0.00639537,-3.00569,0.00774366,2.2984,2.40041,0.0,2,0,0,0
87932000,47.3977419526,8.54559407537,527.795,38.1999,-0.0,0.000605908,-0.00109498,-3.00589,0.00793661,2.29834,2.40036,0.0,2,0,0,0
88132000,47.3977419411,8.54559399848,528.394,38.7788,-0.0,0.00343967,0.00364767,-3.00759,0.00763716,2.29834,2.40037,0.0,2,0,0,0
88324000,47.3977419364,8.54559392393,528.97,39.3347,-0.0,0.00394512,0.00421596,-3.00383,0.00778074,2.29827,2.40033,0.0,2,0,0,0
88516000,47.3977419347,8.54559385395,529.545,39.9001,-0.0,0.00457641,0.00886806,-2.9994,0.00820719,2.29821,2.40029,0.0,2,0,0,0
88708000,47.3977419354,8.54559379149,530.118,40.4531,-0.0,0.00617513,0.0118982,-2.98526,0.00764362,2.29815,2.40037,0.0,2,0,0,0
88900000,47.3977419398,8.5455937296,530.688,41.0035,-0.0,0.00666366,0.0168625,-2.98382,0.00788852,2.29809,2.40033,0.0,2,0,0,0
89092000,47.3977419475,8.54559367722,531.259,41.5539,-0.0,0.00918021,0.0228819,-2.97926,0.00759953,2.29803,2.40029,0.0,2,0,0,0
89284000,47.3977419547,8.54559362617,531.828,42.1026,-0.0,0.00781492,0.0275593,-2.97516,0.00778635,2.29797,2.40037,0.0,2,0,0,0
89476000,47.3977419644,8.54559359519,532.396,42.6515,-0.0,0.00814237,0.0353461,-2.96816,0.00759284,2.29791,2.40033,0.0,2,0,0,0
89668000,47.3977419844,8.54559355124,532.965,43.2002,-0.0,0.00790779,0.0340477,-2.96142,0.007798,2.2986,2.40038,0.0,2,0,0,0
89860000,47.3977420074,8.54559351233,533.534,43.7486,-0.0,0.00835699,0.0370062,-2.95309,0.0077902,2.29853,2.40046,0.0,2,0,0,0
90052000,47.3977420323,8.54559348632,534.097,44.2918,-0.0,0.00419374,0.0397568,-2.94694,0.00759819,2.29847,2.40041,0.0,2,0,0,0
90244000,47.3977420522,8.545593463,534.661,44.8363,-0.0,0.00243481,0.0432195,-2.94546,0.00740809,2.2984,2.40049,0.0,2,0,0,0
90436000,47.3977420687,8.545593455,535.227,45.3817,-0.0,0.00322706,0.0484755,-2.93827,0.00747113,2.29834,2.40044,0.0,2,0,0,0
90628000,47.3977420922,8.54559343975,535.792,45.9265,-0.0,0.000204258,0.0433842,-2.92984,0.00750284,2.29828,2.40039,0.0,2,0,0,0
90820000,47.3977421053,8.54559341304,536.354,46.469,-0.0,-0.00487246,0.0416541,-2.92745,0.00789869,2.29821,2.40034,0.0,2,0,0,0
91012000,47.3977421097,8.54559339736,536.919,47.0238,-0.0,-0.00637524,0.0441176,-2.93475,0.00798983,2.29815,2.40042,0.0,2,0,0,0
91204000,47.3977421221,8.54559339889,537.484,47.5686,-0.0,-0.0028911,0.047186,-2.95008,0.00771701,2.29809,2.40037,0.0,2,0,0,0
91396000,47.3977421366,8.54559342665,538.051,48.1158,-0.0,-0.00511062,0.0509221,-2.95729,0.00795755,2.29803,2.40033,0.0,2,0,0,0
91588000,47.3977421385,8.54559346019,538.621,48.6657,-0.0,-0.00786375,0.0476645,-2.96354,0.00777953,2.29797,2.40028,0.0,2,0,0,0
91780000,47.3977421273,8.54559347156,539.191,49.2162,-0.0,-0.0100605,0.0452153,-2.96577,0.0076026,2.29791,2.40036,0.0,2,0,0,0
91972000,47.3977421171,8.54559347768,539.761,49.7663,-0.0,-0.0114758,0.0450796,-2.97323,0.00782812,2.29861,2.40042,0.0,2,0,0,0
92164000,47.3977421027,8.54559347701,540.332,50.3164,-0.0,-0.00805723,0.0443017,-2.97704,0.00798607,2.29854,2.40037,0.0,2,0,0,0
92356000,47.3977420855,8.54559347428,540.901,50.8662,-0.0,-0.00807809,0.0433752,-2.9842,0.00782095,2.29848,2.40045,0.0,2,0,0,0
92548000,47.3977420673,8.54559346274,541.473,51.4177,-0.0,-0.0074617,0.0434645,-2.99401,0.00773967,2.29842,2.4004,0.0,2,0,0,0
92740000,47.3977420671,8.54559345679,542.048,51.9732,-0.0,-0.00315889,0.0443452,-2.99509,0.00737047,2.29836,2.40036,0.0,2,0,0,0
92932000,47.3977420694,8.54559346422,542.625,52.5294,-0.0,-0.000601898,0.0479059,-2.99474,0.00741111,2.2983,2.40044,0.0,2,0,0,0
93124000,47.3977420615,8.54559347169,543.202,53.0863,-0.0,-0.00181287,0.0476772,-2.99035,0.00769269,2.29823,2.40039,0.0,2,0,0,0
93316000,47.3977420423,8.54559348522,543.777,53.6517,-0.0,-0.00704968,0.0437461,-2.98897,0.00766102,2.29817,2.40035,0.0,2,0,0,0
93508000,47.3977420186,8.54559351423,544.352,54.2066,-0.0,-0.0033718,0.0443542,-2.98826,0.00772426,2.29811,2.40043,0.0,2,0,0,0
93700000,47.397742011,8.54559356465,544.928,54.7628,-0.0,-0.00124764,0.0481576,-2.98788,0.00792066,2.29805,2.40038,0.0,2,0,0,0
93892000,47.3977420145,8.54559363038,545.503,55.3177,-0.0,-0.00163288,0.0458284,-2.98686,0.00769016,2.29799,2.40033,0.0,2,0,0,0
94084000,47.397742025,8.54559370729,546.078,55.8726,-0.0,0.00178837,0.0456042,-2.98395,0.00781818,2.29794,2.40029,0.0,2,0,0,0
94276000,47.3977420507,8.54559378909,546.652,56.4265,-0.0,0.00343213,0.0418231,-2.98906,0.0072102,2.29788,2.40037,0.0,2,0,0,0
94468000,47.3977420898,8.54559385718,547.226,56.9803,-0.0,0.00381202,0.0373829,-2.98946,0.00714586,2.29856,2.40043,0.0,2,0,0,0
94660000,47.3977421368,8.54559391115,547.801,57.5352,-0.0,0.000790977,0.0304942,-2.9932,0.00774913,2.2985,2.40038,0.0,2,0,0,0
94852000,47.3977421846,8.54559396356,548.375,58.0899,-0.0,-0.00431143,0.0252247,-2.98672,0.00757825,2.29844,2.40033,0.0,2,0,0,0
95044000,47.3977422264,8.54559400094,548.939,58.6332,-0.0,-0.00803071,0.020867,-2.87149,0.00728418,2.29838,2.40042,0.0,2,0,0,0
95236000,47.3977422574,8.54559404277,549.473,59.1472,-0.0,-0.0131326,0.0203698,-2.69194,0.00752506,2.29831,2.40037,0.0,2,0,0,0
95428000,47.3977422838,8.54559408942,549.977,59.6313,-0.0,-0.0155096,0.0196702,-2.51611,0.00757393,2.29825,2.40033,0.0,2,0,0,0
95620000,47.3977423041,8.54559413561,550.45,60.0843,-0.0,-0.0184005,0.0180593,-2.35248,0.00749239,2.29818,2.40041,0.0,2,0,0,0
95812000,47.397742339,8.5455941734,550.893,60.5179,-0.0,-0.0197974,0.0134933,-2.19306,0.007511,2.29811,2.40037,0.0,2,0,0,0
96004000,47.3977423776,8.5455942017,551.306,60.9105,-0.0,-0.0180772,0.0067374,-2.04684,0.00754647,2.29804,2.40033,0.0,2,0,0,0
96196000,47.397742409,8.54559421228,551.691,61.2755,-0.0,-0.0245026,0.00389827,-1.92574,0.0075453,2.29798,2.40028,0.0,2,0,0,0
96388000,47.3977424195,8.54559422255,552.054,61.618,-0.0,-0.0303047,-0.000480638,-1.81155,0.00768119,2.29791,2.40037,0.0,2,0,0,0
96580000,47.3977424183,8.54559424069,552.393,61.9377,-0.0,-0.0321755,0.0020301,-1.70552,0.00803493,2.29785,2.40033,0.0,2,0,0,0
96772000,47.3977424187,8.54559427824,552.711,62.2355,-0.0,-0.030707,0.000530519,-1.60532,0.0074911,2.29851,2.40038,0.0,2,0,0,0
96972000,47.3977424271,8.54559430751,553.023,62.5269,-0.0,-0.033586,-0.0014674,-1.51011,0.00740849,2.29851,2.40039,0.0,2,0,0,0
97164000,47.3977424294,8.54559433083,553.303,62.7874,-0.0,-0.0352156,-0.00428878,-1.42319,0.00782461,2.29844,2.40035,0.0,2,0,0,0
97356000,47.3977424216,8.5455943281,553.568,63.0324,-0.0,-0.0369165,-0.00811608,-1.34595,0.00783363,2.29837,2.40044,0.0,2,0,0,0
97548000,47.3977424024,8.54559434493,553.818,63.2617,-0.0,-0.0375114,-0.00767262,-1.27081,0.00763327,2.29831,2.40039,0.0,2,0,0,0
97740000,47.3977423746,8.54559438091,554.051,63.4751,-0.0,-0.0352126,-0.00805847,-1.20486,0.0076716,2.29825,2.40035,0.0,2,0,0,0
97932000,47.3977423494,8.54559442397,554.273,63.6768,-0.0,-0.0359139,-0.00854803,-1.14082,0.0075692,2.29819,2.40031,0.0,2,0,0,0
98132000,47.3977423138,8.54559446984,554.49,63.8747,-0.0,-0.0351704,-0.00815142,-1.07425,0.00751051,2.29819,2.40032,0.0,2,0,0,0
98324000,47.397742277,8.54559450649,554.688,64.0525,-0.0,-0.0318727,-0.0117501,-1.01582,0.00737815,2.29813,2.4004,0.0,2,0,0,0
98516000,47.3977422445,8.54559452667,554.874,64.2286,-0.0,-0.0285154,-0.0132795,-0.956702,0.00755319,2.29808,2.40036,0.0,2,0,0,0
98708000,47.3977422126,8.5455945327,555.049,64.3833,-0.0,-0.0249116,-0.0138378,-0.905647,0.00784959,2.29802,2.40032,0.0,2,0,0,0
98900000,47.3977421862,8.54559454045,555.216,64.5298,-0.0,-0.0215828,-0.0180792,-0.857239,0.00772431,2.29797,2.40027,0.0,2,0,0,0
99092000,47.3977421664,8.5455945421,555.373,64.6673,-0.0,-0.0186663,-0.0191285,-0.805337,0.00768528,2.29791,2.40036,0.0,2,0,0,0
99284000,47.3977421526,8.54559453979,555.52,64.7943,-0.0,-0.0151451,-0.0180215,-0.76227,0.00770163,2.29786,2.40031,0.0,2,0,0,0
99476000,47.3977421451,8.54559454572,555.659,64.9126,-0.0,-0.0161805,-0.017965,-0.72007,0.00735302,2.29781,2.40027,0.0,2,0,0,0
99668000,47.3977421288,8.54559455146,555.789,65.0226,-0.0,-0.0164061,-0.0173014,-0.684662,0.00764675,2.29849,2.40045,0.0,2,0,0,0
99868000,47.3977420966,8.5455945479,555.917,65.1313,-0.0,-0.012515,-0.0181969,-0.644769,0.00771986,2.29849,2.40046,0.0,2,0,0,0
100060000,47.3977420802,8.54559452955,556.031,65.2249,-0.0,-0.0111666,-0.0208665,-0.61413,0.00753762,2.29844,2.40041,0.0,2,0,0,0
100252000,47.3977420707,8.5455945158,556.139,65.3131,-0.0,-0.00802022,-0.0180366,-0.584816,0.00754796,2.29838,2.40037,0.0,2,0,0,0
100444000,47.3977420677,8.54559450943,556.242,65.3963,-0.0,-0.00702492,-0.0176281,-0.557463,0.00783864,2.29832,2.40045,0.0,2,0,0,0
100636000,47.3977420675,8.54559450734,556.343,65.4774,-0.0,-0.00476249,-0.0179245,-0.525305,0.00777334,2.29827,2.4004,0.0,2,0,0,0
100828000,47.3977420667,8.54559449068,556.439,65.5529,-0.0,-0.00694485,-0.0186758,-0.49226,0.00737303,2.29821,2.40035,0.0,2,0,0,0
101020000,47.3977420622,8.54559447611,556.527,65.6213,-0.0,-0.00807741,-0.0182968,-0.462956,0.00768487,2.29816,2.40031,0.0,2,0,0,0
101212000,47.3977420568,8.54559446531,556.609,65.693,-0.0,-0.00609371,-0.0176516,-0.437423,0.007629,2.2981,2.40039,0.0,2,0,0,0
101412000,47.3977420585,8.54559444773,556.691,65.7551,-0.0,-0.00494571,-0.0158143,-0.413625,0.00741703,2.2981,2.4004,0.0,2,0,0,0
101604000,47.3977420646,8.54559443835,556.767,65.8109,-0.0,-0.00378518,-0.0148398,-0.388302,0.00754463,2.29805,2.40036,0.0,2,0,0,0
101796000,47.3977420673,8.54559444309,556.836,65.8599,-0.0,-0.00554782,-0.0132921,-0.367036,0.0075012,2.29799,2.40031,0.0,2,0,0,0
101996000,47.3977420611,8.54559444885,556.907,65.9104,-0.0,-0.00503044,-0.0129137,-0.344826,0.00756029,2.29799,2.40032,0.0,2,0,0,0
102188000,47.397742051,8.54559445003,556.971,65.9547,-0.0,-0.00791764,-0.0142167,-0.321887,0.00784793,2.29794,2.4004,0.0,2,0,0,0
102380000,47.3977420329,8.54559446474,557.031,65.9946,-0.0,-0.00769185,-0.0135534,-0.301008,0.00769093,2.29788,2.40035,0.0,2,0,0,0
102572000,47.3977420085,8.54559448169,557.083,66.0265,-0.0,-0.00758118,-0.0109461,-0.287152,0.0077845,2.29857,2.40041,0.0,2,0,0,0
102764000,47.3977419953,8.54559449371,557.133,66.057,-0.0,-0.00381105,-0.0145683,-0.272938,0.00765078,2.29851,2.40036,0.0,2,0,0,0
102956000,47.397741979,8.54559450403,557.183,66.0867,-0.0,-0.00259235,-0.0145196,-0.257655,0.00774527,2.29845,2.40045,0.0,2,0,0,0
103148000,47.3977419638,8.54559452477,557.228,66.112,-0.0,-0.00192249,-0.0128904,-0.243858,0.00804557,2.29839,2.4004,0.0,2,0,0,0
103348000,47.3977419554,8.54559454373,557.274,66.1377,-0.0,0.0018732,-0.0153006,-0.23201,0.00799816,2.29839,2.40041,0.0,2,0,0,0
103548000,47.3977419445,8.54559454748,557.316,66.16,-0.0,0.00326049,-0.0160456,-0.219636,0.00837132,2.29839,2.40042,0.0,2,0,0,0
