timestamp,timestamp_sample,control[0],control[1],control[2],control[3],control[4],control[5],control[6],control[7]
8000,8000,-0.00194892,-0.0046995,0.000167359,0.0,0.0,0.0,0.0,0.0
104000,104000,0.000482347,-0.00122993,-0.000614157,0.0,0.0,0.0,0.0,0.0
200000,200000,0.000495739,0.00205938,0.00110465,0.0,0.0,0.0,0.0,0.0
296000,296000,-0.00358418,0.00571697,-0.000165133,0.0,0.0,0.0,0.0,0.0
392000,392000,0.00049926,-0.0039972,0.000563718,0.0,0.0,0.0,0.0,0.0
488000,488000,-0.00300459,0.00350308,-0.00182731,0.0,0.0,0.0,0.0,0.0
584000,584000,-0.000815873,-0.00286699,0.000292875,0.0,0.0,0.0,0.0,0.0
680000,680000,0.000218778,0.0029517,-0.0012302,0.0,0.0,0.0,0.0,0.0
780000,780000,0.00134135,0.00444211,-0.00123896,0.0,0.0,0.0,0.0,0.0
880000,880000,-0.00554455,-0.00410602,-0.00465442,-0.0,0.0,0.0,0.0,-1.0
980000,980000,-0.00103947,0.00366835,-0.00510023,-0.0,0.0,0.0,0.0,-1.0
1080000,1080000,-0.001119,-0.000746567,-0.00481132,-0.0,0.0,0.0,0.0,-1.0
1176000,1176000,0.00350443,-0.00338359,-0.00430941,-0.0,0.0,0.0,0.0,-1.0
1272000,1272000,0.00268684,-0.00107935,-0.00515783,-0.0,0.0,0.0,0.0,-1.0
1372000,1372000,-0.00115581,0.00364931,-0.00265562,-0.0,0.0,0.0,0.0,-1.0
1468000,1468000,0.00418863,0.00381543,-0.00653365,-0.0,0.0,0.0,0.0,-1.0
1564000,1564000,0.00233787,0.00399672,-0.00532332,-0.0,0.0,0.0,0.0,-1.0
1660000,1660000,0.00223721,-0.000200344,-0.00592252,-0.0,0.0,0.0,0.0,-1.0
1756000,1756000,0.00147091,-0.000140581,-0.0041686,-0.0,0.0,0.0,0.0,-1.0
1856000,1856000,0.00316328,-0.00187038,-0.00485158,-0.0,0.0,0.0,0.0,-1.0
1956000,1956000,0.000935804,-0.00147289,-0.00459915,-0.0,0.0,0.0,0.0,-1.0
2052000,2052000,0.00200134,-0.00123681,-0.00416775,-0.0,0.0,0.0,0.0,-1.0
2152000,2152000,0.00337509,-0.000521247,-0.00408449,-0.0,0.0,0.0,0.0,-1.0
2252000,2252000,0.0023328,-0.0020528,-0.00336416,-0.0,0.0,0.0,0.0,-1.0
2352000,2352000,0.00738087,-0.00135752,-0.00477865,-0.0,0.0,0.0,0.0,-1.0
2452000,2452000,-0.00123671,0.000810627,-0.00242293,-0.0,0.0,0.0,0.0,-1.0
2552000,2552000,0.000853994,-0.0015036,-0.0021173,-0.0,0.0,0.0,0.0,-1.0
2648000,2648000,0.00527422,0.00532231,-0.00315895,-0.0,0.0,0.0,0.0,-1.0
2744000,2744000,-0.000794979,0.00108982,-0.00345747,-0.0,0.0,0.0,0.0,-1.0
2844000,2844000,-0.000220703,0.00172993,-0.00554873,-0.0,0.0,0.0,0.0,-1.0
2944000,2944000,0.00244107,0.00159838,-0.00365989,-0.0,0.0,0.0,0.0,-1.0
3040000,3040000,0.0039437,0.00206484,-0.00542496,-0.0,0.0,0.0,0.0,-1.0
3140000,3140000,0.0020062,-0.00296597,-0.00186015,-0.0,0.0,0.0,0.0,-1.0
3240000,3240000,-0.00156818,-0.00268723,-0.0043952,-0.0,0.0,0.0,0.0,-1.0
3340000,3340000,0.00170676,-0.000990143,-0.00383421,-0.0,0.0,0.0,0.0,-1.0
3440000,3440000,0.00143588,-0.00217151,-0.00228867,-0.0,0.0,0.0,0.0,-1.0
3536000,3536000,0.00189489,-0.00500589,-0.0037117,-0.0,0.0,0.0,0.0,-1.0
3632000,3632000,0.00172691,-0.00208781,-0.00291844,-0.0,0.0,0.0,0.0,-1.0
3732000,3732000,-0.00111208,-0.000153153,-0.00428144,-0.0,0.0,0.0,0.0,-1.0
3832000,3832000,0.0029872,0.00448846,-0.0032616,-0.0,0.0,0.0,0.0,-1.0
3928000,3928000,0.00356246,0.00138123,-0.00372701,-0.0,0.0,0.0,0.0,-1.0
4028000,4028000,0.00610675,4.30521e-05,-0.0031394,-0.0,0.0,0.0,0.0,-1.0
4124000,4124000,0.00281501,0.00400984,-0.00391668,-0.0,0.0,0.0,0.0,-1.0
4224000,4224000,0.000239315,0.00150346,-0.00403717,-0.0,0.0,0.0,0.0,-1.0
4320000,4320000,-0.0011778,-0.00125598,-0.00368922,-0.0,0.0,0.0,0.0,-1.0
4420000,4420000,-0.00334128,0.00251332,-0.00530842,-0.0,0.0,0.0,0.0,-1.0
4520000,4520000,0.000403044,-0.000543943,-0.00348579,-0.0,0.0,0.0,0.0,-1.0
4616000,4616000,-0.000776334,-0.00286366,-0.00252132,-0.0,0.0,0.0,0.0,-1.0
4712000,4712000,0.00491556,0.000799789,-0.0032724,-0.0,0.0,0.0,0.0,-1.0
4808000,4808000,0.00132772,0.000776765,-0.00371084,-0.0,0.0,0.0,0.0,-1.0
4904000,4904000,-0.000594403,-0.00194459,-0.00228283,-0.0,0.0,0.0,0.0,-1.0
5000000,5000000,-0.000206881,-0.000508066,-0.00485411,-0.0,0.0,0.0,0.0,-1.0
5096000,5096000,6.2547e-05,-0.000997711,-0.00269153,-0.0,0.0,0.0,0.0,-1.0
5192000,5192000,0.000128804,0.000809617,-0.00505904,-0.0,0.0,0.0,0.0,-1.0
5288000,5288000,-0.000670045,-0.00224626,-0.0040342,-0.0,0.0,0.0,0.0,-1.0
5388000,5388000,-0.00128048,-0.00021807,-0.0032208,-0.0,0.0,0.0,0.0,-1.0
5484000,5484000,-0.00421829,-3.35765e-05,-0.00413001,-0.0,0.0,0.0,0.0,-1.0
5584000,5584000,-0.00182411,0.000724874,-0.00283003,-0.0,0.0,0.0,0.0,-1.0
5680000,5680000,-0.000650604,0.00147931,-0.00485227,-0.0,0.0,0.0,0.0,-1.0
5780000,5780000,-0.00167222,-0.00153874,-0.00511353,-0.0,0.0,0.0,0.0,-1.0
5880000,5880000,-0.00256687,-0.00116679,-0.00189219,-0.0,0.0,0.0,0.0,-1.0
5980000,5980000,0.00205764,-0.00128557,-0.00363583,-0.0,0.0,0.0,0.0,-1.0
6080000,6080000,0.000349179,-0.00159599,-0.00222449,-0.0,0.0,0.0,0.0,-1.0
6176000,6176000,-0.00346556,-1.61497e-06,-0.00508595,-0.0,0.0,0.0,0.0,-1.0
6272000,6272000,0.000887657,0.00882818,-0.00178679,-0.0,0.0,0.0,0.0,-1.0
6372000,6372000,0.00283801,0.00165953,-0.00369531,-0.0,0.0,0.0,0.0,-1.0
6468000,6468000,0.00286867,0.00120716,-0.00437375,-0.0,0.0,0.0,0.0,-1.0
6568000,6568000,0.000586923,-0.00172325,-0.00418058,-0.0,0.0,0.0,0.0,-1.0
6668000,6668000,0.00234197,0.0056067,-0.00371485,-0.0,0.0,0.0,0.0,-1.0
6768000,6768000,-0.00209556,0.00107292,-0.00459619,-0.0,0.0,0.0,0.0,-1.0
6868000,6868000,0.000762018,0.000379541,-0.00536965,-0.0,0.0,0.0,0.0,-1.0
6968000,6968000,-0.000764028,0.005052,-0.00431309,-0.0,0.0,0.0,0.0,-1.0
7068000,7068000,-0.00246467,0.00595287,-0.00621341,-0.0,0.0,0.0,0.0,-1.0
7164000,7164000,-0.000294078,-0.000696917,-0.00299941,-0.0,0.0,0.0,0.0,-1.0
7264000,7264000,0.00108709,0.00334024,-0.00286079,-0.0,0.0,0.0,0.0,-1.0
7364000,7364000,-0.00331932,0.000276176,-0.00575061,-0.0,0.0,0.0,0.0,-1.0
7460000,7460000,0.000239732,-4.55076e-05,-0.00662244,-0.0,0.0,0.0,0.0,-1.0
7560000,7560000,-0.00152815,0.00326041,-0.00411073,-0.0,0.0,0.0,0.0,-1.0
7660000,7660000,0.00172758,0.00613922,-0.00448786,-0.0,0.0,0.0,0.0,-1.0
7760000,7760000,-0.000978184,0.00248067,-0.00478486,-0.0,0.0,0.0,0.0,-1.0
7860000,7860000,-0.00223498,0.00147632,-0.00528281,-0.0,0.0,0.0,0.0,-1.0
7956000,7956000,-0.00297942,-0.000459912,-0.00367355,-0.0,0.0,0.0,0.0,-1.0
8056000,8056000,-0.000342799,0.00649992,-0.00383146,-0.0,0.0,0.0,0.0,-1.0
8156000,8156000,-0.00418691,0.000835452,-0.00667005,-0.0,0.0,0.0,0.0,-1.0
8252000,8252000,0.000379362,-0.000321477,-0.00462206,-0.0,0.0,0.0,0.0,-1.0
8348000,8348000,-0.00150425,-0.00112872,-0.00447578,-0.0,0.0,0.0,0.0,-1.0
8444000,8444000,-0.00162309,0.00108724,-0.00365881,-0.0,0.0,0.0,0.0,-1.0
8544000,8544000,-0.000158254,-0.0018108,-0.00469436,-0.0,0.0,0.0,0.0,-1.0
8644000,8644000,0.00102444,-0.00103258,-0.00332293,-0.0,0.0,0.0,0.0,-1.0
8740000,8740000,0.000137631,-0.000657002,-0.0042183,-0.0,0.0,0.0,0.0,-1.0
8840000,8840000,0.000228447,0.00344849,-0.00248639,-0.0,0.0,0.0,0.0,-1.0
8936000,8936000,0.00181726,-0.00041003,-0.00528434,-0.0,0.0,0.0,0.0,-1.0
9032000,9032000,-0.00381423,0.00610085,-0.0054424,-0.0,0.0,0.0,0.0,-1.0
9132000,9132000,0.00223428,0.00302279,-0.00379141,-0.0,0.0,0.0,0.0,-1.0
9228000,9228000,-0.00165916,-0.000557912,-0.00444227,-0.0,0.0,0.0,0.0,-1.0
9328000,9328000,-0.000462894,0.00536787,-0.00532491,-0.0,0.0,0.0,0.0,-1.0
9424000,9424000,0.00336007,0.00199239,-0.00377857,-0.0,0.0,0.0,0.0,-1.0
9524000,9524000,-0.00166506,-0.000325319,-0.00635153,-0.0,0.0,0.0,0.0,-1.0
9620000,9620000,0.00446605,0.00332529,-0.00526733,-0.0,0.0,0.0,0.0,-1.0
9720000,9720000,0.00351981,0.00162884,-0.00326261,-0.0,0.0,0.0,0.0,-1.0
9820000,9820000,-0.000242263,-1.67607e-05,-0.00320633,-0.0,0.0,0.0,0.0,-1.0
9920000,9920000,0.00195314,0.00423864,-0.00430059,-0.0,0.0,0.0,0.0,-1.0
10020000,10020000,0.00235266,0.00369551,-0.00476362,-0.0,0.0,0.0,0.0,-1.0
10120000,10120000,0.00273899,0.00247176,-0.005778,-0.0,0.0,0.0,0.0,-1.0
10220000,10220000,0.00229031,0.00143708,-0.00555727,-0.0,0.0,0.0,0.0,-1.0
10316000,10316000,0.00266997,0.000654506,-0.00104458,-0.0,0.0,0.0,0.0,-1.0
10412000,10412000,-0.00169103,0.00213572,-0.00182093,-0.0,0.0,0.0,0.0,-1.0
10512000,10512000,0.00329994,0.00268752,-0.00110454,-0.0,0.0,0.0,0.0,-1.0
10612000,10612000,0.00994086,0.000921251,-0.00218718,-0.0,0.0,0.0,0.0,-1.0
10708000,10708000,0.0040935,0.00162445,-0.00261345,-0.0,0.0,0.0,0.0,-1.0
10808000,10808000,-0.000558854,0.00153539,-0.00115752,-0.0,0.0,0.0,0.0,-1.0
10904000,10904000,0.00250485,-0.00415167,0.000495908,-0.0,0.0,0.0,0.0,-1.0
11000000,11000000,0.000813109,0.00209867,-0.00479781,-0.0,0.0,0.0,0.0,-1.0
11096000,11096000,0.00330835,0.00484432,-0.00269639,-0.0,0.0,0.0,0.0,-1.0
11196000,11196000,0.00148417,0.00282939,-0.00218714,-0.0,0.0,0.0,0.0,-1.0
11292000,11292000,0.00324721,0.00209784,-0.0007598,-0.0,0.0,0.0,0.0,-1.0
11392000,11392000,0.00606687,-0.000138452,-0.00224694,-0.0,0.0,0.0,0.0,-1.0
11492000,11492000,-0.00192817,0.00450541,-0.00320302,-0.0,0.0,0.0,0.0,-1.0
11588000,11588000,0.00131364,-0.00205684,-0.00178829,-0.0,0.0,0.0,0.0,-1.0
11684000,11684000,0.00228446,0.00330686,-0.000983569,-0.0,0.0,0.0,0.0,-1.0
11780000,11780000,0.000253568,-0.000126015,3.11518e-05,-0.0,0.0,0.0,0.0,-1.0
11876000,11876000,0.00139053,0.00206718,-0.00102456,-0.0,0.0,0.0,0.0,-1.0
11972000,11972000,0.00183123,-0.00273109,-0.00151954,-0.0,0.0,0.0,0.0,-1.0
12072000,12072000,0.00111982,0.00169499,-0.000910878,-0.0,0.0,0.0,0.0,-1.0
12172000,12172000,0.00273162,-0.000881257,-0.00140488,-0.0,0.0,0.0,0.0,-1.0
12272000,12272000,-0.00131179,-0.00196373,-0.00295992,-0.0,0.0,0.0,0.0,-1.0
12368000,12368000,0.00189986,-0.00237169,-0.0037328,-0.0,0.0,0.0,0.0,-1.0
12468000,12468000,-0.00652215,-0.00264799,-0.00288189,-0.0,0.0,0.0,0.0,-1.0
12564000,12564000,-0.00238406,-0.00431097,-0.00106136,-0.0,0.0,0.0,0.0,-1.0
12660000,12660000,0.00177587,0.0020679,-0.00177215,-0.0,0.0,0.0,0.0,-1.0
12760000,12760000,-0.000641447,-5.30886e-05,-0.00143805,-0.0,0.0,0.0,0.0,-1.0
12860000,12860000,-0.000880524,0.000831264,-0.0031231,-0.0,0.0,0.0,0.0,-1.0
12960000,12960000,0.000915971,-0.00316456,-0.00310726,-0.0,0.0,0.0,0.0,-1.0
13060000,13060000,0.00398832,0.00196059,-0.00302884,-0.0,0.0,0.0,0.0,-1.0
13160000,13160000,-0.00143017,0.00382253,-0.00201371,-0.0,0.0,0.0,0.0,-1.0
13260000,13260000,0.00137391,0.00262805,-0.00295562,-0.0,0.0,0.0,0.0,-1.0
13356000,13356000,0.000711974,0.00150501,-0.00258361,-0.0,0.0,0.0,0.0,-1.0
13456000,13456000,0.00101952,-0.00399693,-0.00338982,-0.0,0.0,0.0,0.0,-1.0
13552000,13552000,-0.000308486,0.00120092,-0.00323486,-0.0,0.0,0.0,0.0,-1.0
13652000,13652000,-0.00313161,0.000688411,-0.00263957,-0.0,0.0,0.0,0.0,-1.0
13748000,13748000,0.00717048,0.00275244,-0.00350221,-0.0,0.0,0.0,0.0,-1.0
13844000,13844000,0.00157502,0.00197285,-0.00274625,-0.0,0.0,0.0,0.0,-1.0
13940000,13940000,-0.00171399,0.00440426,-0.00175273,-0.0,0.0,0.0,0.0,-1.0
14040000,14040000,0.00214909,0.000201079,-0.00289168,-0.0,0.0,0.0,0.0,-1.0
14140000,14140000,-0.000575097,0.00502464,-0.0029906,-0.0,0.0,0.0,0.0,-1.0
14240000,14240000,-0.000465386,-1.914e-05,-0.00184601,-0.0,0.0,0.0,0.0,-1.0
14336000,14336000,0.00304313,0.00112265,-0.00238227,-0.0,0.0,0.0,0.0,-1.0
14432000,14432000,0.000960403,0.00220902,-0.00268981,-0.0,0.0,0.0,0.0,-1.0
14532000,14532000,-0.00218717,0.00130091,-0.00324589,-0.0,0.0,0.0,0.0,-1.0
14632000,14632000,0.00708713,0.0019177,-0.00402508,-0.0,0.0,0.0,0.0,-1.0
14732000,14732000,0.00149068,0.00197007,-0.00449556,-0.0,0.0,0.0,0.0,-1.0
14832000,14832000,0.0017747,0.00158527,-0.00419203,-0.0,0.0,0.0,0.0,-1.0
14932000,14932000,-0.00106352,-0.00272005,-0.00340345,-0.0,0.0,0.0,0.0,-1.0
15028000,15028000,0.00217905,0.00123019,-0.00437621,-0.0,0.0,0.0,0.0,-1.0
15128000,15128000,-0.00282344,-0.00130562,-0.00280567,-0.0,0.0,0.0,0.0,-1.0
15228000,15228000,0.00698219,0.00214216,-0.0071235,-0.0,0.0,0.0,0.0,-1.0
15328000,15328000,-0.00506618,-0.00592283,-0.0050545,-0.0,0.0,0.0,0.0,-1.0
15428000,15428000,-0.000902074,-0.000452691,-0.00358675,-0.0,0.0,0.0,0.0,-1.0
15528000,15528000,0.00275486,0.00109968,-0.00476746,-0.0,0.0,0.0,0.0,-1.0
15628000,15628000,0.00679466,6.74344e-05,-0.0037442,-0.0,0.0,0.0,0.0,-1.0
15728000,15728000,0.00289665,-0.00116682,-0.00282595,-0.0,0.0,0.0,0.0,-1.0
15828000,15828000,0.00219443,-0.000707783,-0.00519519,-0.0,0.0,0.0,0.0,-1.0
15924000,15924000,0.000402334,0.00145762,-0.00546588,-0.0,0.0,0.0,0.0,-1.0
16024000,16024000,0.00383473,0.00335293,-0.00589086,-0.0,0.0,0.0,0.0,-1.0
16124000,16124000,3.63307e-05,-0.00404193,-0.00442596,-0.0,0.0,0.0,0.0,-1.0
16220000,16220000,0.00324795,-0.00125744,-0.00519526,-0.0,0.0,0.0,0.0,-1.0
16320000,16320000,0.00348742,-0.0013406,-0.00498047,-0.0,0.0,0.0,0.0,-1.0
16416000,16416000,0.00625891,0.00227089,-0.0037226,-0.0,0.0,0.0,0.0,-1.0
16516000,16516000,0.00397131,0.000715425,-0.00470004,-0.0,0.0,0.0,0.0,-1.0
16612000,16612000,-0.000145659,0.00122326,-0.00362434,-0.0,0.0,0.0,0.0,-1.0
16708000,16708000,-0.0019045,-0.00386752,-0.00255353,-0.0,0.0,0.0,0.0,-1.0
16808000,16808000,0.0054796,-0.00179537,-0.00492364,-0.0,0.0,0.0,0.0,-1.0
16904000,16904000,0.00213841,-0.000157905,-0.00412737,-0.0,0.0,0.0,0.0,-1.0
17004000,17004000,0.000731281,-0.000104029,-0.00290401,-0.0,0.0,0.0,0.0,-1.0
17104000,17104000,0.00361306,0.00109326,-0.00301554,-0.0,0.0,0.0,0.0,-1.0
17200000,17200000,0.00355626,0.00420104,-0.00223994,-0.0,0.0,0.0,0.0,-1.0
17296000,17296000,-0.000572957,-0.00104723,-0.00363732,-0.0,0.0,0.0,0.0,-1.0
17392000,17392000,0.00256265,0.00234098,-0.00612144,-0.0,0.0,0.0,0.0,-1.0
17488000,17488000,0.00160729,0.00281332,-0.00338694,-0.0,0.0,0.0,0.0,-1.0
17588000,17588000,0.003192,-0.00150992,-0.00363383,-0.0,0.0,0.0,0.0,-1.0
17684000,17684000,0.00350657,-0.00190848,-0.00402875,-0.0,0.0,0.0,0.0,-1.0
17784000,17784000,0.00356846,0.00229767,-0.0040987,-0.0,0.0,0.0,0.0,-1.0
17880000,17880000,0.00129794,-0.00382527,-0.00396065,-0.0,0.0,0.0,0.0,-1.0
17980000,17980000,0.000795367,-0.00332087,-0.00162729,-0.0,0.0,0.0,0.0,-1.0
18076000,18076000,0.00314819,0.00073007,-0.00131458,-0.0,0.0,0.0,0.0,-1.0
18176000,18176000,-2.50377e-05,-0.000360313,-0.00242548,-0.0,0.0,0.0,0.0,-1.0
18276000,18276000,0.00675309,-0.000832765,-0.00249285,-0.0,0.0,0.0,0.0,-1.0
18376000,18376000,0.00963756,-0.00334964,-0.00469906,-0.0,0.0,0.0,0.0,-1.0
18476000,18476000,0.00669841,0.000382829,-0.00327256,-0.0,0.0,0.0,0.0,-1.0
18576000,18576000,0.00264825,-0.00155909,-0.00427612,-0.0,0.0,0.0,0.0,-1.0
18676000,18676000,0.00311301,-0.000153451,-0.00325389,-0.0,0.0,0.0,0.0,-1.0
18776000,18776000,0.00302749,0.00260678,-0.0032392,-0.0,0.0,0.0,0.0,-1.0
18872000,18872000,0.00597072,-0.00235175,-0.00246472,-0.0,0.0,0.0,0.0,-1.0
18968000,18968000,-0.00242335,0.00573467,-0.00319732,-0.0,0.0,0.0,0.0,-1.0
19068000,19068000,0.00694516,-0.0011844,-0.00365747,-0.0,0.0,0.0,0.0,-1.0
19168000,19168000,-0.00200752,-0.000342623,-0.00228769,-0.0,0.0,0.0,0.0,-1.0
19268000,19268000,0.00101593,-5.76635e-05,-0.00323769,-0.0,0.0,0.0,0.0,-1.0
19368000,19368000,0.00333696,0.00179316,-0.00212631,-0.0,0.0,0.0,0.0,-1.0
19468000,19468000,0.00383341,0.000440406,-0.00192906,-0.0,0.0,0.0,0.0,-1.0
19568000,19568000,-0.000968873,0.000197403,-0.00279207,-0.0,0.0,0.0,0.0,-1.0
19664000,19664000,0.00672384,-0.00602372,-0.00329432,-0.0,0.0,0.0,0.0,-1.0
19764000,19764000,0.0021258,0.00343035,-0.0020707,-0.0,0.0,0.0,0.0,-1.0
19864000,19864000,-0.000256249,0.000798024,-0.00196259,-0.0,0.0,0.0,0.0,-1.0
19964000,19964000,0.00513807,0.00133876,-0.00463086,-0.0,0.0,0.0,0.0,-1.0
20064000,20064000,0.00158526,0.00338488,-0.00305953,-0.0,0.0,0.0,0.0,-1.0
20164000,20164000,-0.00140836,-0.0014592,-0.00193619,-0.0,0.0,0.0,0.0,-1.0
20260000,20260000,0.00166068,-0.00589378,-0.00213523,-0.0,0.0,0.0,0.0,-1.0
20360000,20360000,-0.00201763,-3.65961e-05,-0.0030963,-0.0,0.0,0.0,0.0,-1.0
20460000,20460000,0.000692854,0.00045152,-0.00407165,-0.0,0.0,0.0,0.0,-1.0
20560000,20560000,0.000534958,0.0011816,-0.00244383,-0.0,0.0,0.0,0.0,-1.0
20660000,20660000,0.00112586,-0.00418936,-0.00295378,-0.0,0.0,0.0,0.0,-1.0
20760000,20760000,-0.000611513,0.000275668,-0.00486221,-0.0,0.0,0.0,0.0,-1.0
20860000,20860000,0.00218992,-0.00316474,-0.00273388,-0.0,0.0,0.0,0.0,-1.0
20960000,20960000,0.0016309,0.0021287,-0.00364281,-0.0,0.0,0.0,0.0,-1.0
21056000,21056000,0.00257414,0.000275931,-0.00339977,-0.0,0.0,0.0,0.0,-1.0
21156000,21156000,0.00208783,-1.47128e-05,-0.00395711,-0.0,0.0,0.0,0.0,-1.0
21252000,21252000,-0.00165451,0.00293971,-0.00300038,-0.0,0.0,0.0,0.0,-1.0
21348000,21348000,-0.000226468,0.00255797,-0.00237222,-0.0,0.0,0.0,0.0,-1.0
21444000,21444000,-0.00303443,0.00225151,-0.00267478,-0.0,0.0,0.0,0.0,-1.0
21540000,21540000,0.000366036,-0.00419274,-0.00302788,-0.0,0.0,0.0,0.0,-1.0
21640000,21640000,0.000249137,0.00402929,-0.0029993,-0.0,0.0,0.0,0.0,-1.0
21736000,21736000,-0.00357276,0.00107723,-0.00107329,-0.0,0.0,0.0,0.0,-1.0
21832000,21832000,-0.000232403,0.00422317,-0.0043792,-0.0,0.0,0.0,0.0,-1.0
21932000,21932000,0.00056856,-0.00139655,-0.00243397,-0.0,0.0,0.0,0.0,-1.0
22028000,22028000,0.000361691,0.0039843,-0.00417221,-0.0,0.0,0.0,0.0,-1.0
22128000,22128000,-0.00397333,0.00277,-0.00171932,-0.0,0.0,0.0,0.0,-1.0
22228000,22228000,-0.00716146,0.0079339,-0.00472065,-0.0,0.0,0.0,0.0,-1.0
22324000,22324000,0.000600327,0.00396765,-0.00316471,-0.0,0.0,0.0,0.0,-1.0
22420000,22420000,0.00253488,0.00343465,-0.00272876,-0.0,0.0,0.0,0.0,-1.0
22520000,22520000,-0.000151648,-0.00023981,-0.00355309,-0.0,0.0,0.0,0.0,-1.0
22616000,22616000,-0.00209896,-0.000932683,-0.00289955,-0.0,0.0,0.0,0.0,-1.0
22716000,22716000,-0.00442345,0.00312789,-0.00413054,-0.0,0.0,0.0,0.0,-1.0
22816000,22816000,0.00293594,0.000808479,-0.00376194,-0.0,0.0,0.0,0.0,-1.0
22916000,22916000,0.00466776,0.00383841,-0.00223857,-0.0,0.0,0.0,0.0,-1.0
23012000,23012000,-0.000542076,0.00221562,-0.00369411,-0.0,0.0,0.0,0.0,-1.0
23108000,23108000,-0.0019374,0.0044401,-0.00307153,-0.0,0.0,0.0,0.0,-1.0
23208000,23208000,0.00112521,0.00140922,-0.0031299,-0.0,0.0,0.0,0.0,-1.0
23304000,23304000,-0.00192713,0.00410962,-0.00155089,-0.0,0.0,0.0,0.0,-1.0
23404000,23404000,0.00167053,0.00587813,-0.00231417,-0.0,0.0,0.0,0.0,-1.0
23500000,23500000,0.000133829,0.00317033,-0.00271066,-0.0,0.0,0.0,0.0,-1.0
23596000,23596000,0.00379302,0.000751046,-0.00282141,-0.0,0.0,0.0,0.0,-1.0
23696000,23696000,0.00521448,0.00680481,-0.00389808,-0.0,0.0,0.0,0.0,-1.0
23792000,23792000,0.00364746,0.000182497,-0.00321576,-0.0,0.0,0.0,0.0,-1.0
23892000,23892000,0.0032007,0.00102603,-0.00354503,-0.0,0.0,0.0,0.0,-1.0
23988000,23988000,0.00443635,0.00599555,-0.00278057,-0.0,0.0,0.0,0.0,-1.0
24084000,24084000,-0.00026092,0.0052295,-0.00429462,-0.0,0.0,0.0,0.0,-1.0
24184000,24184000,0.00251598,0.000388433,-0.0029716,-0.0,0.0,0.0,0.0,-1.0
24284000,24284000,0.00205826,0.00173917,-0.00440865,-0.0,0.0,0.0,0.0,-1.0
24384000,24384000,0.00545088,0.00194645,-0.004642,-0.0,0.0,0.0,0.0,-1.0
24480000,24480000,0.00125946,0.00178909,-0.00370346,-0.0,0.0,0.0,0.0,-1.0
24580000,24580000,-0.00178764,0.00313264,-0.00516346,-0.0,0.0,0.0,0.0,-1.0
24676000,24676000,0.00622648,0.00496947,-0.00446801,-0.0,0.0,0.0,0.0,-1.0
24776000,24776000,-0.000407287,0.00416221,-0.00310426,-0.0,0.0,0.0,0.0,-1.0
24876000,24876000,0.00226759,0.00258459,-0.00368336,-0.0,0.0,0.0,0.0,-1.0
24976000,24976000,-0.000648584,-0.000970945,-0.0033808,-0.0,0.0,0.0,0.0,-1.0
25076000,25076000,-0.000819301,0.000125212,-0.00301287,-0.0,0.0,0.0,0.0,-1.0
25176000,25176000,0.00145656,-0.00252583,-0.0031888,-0.0,0.0,0.0,0.0,-1.0
25276000,25276000,0.00497094,0.00310213,-0.004487,-0.0,0.0,0.0,0.0,-1.0
25372000,25372000,0.0014042,0.00670729,-0.0023698,-0.0,0.0,0.0,0.0,-1.0
25472000,25472000,0.0014956,0.00772829,-0.00265674,-0.0,0.0,0.0,0.0,-1.0
25572000,25572000,0.0019165,0.00499991,-0.00385549,-0.0,0.0,0.0,0.0,-1.0
25668000,25668000,-0.000380339,0.000752204,-0.00331823,-0.0,0.0,0.0,0.0,-1.0
25764000,25764000,-0.0021987,0.00224079,-0.00292676,-0.0,0.0,0.0,0.0,-1.0
25860000,25860000,0.000383996,0.00535479,-0.0028791,-0.0,0.0,0.0,0.0,-1.0
25956000,25956000,0.00407442,0.00215396,-0.00437966,-0.0,0.0,0.0,0.0,-1.0
26056000,26056000,0.00132122,0.000438086,-0.00200858,-0.0,0.0,0.0,0.0,-1.0
26152000,26152000,0.00230943,0.000814113,-0.00435111,-0.0,0.0,0.0,0.0,-1.0
26252000,26252000,0.00431562,0.00269378,-0.00294278,-0.0,0.0,0.0,0.0,-1.0
26352000,26352000,0.00506536,0.000275176,-0.00449249,-0.0,0.0,0.0,0.0,-1.0
26452000,26452000,0.00428538,-0.00192341,-0.00630464,-0.0,0.0,0.0,0.0,-1.0
26552000,26552000,0.00679518,0.000496778,-0.00595177,-0.0,0.0,0.0,0.0,-1.0
26648000,26648000,0.00552478,0.00203242,-0.00441429,-0.0,0.0,0.0,0.0,-1.0
26748000,26748000,-0.00187423,0.00993069,-0.00612716,-0.0,0.0,0.0,0.0,-1.0
26844000,26844000,0.00355171,0.00349896,-0.00306031,-0.0,0.0,0.0,0.0,-1.0
26944000,26944000,0.00261739,0.00126969,-0.00433098,-0.0,0.0,0.0,0.0,-1.0
27044000,27044000,0.000609305,0.00323738,-0.00558022,-0.0,0.0,0.0,0.0,-1.0
27140000,27140000,0.00681937,0.000166869,-0.00499706,-0.0,0.0,0.0,0.0,-1.0
27236000,27236000,0.00224016,-0.0018389,-0.00551936,-0.0,0.0,0.0,0.0,-1.0
27336000,27336000,0.0059006,-0.00184602,-0.00574755,-0.0,0.0,0.0,0.0,-1.0
27436000,27436000,0.00556444,0.00681129,-0.00501873,-0.0,0.0,0.0,0.0,-1.0
27536000,27536000,0.00282253,-0.000569406,-0.00533275,-0.0,0.0,0.0,0.0,-1.0
27636000,27636000,0.00399256,0.00142324,-0.00374688,-0.0,0.0,0.0,0.0,-1.0
27732000,27732000,-0.00128584,0.00161471,-0.00460529,-0.0,0.0,0.0,0.0,-1.0
27828000,27828000,0.0013086,-0.0019668,-0.00456322,-0.0,0.0,0.0,0.0,-1.0
27928000,27928000,0.00783892,-0.00325194,-0.00510503,-0.0,0.0,0.0,0.0,-1.0
28028000,28028000,0.0061494,0.00121032,-0.0030046,-0.0,0.0,0.0,0.0,-1.0
28128000,28128000,0.00775031,-0.00221173,-0.00239927,-0.0,0.0,0.0,0.0,-1.0
28224000,28224000,0.00186338,0.00224996,-0.00457858,-0.0,0.0,0.0,0.0,-1.0
28324000,28324000,0.000745092,0.0035801,-0.00468991,-0.0,0.0,0.0,0.0,-1.0
28420000,28420000,0.00100133,-0.00289624,-0.00536054,-0.0,0.0,0.0,0.0,-1.0
28520000,28520000,3.68097e-05,0.00119477,-0.00359534,-0.0,0.0,0.0,0.0,-1.0
28620000,28620000,0.00494194,0.00230337,-0.00361871,-0.0,0.0,0.0,0.0,-1.0
28720000,28720000,-0.00134707,-0.000736968,-0.00467272,-0.0,0.0,0.0,0.0,-1.0
28820000,28820000,0.00246245,0.0016792,-0.00351632,-0.0,0.0,0.0,0.0,-1.0
28920000,28920000,0.00159309,-0.00311296,-0.00452166,-0.0,0.0,0.0,0.0,-1.0
29016000,29016000,0.00391894,-0.000919552,-0.00321046,-0.0,0.0,0.0,0.0,-1.0
29112000,29112000,-0.000387492,-0.000703617,-0.00521131,-0.0,0.0,0.0,0.0,-1.0
29212000,29212000,0.0014689,-0.00312236,-0.00375637,-0.0,0.0,0.0,0.0,-1.0
29308000,29308000,0.00107506,-0.000877201,-0.00403789,-0.0,0.0,0.0,0.0,-1.0
29404000,29404000,0.00382444,-0.00121072,-0.00574376,-0.0,0.0,0.0,0.0,-1.0
29504000,29504000,0.000482716,0.00287126,-0.00285305,-0.0,0.0,0.0,0.0,-1.0
29604000,29604000,0.00306148,0.00025853,-0.00365342,-0.0,0.0,0.0,0.0,-1.0
29700000,29700000,0.00382152,-0.0045517,-0.00412036,-0.0,0.0,0.0,0.0,-1.0
29796000,29796000,0.00267998,-0.00235687,-0.00189904,-0.0,0.0,0.0,0.0,-1.0
29896000,29896000,0.0011782,-0.00353993,-0.00452972,-0.0,0.0,0.0,0.0,-1.0
29996000,29996000,0.00453972,-0.00135786,-0.00487236,-0.0,0.0,0.0,0.0,-1.0
30096000,30096000,0.00245527,0.000249467,-0.00373751,-0.0,0.0,0.0,0.0,-1.0
30196000,30196000,-0.000192629,0.00443214,-0.00394156,-0.0,0.0,0.0,0.0,-1.0
30292000,30292000,0.0018125,0.00227077,-0.00350076,-0.0,0.0,0.0,0.0,-1.0
30388000,30388000,-0.00207773,0.00205263,-0.00233116,-0.0,0.0,0.0,0.0,-1.0
30484000,30484000,-0.00158523,-0.00012342,-0.00248396,-0.0,0.0,0.0,0.0,-1.0
30584000,30584000,0.00215764,-0.00175089,-0.00530586,-0.0,0.0,0.0,0.0,-1.0
30684000,30684000,0.00120877,0.00101022,-0.00490865,-0.0,0.0,0.0,0.0,-1.0
30780000,30780000,-0.00573584,-0.00305722,-0.00237951,-0.0,0.0,0.0,0.0,-1.0
30880000,30880000,0.000346622,0.000755907,-0.00365917,-0.0,0.0,0.0,0.0,-1.0
30980000,30980000,-0.00294381,-0.00208723,-0.00318217,-0.0,0.0,0.0,0.0,-1.0
31076000,31076000,-0.000288813,0.00348426,-0.00199006,-0.0,0.0,0.0,0.0,-1.0
31172000,31172000,0.000818657,0.0036649,-0.00371538,-0.0,0.0,0.0,0.0,-1.0
31272000,31272000,-0.00210413,0.000905738,-0.0040282,-0.0,0.0,0.0,0.0,-1.0
31372000,31372000,0.00580897,-0.00290479,-0.00398058,-0.0,0.0,0.0,0.0,-1.0
31468000,31468000,-0.000507071,-0.00115955,-0.00403426,-0.0,0.0,0.0,0.0,-1.0
31568000,31568000,-0.00179405,0.00215915,-0.00334097,-0.0,0.0,0.0,0.0,-1.0
31664000,31664000,-0.00073258,0.00204753,-0.00436413,-0.0,0.0,0.0,0.0,-1.0
31764000,31764000,-0.00057723,-0.000138665,-0.00473428,-0.0,0.0,0.0,0.0,-1.0
31864000,31864000,-0.000904577,0.000879927,-0.0037506,-0.0,0.0,0.0,0.0,-1.0
31960000,31960000,-0.00395815,0.00237317,-0.00237696,-0.0,0.0,0.0,0.0,-1.0
32056000,32056000,-0.000306009,0.000273848,-0.00257786,-0.0,0.0,0.0,0.0,-1.0
32156000,32156000,-0.00396923,0.00109871,-0.00275873,-0.0,0.0,0.0,0.0,-1.0
32256000,32256000,0.00402321,0.00353169,-0.00400763,-0.0,0.0,0.0,0.0,-1.0
32356000,32356000,1.27964e-06,-0.0024389,-0.00449072,-0.0,0.0,0.0,0.0,-1.0
32456000,32456000,0.000383542,0.00511566,-0.00350938,-0.0,0.0,0.0,0.0,-1.0
32552000,32552000,0.000566065,0.00207511,-0.00451961,-0.0,0.0,0.0,0.0,-1.0
32652000,32652000,-8.77801e-05,0.00776579,-0.00438164,-0.0,0.0,0.0,0.0,-1.0
32752000,32752000,0.00236486,0.000276668,-0.00356326,-0.0,0.0,0.0,0.0,-1.0
32852000,32852000,0.00283086,0.00277084,-0.00303943,-0.0,0.0,0.0,0.0,-1.0
32952000,32952000,-0.00152409,0.003481,-0.0050789,-0.0,0.0,0.0,0.0,-1.0
33052000,33052000,-0.00160151,0.00112523,-0.00393623,-0.0,0.0,0.0,0.0,-1.0
33152000,33152000,-0.00573206,0.0040301,-0.00384134,-0.0,0.0,0.0,0.0,-1.0
33248000,33248000,-0.00238402,0.00246826,-0.00471141,-0.0,0.0,0.0,0.0,-1.0
33344000,33344000,0.00279867,0.0026158,-0.00462329,-0.0,0.0,0.0,0.0,-1.0
33444000,33444000,0.00657165,0.00594517,-0.0043832,-0.0,0.0,0.0,0.0,-1.0
33544000,33544000,-0.00178772,0.00267864,-0.00374028,-0.0,0.0,0.0,0.0,-1.0
33640000,33640000,0.00394218,0.0007395,-0.0044846,-0.0,0.0,0.0,0.0,-1.0
33740000,33740000,0.00366262,0.00295249,-0.00232456,-0.0,0.0,0.0,0.0,-1.0
33836000,33836000,0.00130178,0.004006,-0.00236107,-0.0,0.0,0.0,0.0,-1.0
33932000,33932000,0.00252792,0.00336779,-0.00331681,-0.0,0.0,0.0,0.0,-1.0
34028000,34028000,-0.000743809,0.00718503,-0.00368792,-0.0,0.0,0.0,0.0,-1.0
34128000,34128000,-0.00369226,0.000877194,-0.00464145,-0.0,0.0,0.0,0.0,-1.0
34224000,34224000,0.00414401,0.00607661,-0.00338052,-0.0,0.0,0.0,0.0,-1.0
34324000,34324000,0.000388865,0.00285799,-0.00182498,-0.0,0.0,0.0,0.0,-1.0
34424000,34424000,-0.000236844,0.000779797,-0.00249004,-0.0,0.0,0.0,0.0,-1.0
34524000,34524000,0.00364146,0.00102311,-0.00282279,-0.0,0.0,0.0,0.0,-1.0
34620000,34620000,-0.00194138,-0.00131394,-0.00446907,-0.0,0.0,0.0,0.0,-1.0
34716000,34716000,0.00500442,0.00329635,-0.00279175,-0.0,0.0,0.0,0.0,-1.0
34816000,34816000,0.00438855,-0.00104544,-0.00254286,-0.0,0.0,0.0,0.0,-1.0
34912000,34912000,-0.000681417,0.00239084,-0.00243767,-0.0,0.0,0.0,0.0,-1.0
35012000,35012000,0.000115729,0.00326272,-0.00128046,-0.0,0.0,0.0,0.0,-1.0
35112000,35112000,-0.00487954,0.00983894,-0.00207039,-0.0,0.0,0.0,0.0,-1.0
35208000,35208000,0.00205199,0.00417078,-0.0024163,-0.0,0.0,0.0,0.0,-1.0
35304000,35304000,0.00211521,0.0064908,-0.00102745,-0.0,0.0,0.0,0.0,-1.0
35404000,35404000,0.00257069,0.005197,-0.00224351,-0.0,0.0,0.0,0.0,-1.0
35504000,35504000,0.00130148,0.000964906,-0.00211677,-0.0,0.0,0.0,0.0,-1.0
35600000,35600000,0.00235893,0.00470363,-0.00267529,-0.0,0.0,0.0,0.0,-1.0
35696000,35696000,-0.000239856,0.0017331,-0.00239785,-0.0,0.0,0.0,0.0,-1.0
35792000,35792000,-0.00203975,0.00376918,-0.00391211,-0.0,0.0,0.0,0.0,-1.0
35892000,35892000,0.000202881,0.00128481,-0.0026978,-0.0,0.0,0.0,0.0,-1.0
35992000,35992000,0.00279493,0.00383848,-0.00244653,-0.0,0.0,0.0,0.0,-1.0
36092000,36092000,0.000488859,0.00506669,-0.00332633,-0.0,0.0,0.0,0.0,-1.0
36192000,36192000,-0.00107768,0.00497086,-0.00312992,-0.0,0.0,0.0,0.0,-1.0
36288000,36288000,0.00272871,0.00190751,-0.00425045,-0.0,0.0,0.0,0.0,-1.0
36384000,36384000,0.00149595,0.00578064,-0.00156382,-0.0,0.0,0.0,0.0,-1.0
36484000,36484000,0.00330335,0.00286147,-0.00334511,-0.0,0.0,0.0,0.0,-1.0
36584000,36584000,0.00176422,0.00502168,-0.00226028,-0.0,0.0,0.0,0.0,-1.0
36680000,36680000,0.00299741,0.00734108,-0.00162077,-0.0,0.0,0.0,0.0,-1.0
36780000,36780000,-0.00250871,0.00418229,-0.00312595,-0.0,0.0,0.0,0.0,-1.0
36880000,36880000,5.28232e-05,0.00262819,-0.00387689,-0.0,0.0,0.0,0.0,-1.0
36976000,36976000,0.00242514,0.0052285,-0.00132446,-0.0,0.0,0.0,0.0,-1.0
37076000,37076000,0.000790577,0.00136806,-0.00385857,-0.0,0.0,0.0,0.0,-1.0
37176000,37176000,-0.00277279,0.00329696,-0.00259392,-0.0,0.0,0.0,0.0,-1.0
37272000,37272000,-0.00199793,-0.000186456,-0.00328878,-0.0,0.0,0.0,0.0,-1.0
37368000,37368000,-0.000490132,-0.000978025,-0.00269082,-0.0,0.0,0.0,0.0,-1.0
37468000,37468000,0.000829451,-0.00389059,-0.00226117,-0.0,0.0,0.0,0.0,-1.0
37568000,37568000,0.00556762,0.000489319,-0.00222027,-0.0,0.0,0.0,0.0,-1.0
37664000,37664000,-0.00297329,0.000488365,-0.00247906,-0.0,0.0,0.0,0.0,-1.0
37760000,37760000,0.00112976,0.00155452,-0.00275053,-0.0,0.0,0.0,0.0,-1.0
37860000,37860000,0.00224852,0.00406361,-0.00173378,-0.0,0.0,0.0,0.0,-1.0
37960000,37960000,0.000782852,0.00195822,-0.000747977,-0.0,0.0,0.0,0.0,-1.0
38060000,38060000,-0.00642064,0.00674709,-0.00443406,-0.0,0.0,0.0,0.0,-1.0
38160000,38160000,0.000777667,-0.000294519,-0.00234565,-0.0,0.0,0.0,0.0,-1.0
38256000,38256000,0.00581664,-0.00319629,-0.00270019,-0.0,0.0,0.0,0.0,-1.0
38356000,38356000,-0.000538192,0.00168485,-0.00250169,-0.0,0.0,0.0,0.0,-1.0
38456000,38456000,0.00233881,0.00265911,-0.00125515,-0.0,0.0,0.0,0.0,-1.0
38556000,38556000,0.000754796,0.00258091,-0.00303897,-0.0,0.0,0.0,0.0,-1.0
38652000,38652000,0.00259246,0.00214693,-0.00217285,-0.0,0.0,0.0,0.0,-1.0
38748000,38748000,0.00443035,0.000844599,-0.00292522,-0.0,0.0,0.0,0.0,-1.0
38844000,38844000,0.000224453,-0.0030875,-0.00284003,-0.0,0.0,0.0,0.0,-1.0
38940000,38940000,0.000132574,9.91484e-05,-0.00423284,-0.0,0.0,0.0,0.0,-1.0
39040000,39040000,0.000406347,0.00283991,-0.00373364,-0.0,0.0,0.0,0.0,-1.0
39140000,39140000,0.00412126,0.00219045,-0.00321999,-0.0,0.0,0.0,0.0,-1.0
39236000,39236000,-0.00399003,-0.00114814,-0.00305941,-0.0,0.0,0.0,0.0,-1.0
39336000,39336000,0.000263772,-4.67727e-05,-0.00108097,-0.0,0.0,0.0,0.0,-1.0
39436000,39436000,0.000901054,0.0053224,-0.0029604,-0.0,0.0,0.0,0.0,-1.0
39536000,39536000,0.00106344,-0.00423947,-0.00330082,-0.0,0.0,0.0,0.0,-1.0
39632000,39632000,0.00334862,-0.000847056,-0.00256059,-0.0,0.0,0.0,0.0,-1.0
39728000,39728000,0.00307799,-0.00298818,-0.00311794,-0.0,0.0,0.0,0.0,-1.0
39828000,39828000,0.00120895,0.00363696,-0.00331744,-0.0,0.0,0.0,0.0,-1.0
39928000,39928000,-0.000959967,-0.00194844,-0.00355117,-0.0,0.0,0.0,0.0,-1.0
40024000,40024000,0.00273147,-0.0007652,-0.00389029,-0.0,0.0,0.0,0.0,-1.0
40124000,40124000,-0.00149522,-0.00264775,-0.00329846,-0.0,0.0,0.0,0.0,-1.0
40224000,40224000,-0.000779876,-0.000273847,-0.00322712,-0.0,0.0,0.0,0.0,-1.0
40320000,40320000,0.00175329,0.00211898,-0.0058486,-0.0,0.0,0.0,0.0,-1.0
40420000,40420000,0.00126177,0.00242166,-0.00398721,-0.0,0.0,0.0,0.0,-1.0
40520000,40520000,0.00565572,-0.00285277,-0.00446319,-0.0,0.0,0.0,0.0,-1.0
40620000,40620000,0.00142477,0.0023358,-0.00303696,-0.0,0.0,0.0,0.0,-1.0
40716000,40716000,0.00369736,0.0029899,-0.00377649,-0.0,0.0,0.0,0.0,-1.0
40812000,40812000,0.00236393,0.00100086,-0.0030106,-0.0,0.0,0.0,0.0,-1.0
40912000,40912000,-0.00101638,7.1623e-05,-0.0063096,-0.0,0.0,0.0,0.0,-1.0
41012000,41012000,0.000432368,0.000512233,-0.00294155,-0.0,0.0,0.0,0.0,-1.0
41112000,41112000,0.00061032,-0.000925266,-0.00455145,-0.0,0.0,0.0,0.0,-1.0
41212000,41212000,0.00221681,-0.00342028,-0.00381466,-0.0,0.0,0.0,0.0,-1.0
41312000,41312000,0.00433792,-0.000302434,-0.0045886,-0.0,0.0,0.0,0.0,-1.0
41408000,41408000,-0.00164209,0.000835816,-0.00349862,-0.0,0.0,0.0,0.0,-1.0
41504000,41504000,0.00183953,0.00204061,-0.00374869,-0.0,0.0,0.0,0.0,-1.0
41604000,41604000,0.00116472,0.00146636,-0.00430737,-0.0,0.0,0.0,0.0,-1.0
41704000,41704000,-0.00542786,-0.00124197,-0.00449299,-0.0,0.0,0.0,0.0,-1.0
41804000,41804000,-0.00275848,0.000722704,-0.00404325,-0.0,0.0,0.0,0.0,-1.0
41904000,41904000,0.00167692,-0.00252703,-0.00306015,-0.0,0.0,0.0,0.0,-1.0
42004000,42004000,-0.00158599,-6.59104e-05,-0.0039793,-0.0,0.0,0.0,0.0,-1.0
42100000,42100000,0.000181818,-1.05066e-05,-0.0045102,-0.0,0.0,0.0,0.0,-1.0
42200000,42200000,-0.000267771,0.000768301,-0.00419281,-0.0,0.0,0.0,0.0,-1.0
42296000,42296000,-0.00554953,-0.000427491,-0.00267491,-0.0,0.0,0.0,0.0,-1.0
42392000,42392000,0.000120106,-0.00627743,-0.00328606,-0.0,0.0,0.0,0.0,-1.0
42492000,42492000,-0.00275564,0.00386655,-0.00287922,-0.0,0.0,0.0,0.0,-1.0
42592000,42592000,-0.00265103,0.00173753,-0.0025422,-0.0,0.0,0.0,0.0,-1.0
42688000,42688000,8.89762e-05,-0.0021663,-0.00350112,-0.0,0.0,0.0,0.0,-1.0
42788000,42788000,0.000929217,-0.00207404,-0.00375892,-0.0,0.0,0.0,0.0,-1.0
42884000,42884000,0.00342706,0.00135607,-0.0026675,-0.0,0.0,0.0,0.0,-1.0
42984000,42984000,0.00171195,0.000608275,-0.00507021,-0.0,0.0,0.0,0.0,-1.0
43084000,43084000,-0.00194364,0.000887647,-0.00167873,-0.0,0.0,0.0,0.0,-1.0
43180000,43180000,0.00274112,-0.000167341,-0.0028221,-0.0,0.0,0.0,0.0,-1.0
43280000,43280000,0.000695336,-0.000556067,-0.00328007,-0.0,0.0,0.0,0.0,-1.0
43380000,43380000,-0.000121421,-0.00179253,-0.00377504,-0.0,0.0,0.0,0.0,-1.0
43476000,43476000,0.00278626,0.0026819,-0.00317992,-0.0,0.0,0.0,0.0,-1.0
43576000,43576000,0.00109417,-0.000599333,-0.00453554,-0.0,0.0,0.0,0.0,-1.0
43672000,43672000,0.00219704,0.000246134,-0.00619676,-0.0,0.0,0.0,0.0,-1.0
43772000,43772000,0.00122251,0.00147076,-0.00336453,-0.0,0.0,0.0,0.0,-1.0
43872000,43872000,-0.0033795,6.98896e-06,-0.00366515,-0.0,0.0,0.0,0.0,-1.0
43972000,43972000,0.00432178,-0.000242523,-0.00413917,-0.0,0.0,0.0,0.0,-1.0
44068000,44068000,0.0016131,0.00140704,-0.00438889,-0.0,0.0,0.0,0.0,-1.0
44168000,44168000,0.00260552,0.00210475,-0.00272566,-0.0,0.0,0.0,0.0,-1.0
44268000,44268000,0.00274072,0.00340319,-0.00585717,-0.0,0.0,0.0,0.0,-1.0
44368000,44368000,0.00175512,0.00345373,-0.00395402,-0.0,0.0,0.0,0.0,-1.0
44464000,44464000,0.00255988,0.000948462,-0.00297709,-0.0,0.0,0.0,0.0,-1.0
44564000,44564000,0.00305817,0.000415389,-0.00299699,-0.0,0.0,0.0,0.0,-1.0
44660000,44660000,-0.00480311,9.20065e-05,-0.00364429,-0.0,0.0,0.0,0.0,-1.0
44760000,44760000,0.00489217,0.000675084,-0.00410201,-0.0,0.0,0.0,0.0,-1.0
44860000,44860000,-0.00187794,0.00226394,-0.00375374,-0.0,0.0,0.0,0.0,-1.0
44960000,44960000,0.00470211,0.000146623,-0.00351355,-0.0,0.0,0.0,0.0,-1.0
45060000,45060000,0.00201319,-0.000310333,-0.00365709,-0.0,0.0,0.0,0.0,-1.0
45160000,45160000,-0.000202453,0.00501166,-0.00347851,-0.0,0.0,0.0,0.0,-1.0
45260000,45260000,0.00251149,-0.000928389,-0.00453121,-0.0,0.0,0.0,0.0,-1.0
45356000,45356000,0.00233106,-0.00416576,-0.0028067,-0.0,0.0,0.0,0.0,-1.0
45456000,45456000,0.00297357,0.00459728,-0.00352655,-0.0,0.0,0.0,0.0,-1.0
45556000,45556000,0.00421032,0.000145836,-0.00343867,-0.0,0.0,0.0,0.0,-1.0
45656000,45656000,1.8006e-05,0.00345927,-0.00115356,-0.0,0.0,0.0,0.0,-1.0
45756000,45756000,0.00111247,0.00224619,-0.00316543,-0.0,0.0,0.0,0.0,-1.0
45852000,45852000,0.00590046,0.000326636,-0.00198118,-0.0,0.0,0.0,0.0,-1.0
45952000,45952000,0.00638267,-0.000770931,-0.00257845,-0.0,0.0,0.0,0.0,-1.0
46048000,46048000,0.00374661,0.00334083,-0.00388232,-0.0,0.0,0.0,0.0,-1.0
46148000,46148000,0.001671,0.00317769,-0.00256807,-0.0,0.0,0.0,0.0,-1.0
46248000,46248000,0.000720636,0.00422754,-0.00266964,-0.0,0.0,0.0,0.0,-1.0
46344000,46344000,0.00526866,-0.000916708,-0.00263174,-0.0,0.0,0.0,0.0,-1.0
46440000,46440000,-0.00110231,0.00167687,-0.00221279,-0.0,0.0,0.0,0.0,-1.0
46540000,46540000,0.0097811,0.00203837,-0.00291937,-0.0,0.0,0.0,0.0,-1.0
46636000,46636000,-0.0011821,0.000700088,-0.00315065,-0.0,0.0,0.0,0.0,-1.0
46736000,46736000,0.0015444,0.000550452,-0.00270475,-0.0,0.0,0.0,0.0,-1.0
46836000,46836000,0.00103396,0.00339069,-0.00198008,-0.0,0.0,0.0,0.0,-1.0
46936000,46936000,-0.000910299,-0.00244237,-0.00146013,-0.0,0.0,0.0,0.0,-1.0
47036000,47036000,0.00246929,2.67536e-05,-0.00278687,-0.0,0.0,0.0,0.0,-1.0
47132000,47132000,0.00491706,-0.000285849,-0.00320015,-0.0,0.0,0.0,0.0,-1.0
47232000,47232000,0.00212187,0.000447258,-0.00162842,-0.0,0.0,0.0,0.0,-1.0
47332000,47332000,-0.000784005,0.0031664,-0.00283551,-0.0,0.0,0.0,0.0,-1.0
47428000,47428000,0.00230972,0.00463464,-0.00307721,-0.0,0.0,0.0,0.0,-1.0
47528000,47528000,-0.0031853,-0.000831942,-0.00243026,-0.0,0.0,0.0,0.0,-1.0
47624000,47624000,-0.00144454,-0.000626747,-0.00180657,-0.0,0.0,0.0,0.0,-1.0
47720000,47720000,0.00792218,0.00550587,-0.00284753,-0.0,0.0,0.0,0.0,-1.0
47820000,47820000,0.00345002,0.00330085,-0.00261332,-0.0,0.0,0.0,0.0,-1.0
47920000,47920000,0.00630721,0.00232159,-0.00322713,-0.0,0.0,0.0,0.0,-1.0
48016000,48016000,0.000855549,0.000862608,-0.00484484,-0.0,0.0,0.0,0.0,-1.0
48116000,48116000,0.00469578,-0.00244548,-0.00267223,-0.0,0.0,0.0,0.0,-1.0
48212000,48212000,0.00376841,0.00311168,-0.00279774,-0.0,0.0,0.0,0.0,-1.0
48308000,48308000,0.0046039,0.00176189,-0.00387534,-0.0,0.0,0.0,0.0,-1.0
48408000,48408000,0.000149596,0.0028001,-0.00344198,-0.0,0.0,0.0,0.0,-1.0
48508000,48508000,-0.00178934,-0.00389263,-0.00312943,-0.0,0.0,0.0,0.0,-1.0
48604000,48604000,0.003305,0.0051653,-0.00256661,-0.0,0.0,0.0,0.0,-1.0
48700000,48700000,0.00371606,0.0053574,-0.00191513,-0.0,0.0,0.0,0.0,-1.0
48796000,48796000,0.000845054,0.00229888,-0.00179068,-0.0,0.0,0.0,0.0,-1.0
48896000,48896000,-0.00243401,-0.00205683,-0.004362,-0.0,0.0,0.0,0.0,-1.0
48996000,48996000,-0.00299712,-0.000291381,-0.00323137,-0.0,0.0,0.0,0.0,-1.0
49096000,49096000,0.00347058,-0.00241462,-0.00367141,-0.0,0.0,0.0,0.0,-1.0
49196000,49196000,0.00480827,0.00459119,-0.00229665,-0.0,0.0,0.0,0.0,-1.0
49292000,49292000,-0.00168427,0.0041833,-0.00251904,-0.0,0.0,0.0,0.0,-1.0
49392000,49392000,0.000380758,-0.0027746,-0.0027113,-0.0,0.0,0.0,0.0,-1.0
49492000,49492000,0.00244618,0.00362853,-0.00233775,-0.0,0.0,0.0,0.0,-1.0
49592000,49592000,0.00186239,0.00186188,-0.00456077,-0.0,0.0,0.0,0.0,-1.0
49692000,49692000,0.00125303,0.00183717,-0.00257859,-0.0,0.0,0.0,0.0,-1.0
49788000,49788000,0.00112709,-0.0018289,-0.0010656,-0.0,0.0,0.0,0.0,-1.0
49884000,49884000,0.000770747,-0.00185836,-0.00398822,-0.0,0.0,0.0,0.0,-1.0
49984000,49984000,0.00356928,0.00125618,-0.00490838,-0.0,0.0,0.0,0.0,-1.0
50084000,50084000,0.00313575,0.0031247,-0.0032594,-0.0,0.0,0.0,0.0,-1.0
50184000,50184000,-0.00421792,0.00411826,-0.00394395,-0.0,0.0,0.0,0.0,-1.0
50284000,50284000,-0.000393847,0.00056934,-0.00198057,-0.0,0.0,0.0,0.0,-1.0
50384000,50384000,0.0018199,0.000940842,-0.00360238,-0.0,0.0,0.0,0.0,-1.0
50484000,50484000,0.00153224,0.000318694,-0.00459089,-0.0,0.0,0.0,0.0,-1.0
50584000,50584000,-1.2971e-06,-0.0009827,-0.00386284,-0.0,0.0,0.0,0.0,-1.0
50684000,50684000,0.00180257,0.00236692,-0.00483664,-0.0,0.0,0.0,0.0,-1.0
50784000,50784000,0.0013634,0.00450961,-0.00354283,-0.0,0.0,0.0,0.0,-1.0
50880000,50880000,0.0024609,0.00226107,-0.00138652,-0.0,0.0,0.0,0.0,-1.0
50976000,50976000,0.00328144,0.00382611,-0.00534727,-0.0,0.0,0.0,0.0,-1.0
51072000,51072000,0.00346587,0.000603298,-0.00510432,-0.0,0.0,0.0,0.0,-1.0
51172000,51172000,0.00572068,-0.000966166,-0.0029164,-0.0,0.0,0.0,0.0,-1.0
51272000,51272000,0.00307882,0.00199037,-0.00421732,-0.0,0.0,0.0,0.0,-1.0
51368000,51368000,0.00219157,0.00143484,-0.00282145,-0.0,0.0,0.0,0.0,-1.0
51468000,51468000,0.000924266,0.00242999,-0.00304446,-0.0,0.0,0.0,0.0,-1.0
51568000,51568000,-0.00103559,0.00349277,-0.00416235,-0.0,0.0,0.0,0.0,-1.0
51668000,51668000,0.00477669,-0.00400895,-0.00379087,-0.0,0.0,0.0,0.0,-1.0
51768000,51768000,0.00323339,0.00373687,-0.00361761,-0.0,0.0,0.0,0.0,-1.0
51864000,51864000,0.0044416,0.000573657,-0.00381062,-0.0,0.0,0.0,0.0,-1.0
51964000,51964000,0.000932754,0.00459101,-0.00190014,-0.0,0.0,0.0,0.0,-1.0
52064000,52064000,-0.00104837,0.00413209,-0.00155718,-0.0,0.0,0.0,0.0,-1.0
52164000,52164000,0.00275361,0.00523432,-0.00386455,-0.0,0.0,0.0,0.0,-1.0
52264000,52264000,0.00123108,0.00315358,-0.00133702,-0.0,0.0,0.0,0.0,-1.0
52364000,52364000,0.00308186,0.00105564,-0.002624,-0.0,0.0,0.0,0.0,-1.0
52460000,52460000,0.00151282,-0.00351767,-0.00399351,-0.0,0.0,0.0,0.0,-1.0
52560000,52560000,0.000260435,-0.00204171,-0.00227339,-0.0,0.0,0.0,0.0,-1.0
52656000,52656000,0.000302922,0.000232082,-0.00347142,-0.0,0.0,0.0,0.0,-1.0
52756000,52756000,0.000484788,0.00233282,-0.00290546,-0.0,0.0,0.0,0.0,-1.0
52856000,52856000,-0.00351535,0.00269429,-0.00292725,-0.0,0.0,0.0,0.0,-1.0
52956000,52956000,0.00381176,0.00200112,-0.00327707,-0.0,0.0,0.0,0.0,-1.0
53052000,53052000,0.00499551,-0.00105378,-0.00354934,-0.0,0.0,0.0,0.0,-1.0
53148000,53148000,0.00152127,0.00248544,-0.00310582,-0.0,0.0,0.0,0.0,-1.0
53248000,53248000,1.60345e-05,0.00147513,-0.00223998,-0.0,0.0,0.0,0.0,-1.0
53348000,53348000,-0.000945239,0.0011208,-0.00385521,-0.0,0.0,0.0,0.0,-1.0
53444000,53444000,0.000168318,0.00209721,-0.00249864,-0.0,0.0,0.0,0.0,-1.0
53544000,53544000,-0.00339716,0.001122,-0.00246946,-0.0,0.0,0.0,0.0,-1.0
53644000,53644000,0.000580971,0.00387397,-0.00356416,-0.0,0.0,0.0,0.0,-1.0
53744000,53744000,-0.000884902,0.00422967,-0.00221974,-0.0,0.0,0.0,0.0,-1.0
53844000,53844000,0.0034742,0.000757679,-0.00345489,-0.0,0.0,0.0,0.0,-1.0
53944000,53944000,0.00243319,0.00245197,-0.00369216,-0.0,0.0,0.0,0.0,-1.0
54044000,54044000,-0.00215728,0.00713673,-0.00367235,-0.0,0.0,0.0,0.0,-1.0
54140000,54140000,0.00392897,0.0038028,-0.00240494,-0.0,0.0,0.0,0.0,-1.0
54236000,54236000,-0.000256848,0.0035947,-0.00493943,-0.0,0.0,0.0,0.0,-1.0
54336000,54336000,0.00225842,0.00154394,-0.00319319,-0.0,0.0,0.0,0.0,-1.0
54436000,54436000,-0.00261832,0.00743302,-0.00391806,-0.0,0.0,0.0,0.0,-1.0
54536000,54536000,0.0008722,0.00124235,-0.00290599,-0.0,0.0,0.0,0.0,-1.0
54636000,54636000,-0.00435098,0.00577694,-0.00343142,-0.0,0.0,0.0,0.0,-1.0
54736000,54736000,0.00139472,0.00147676,-0.00314871,-0.0,0.0,0.0,0.0,-1.0
54832000,54832000,0.00309421,0.00511173,-0.00320021,-0.0,0.0,0.0,0.0,-1.0
54932000,54932000,0.000258431,0.0049629,-0.00295987,-0.0,0.0,0.0,0.0,-1.0
55032000,55032000,0.00301058,0.00199385,-0.0035505,-0.0,0.0,0.0,0.0,-1.0
55132000,55132000,0.00173723,0.00512343,-0.004219,-0.0,0.0,0.0,0.0,-1.0
55232000,55232000,0.00419133,0.00299112,-0.00430391,-0.0,0.0,0.0,0.0,-1.0
55332000,55332000,0.00116404,0.00390593,-0.00469902,-0.0,0.0,0.0,0.0,-1.0
55432000,55432000,0.0041357,0.0048634,-0.00536552,-0.0,0.0,0.0,0.0,-1.0
55528000,55528000,-0.0012003,0.00542913,-0.00218879,-0.0,0.0,0.0,0.0,-1.0
55624000,55624000,0.00106013,0.00207582,-0.00380601,-0.0,0.0,0.0,0.0,-1.0
55720000,55720000,0.000105288,0.0048311,-0.00270833,-0.0,0.0,0.0,0.0,-1.0
55820000,55820000,-0.00158697,0.00478891,-0.00258419,-0.0,0.0,0.0,0.0,-1.0
55916000,55916000,0.00127584,0.00879708,-0.00184356,-0.0,0.0,0.0,0.0,-1.0
56012000,56012000,0.00134222,0.00249795,-0.00202787,-0.0,0.0,0.0,0.0,-1.0
56108000,56108000,0.00174479,0.00255305,-0.00256368,-0.0,0.0,0.0,0.0,-1.0
56208000,56208000,-0.000393361,0.00626595,-0.0034401,-0.0,0.0,0.0,0.0,-1.0
56308000,56308000,0.00237613,0.00242553,-0.00265023,-0.0,0.0,0.0,0.0,-1.0
56408000,56408000,0.00164153,-0.00193967,-0.00412409,-0.0,0.0,0.0,0.0,-1.0
56508000,56508000,-0.00164723,0.00237008,-0.00161716,-0.0,0.0,0.0,0.0,-1.0
56608000,56608000,0.00487247,0.00321384,-0.00355339,-0.0,0.0,0.0,0.0,-1.0
56708000,56708000,-0.00147462,0.00476183,-0.00286429,-0.0,0.0,0.0,0.0,-1.0
56804000,56804000,0.000266858,0.00148217,-0.00405535,-0.0,0.0,0.0,0.0,-1.0
56904000,56904000,-0.000673044,0.006438,-0.00439591,-0.0,0.0,0.0,0.0,-1.0
57000000,57000000,0.000484685,0.00600565,-0.00298648,-0.0,0.0,0.0,0.0,-1.0
57096000,57096000,-0.000986378,0.000630218,-0.00397503,-0.0,0.0,0.0,0.0,-1.0
57192000,57192000,0.000393415,-0.000509712,-0.00465187,-0.0,0.0,0.0,0.0,-1.0
57292000,57292000,-0.000368055,0.0020179,-0.00472392,-0.0,0.0,0.0,0.0,-1.0
57392000,57392000,-0.00269021,0.00246111,-0.0049539,-0.0,0.0,0.0,0.0,-1.0
57492000,57492000,-0.00343242,0.00303137,-0.0038404,-0.0,0.0,0.0,0.0,-1.0
57592000,57592000,0.00373344,0.00360849,-0.00533157,-0.0,0.0,0.0,0.0,-1.0
57692000,57692000,-0.000430295,0.00032732,-0.00314739,-0.0,0.0,0.0,0.0,-1.0
57792000,57792000,0.00359052,0.00351082,-0.00409439,-0.0,0.0,0.0,0.0,-1.0
57892000,57892000,0.000776411,0.00262921,-0.00385558,-0.0,0.0,0.0,0.0,-1.0
57992000,57992000,-0.00227247,0.00363013,-0.00348632,-0.0,0.0,0.0,0.0,-1.0
58088000,58088000,-0.000388223,0.000394824,-0.00572907,-0.0,0.0,0.0,0.0,-1.0
58188000,58188000,0.000179191,0.00410804,-0.00627069,-0.0,0.0,0.0,0.0,-1.0
58288000,58288000,0.00239006,0.0005207,-0.00297373,-0.0,0.0,0.0,0.0,-1.0
58388000,58388000,-0.00253687,0.00685448,-0.0035016,-0.0,0.0,0.0,0.0,-1.0
58488000,58488000,0.00122278,0.00696368,-0.00403309,-0.0,0.0,0.0,0.0,-1.0
58584000,58584000,-0.00274556,0.00672777,-0.00467044,-0.0,0.0,0.0,0.0,-1.0
58684000,58684000,-0.00411523,0.00230631,-0.00446604,-0.0,0.0,0.0,0.0,-1.0
58784000,58784000,-0.0008969,0.00607468,-0.00333096,-0.0,0.0,0.0,0.0,-1.0
58884000,58884000,-0.000494751,0.00768992,-0.0046456,-0.0,0.0,0.0,0.0,-1.0
58980000,58980000,-0.000341766,0.00608491,-0.00472838,-0.0,0.0,0.0,0.0,-1.0
59080000,59080000,-0.000735632,0.00582826,-0.00390361,-0.0,0.0,0.0,0.0,-1.0
59176000,59176000,-0.00247789,0.00100928,-0.00316907,-0.0,0.0,0.0,0.0,-1.0
59272000,59272000,-0.00364888,0.00266258,-0.00438642,-0.0,0.0,0.0,0.0,-1.0
59372000,59372000,0.00219137,0.00428916,-0.00518081,-0.0,0.0,0.0,0.0,-1.0
59468000,59468000,-0.00233414,0.00448071,-0.0042603,-0.0,0.0,0.0,0.0,-1.0
59564000,59564000,0.0020573,0.00638744,-0.0046317,-0.0,0.0,0.0,0.0,-1.0
59664000,59664000,-0.00173469,0.00335743,-0.00287509,-0.0,0.0,0.0,0.0,-1.0
59764000,59764000,0.000489991,0.00196678,-0.00340129,-0.0,0.0,0.0,0.0,-1.0
59860000,59860000,-0.00239733,-0.00113512,-0.00144999,-0.0,0.0,0.0,0.0,-1.0
59960000,59960000,-0.00378313,0.0021735,-0.00359492,-0.0,0.0,0.0,0.0,-1.0
60060000,60060000,7.67931e-05,0.00276002,-0.0047733,-0.0,0.0,0.0,0.0,-1.0
60156000,60156000,-0.00129231,-0.000321798,-0.00530712,-0.0,0.0,0.0,0.0,-1.0
60252000,60252000,0.000561798,7.55792e-05,-0.00560064,-0.0,0.0,0.0,0.0,-1.0
60352000,60352000,0.00172164,-0.00376159,-0.00275596,-0.0,0.0,0.0,0.0,-1.0
60452000,60452000,-9.9308e-05,0.00241769,-0.00412199,-0.0,0.0,0.0,0.0,-1.0
60552000,60552000,0.00229859,0.00226727,-0.00442245,-0.0,0.0,0.0,0.0,-1.0
60652000,60652000,0.00269418,0.0040191,-0.0018093,-0.0,0.0,0.0,0.0,-1.0
60752000,60752000,0.00103988,0.00534394,-0.00527664,-0.0,0.0,0.0,0.0,-1.0
60848000,60848000,0.0004435,0.00337302,-0.00508944,-0.0,0.0,0.0,0.0,-1.0
60944000,60944000,-0.00250801,0.00429553,-0.0030275,-0.0,0.0,0.0,0.0,-1.0
61044000,61044000,-0.0015132,0.00296975,-0.00371345,-0.0,0.0,0.0,0.0,-1.0
61144000,61144000,0.00346045,0.000507709,-0.00367024,-0.0,0.0,0.0,0.0,-1.0
61240000,61240000,0.00108893,0.00534674,-0.00292237,-0.0,0.0,0.0,0.0,-1.0
61336000,61336000,-0.00420521,7.95845e-05,-0.00435733,-0.0,0.0,0.0,0.0,-1.0
61436000,61436000,0.00143613,0.00345086,-0.00390797,-0.0,0.0,0.0,0.0,-1.0
61536000,61536000,-0.00350881,0.0049979,-0.00431793,-0.0,0.0,0.0,0.0,-1.0
61632000,61632000,0.00558259,8.74787e-05,-0.00462611,-0.0,0.0,0.0,0.0,-1.0
61728000,61728000,-0.00138762,0.00404553,-0.00462412,-0.0,0.0,0.0,0.0,-1.0
61828000,61828000,0.00490886,0.00256255,-0.00414761,-0.0,0.0,0.0,0.0,-1.0
61924000,61924000,0.00156382,0.000546374,-0.00388584,-0.0,0.0,0.0,0.0,-1.0
62020000,62020000,0.00010336,0.00224555,-0.0035369,-0.0,0.0,0.0,0.0,-1.0
62120000,62120000,0.00163908,0.00337553,-0.00307578,-0.0,0.0,0.0,0.0,-1.0
62216000,62216000,0.00292831,0.00280727,-0.00403023,-0.0,0.0,0.0,0.0,-1.0
62316000,62316000,0.000908998,0.00160959,-0.00423352,-0.0,0.0,0.0,0.0,-1.0
62412000,62412000,9.9868e-06,0.00279974,-0.00388315,-0.0,0.0,0.0,0.0,-1.0
62508000,62508000,0.00233791,0.00742567,-0.00465172,-0.0,0.0,0.0,0.0,-1.0
62608000,62608000,0.00134378,0.00755636,-0.0044542,-0.0,0.0,0.0,0.0,-1.0
62704000,62704000,-0.00202489,0.000377553,-0.00457586,-0.0,0.0,0.0,0.0,-1.0
62804000,62804000,0.00217455,0.00166162,-0.00364124,-0.0,0.0,0.0,0.0,-1.0
62900000,62900000,-0.00126045,0.0015417,-0.00452075,-0.0,0.0,0.0,0.0,-1.0
62996000,62996000,0.00259338,-0.00207077,-0.00443366,-0.0,0.0,0.0,0.0,-1.0
63096000,63096000,0.000189292,0.00370601,-0.00441534,-0.0,0.0,0.0,0.0,-1.0
63196000,63196000,0.00419704,0.00333401,-0.00354459,-0.0,0.0,0.0,0.0,-1.0
63296000,63296000,0.00136469,-0.000189795,-0.00392679,-0.0,0.0,0.0,0.0,-1.0
63396000,63396000,0.00214873,-0.000770699,-0.00399232,-0.0,0.0,0.0,0.0,-1.0
63492000,63492000,-0.000732092,0.00605979,-0.00446359,-0.0,0.0,0.0,0.0,-1.0
63588000,63588000,0.000957559,-0.000491084,-0.00315149,-0.0,0.0,0.0,0.0,-1.0
63688000,63688000,0.00138679,0.00423462,-0.00395442,-0.0,0.0,0.0,0.0,-1.0
63788000,63788000,0.00140273,0.00190382,-0.00619431,-0.0,0.0,0.0,0.0,-1.0
63884000,63884000,0.000396914,0.0026496,-0.0062225,-0.0,0.0,0.0,0.0,-1.0
63984000,63984000,0.00485011,0.00181643,-0.00628796,-0.0,0.0,0.0,0.0,-1.0
64080000,64080000,0.00299665,0.000456706,-0.00415078,-0.0,0.0,0.0,0.0,-1.0
64180000,64180000,0.000628863,0.00307241,-0.00413788,-0.0,0.0,0.0,0.0,-1.0
64280000,64280000,0.00335863,-0.000565661,-0.00377298,-0.0,0.0,0.0,0.0,-1.0
64376000,64376000,0.00416544,0.00758799,-0.00470909,-0.0,0.0,0.0,0.0,-1.0
64476000,64476000,0.00254409,0.00137705,-0.00406571,-0.0,0.0,0.0,0.0,-1.0
64572000,64572000,0.00251761,-0.000838235,-0.00245617,-0.0,0.0,0.0,0.0,-1.0
64668000,64668000,-0.000486727,0.00476428,-0.00423222,-0.0,0.0,0.0,0.0,-1.0
64768000,64768000,0.0031473,0.000431687,-0.00485467,-0.0,0.0,0.0,0.0,-1.0
64864000,64864000,0.000576441,-0.00131829,-0.00518729,-0.0,0.0,0.0,0.0,-1.0
64960000,64960000,-0.00451559,0.000938025,-0.00408431,-0.0,0.0,0.0,0.0,-1.0
65056000,65056000,0.0045433,0.00366014,-0.00528784,-0.0,0.0,0.0,0.0,-1.0
65152000,65152000,1.91305e-05,0.00168342,-0.00439226,-0.0,0.0,0.0,0.0,-1.0
65248000,65248000,0.00045715,0.00105798,-0.00481794,-0.0,0.0,0.0,0.0,-1.0
65348000,65348000,0.000570411,-0.000878554,-0.0040918,-0.0,0.0,0.0,0.0,-1.0
65444000,65444000,-0.00073269,-0.00107829,-0.00417862,-0.0,0.0,0.0,0.0,-1.0
65540000,65540000,-0.00207007,0.0042464,-0.00422529,-0.0,0.0,0.0,0.0,-1.0
65636000,65636000,0.00333651,0.00121645,-0.00535993,-0.0,0.0,0.0,0.0,-1.0
65736000,65736000,-0.000151236,0.00266745,-0.0051324,-0.0,0.0,0.0,0.0,-1.0
65836000,65836000,0.00194579,0.0043085,-0.00517734,-0.0,0.0,0.0,0.0,-1.0
65936000,65936000,0.00253143,0.00536656,-0.00391426,-0.0,0.0,0.0,0.0,-1.0
66036000,66036000,-0.00048236,0.00701648,-0.00377736,-0.0,0.0,0.0,0.0,-1.0
66136000,66136000,-0.0083529,0.00205899,-0.00308057,-0.0,0.0,0.0,0.0,-1.0
66236000,66236000,-0.00230198,0.00518627,-0.00306071,-0.0,0.0,0.0,0.0,-1.0
66332000,66332000,0.00168853,0.00475365,-0.00292077,-0.0,0.0,0.0,0.0,-1.0
66428000,66428000,0.00441411,-0.000551107,-0.0038367,-0.0,0.0,0.0,0.0,-1.0
66528000,66528000,0.00470854,-0.00093657,-0.00473843,-0.0,0.0,0.0,0.0,-1.0
66628000,66628000,-0.00157071,0.00462622,-0.00380224,-0.0,0.0,0.0,0.0,-1.0
66728000,66728000,-0.00368174,0.00252886,-0.00384813,-0.0,0.0,0.0,0.0,-1.0
66824000,66824000,-0.00024354,-0.00143343,-0.00460725,-0.0,0.0,0.0,0.0,-1.0
66924000,66924000,-0.000707381,0.00805921,-0.00426378,-0.0,0.0,0.0,0.0,-1.0
67024000,67024000,-0.00417208,0.00370799,-0.00268911,-0.0,0.0,0.0,0.0,-1.0
67124000,67124000,-0.00216464,0.00452623,-0.00229385,-0.0,0.0,0.0,0.0,-1.0
67224000,67224000,-0.00240828,0.00466725,-0.00304316,-0.0,0.0,0.0,0.0,-1.0
67324000,67324000,-0.00156649,0.00372736,-0.00524182,-0.0,0.0,0.0,0.0,-1.0
67424000,67424000,-0.00394251,0.000522067,-0.00407196,-0.0,0.0,0.0,0.0,-1.0
67524000,67524000,-0.00204303,0.00211545,-0.00199793,-0.0,0.0,0.0,0.0,-1.0
67624000,67624000,0.00240119,0.00830273,-0.00383006,-0.0,0.0,0.0,0.0,-1.0
67720000,67720000,0.00284775,0.00333245,-0.0030883,-0.0,0.0,0.0,0.0,-1.0
67816000,67816000,0.00329377,0.00566728,-0.00378608,-0.0,0.0,0.0,0.0,-1.0
67912000,67912000,0.00141362,0.00206064,-0.00169941,-0.0,0.0,0.0,0.0,-1.0
68012000,68012000,-0.00277373,0.00471107,-0.0044237,-0.0,0.0,0.0,0.0,-1.0
68112000,68112000,-0.00155343,0.00153748,-0.00392037,-0.0,0.0,0.0,0.0,-1.0
68212000,68212000,0.00220463,0.00503543,-0.00309681,-0.0,0.0,0.0,0.0,-1.0
68312000,68312000,0.00193919,0.00154317,-0.00328601,-0.0,0.0,0.0,0.0,-1.0
68412000,68412000,-0.00342285,0.00219531,-0.00468575,-0.0,0.0,0.0,0.0,-1.0
68512000,68512000,0.000894577,0.00139693,-0.00117235,-0.0,0.0,0.0,0.0,-1.0
68612000,68612000,-0.00621012,0.00306212,-0.00429761,-0.0,0.0,0.0,0.0,-1.0
68712000,68712000,0.00490549,0.00502481,-0.0025267,-0.0,0.0,0.0,0.0,-1.0
68812000,68812000,-0.00105268,-0.00158777,-0.00437657,-0.0,0.0,0.0,0.0,-1.0
68908000,68908000,0.00261187,0.00714741,-0.00475917,-0.0,0.0,0.0,0.0,-1.0
69004000,69004000,-0.00150803,0.0018881,-0.00342411,-0.0,0.0,0.0,0.0,-1.0
69104000,69104000,0.000185029,-0.000315675,-0.00419266,-0.0,0.0,0.0,0.0,-1.0
69204000,69204000,0.00440819,-0.000906241,-0.00439772,-0.0,0.0,0.0,0.0,-1.0
69300000,69300000,0.00228564,0.002687,-0.00514828,-0.0,0.0,0.0,0.0,-1.0
69400000,69400000,0.0013012,0.000994131,-0.00515653,-0.0,0.0,0.0,0.0,-1.0
69496000,69496000,0.00482422,0.0063434,-0.00595415,-0.0,0.0,0.0,0.0,-1.0
69592000,69592000,0.00303649,-0.00115028,-0.00401026,-0.0,0.0,0.0,0.0,-1.0
69688000,69688000,-0.0035621,0.00380964,-0.00416902,-0.0,0.0,0.0,0.0,-1.0
69788000,69788000,0.00219316,0.00168573,-0.00466534,-0.0,0.0,0.0,0.0,-1.0
69884000,69884000,-0.000776882,0.00325626,-0.00443986,-0.0,0.0,0.0,0.0,-1.0
69980000,69980000,-0.0019105,0.00196334,-0.00431958,-0.0,0.0,0.0,0.0,-1.0
70080000,70080000,8.03572e-05,0.0015444,-0.00524208,-0.0,0.0,0.0,0.0,-1.0
70180000,70180000,-0.00207866,0.0021442,-0.00444368,-0.0,0.0,0.0,0.0,-1.0
70280000,70280000,0.00510121,0.00148624,-0.00602457,-0.0,0.0,0.0,0.0,-1.0
70376000,70376000,0.000406303,0.000864189,-0.00546687,-0.0,0.0,0.0,0.0,-1.0
70476000,70476000,-0.00117116,0.00463199,-0.00357943,-0.0,0.0,0.0,0.0,-1.0
70576000,70576000,0.000559925,0.00498546,-0.00508154,-0.0,0.0,0.0,0.0,-1.0
70676000,70676000,0.00175175,0.00108543,-0.000473007,0.12,0.0,0.0,0.0,-1.0
70776000,70776000,-0.00568946,0.0127064,-0.000297836,0.120007,0.0,0.0,0.0,-1.0
70872000,70872000,-0.00909575,0.0193145,-0.00150811,0.174963,0.0,0.0,0.0,-1.0
70968000,70968000,-0.0115994,0.0105447,-0.00081885,0.241871,0.0,0.0,0.0,-1.0
71068000,71068000,0.000527586,0.011678,-0.00212761,0.308079,0.0,0.0,0.0,-1.0
71168000,71168000,-0.00153436,0.00627358,-0.000768631,0.39047,0.0,0.0,0.0,-1.0
71264000,71264000,-0.00155348,0.00995802,-0.000863672,0.459559,0.0,0.0,0.0,-1.0
71364000,71364000,-0.000449556,0.00207977,-0.000242884,0.532118,0.0,0.0,0.0,-1.0
71460000,71460000,0.00416672,-0.00249623,-0.000552072,0.554623,0.0,0.0,0.0,-1.0
71556000,71556000,0.00879129,0.00172384,-0.000831603,0.553293,0.0,0.0,0.0,-1.0
71656000,71656000,-1.71131e-07,-0.000854296,0.00078336,0.55307,0.0,0.0,0.0,-1.0
71756000,71756000,0.00379145,-0.0033776,5.47001e-05,0.560218,0.0,0.0,0.0,-1.0
71856000,71856000,0.00377518,-0.00457747,0.000721357,0.55846,0.0,0.0,0.0,-1.0
71952000,71952000,0.000326389,-0.000615452,-0.000224773,0.559092,0.0,0.0,0.0,-1.0
72052000,72052000,0.00186763,-0.00967841,-0.000485611,0.556169,0.0,0.0,0.0,-1.0
72148000,72148000,0.000724465,0.000350388,0.000982895,0.561826,0.0,0.0,0.0,-1.0
72248000,72248000,-0.00474068,-0.00538212,0.000337595,0.561987,0.0,0.0,0.0,-1.0
72344000,72344000,-0.00395269,0.00391766,-0.000652855,0.559246,0.0,0.0,0.0,-1.0
72440000,72440000,-0.000502918,0.000385949,-0.000878732,0.556445,0.0,0.0,0.0,-1.0
72540000,72540000,-0.00411728,-0.00388761,-4.47561e-05,0.561958,0.0,0.0,0.0,-1.0
72636000,72636000,0.00474525,-0.00202301,-0.0021414,0.558552,0.0,0.0,0.0,-1.0
72732000,72732000,0.00441887,0.00112853,0.00157762,0.555279,0.0,0.0,0.0,-1.0
72832000,72832000,0.0062494,-0.00436855,0.000628706,0.556082,0.0,0.0,0.0,-1.0
72928000,72928000,0.00330613,-0.00518101,0.000489453,0.560907,0.0,0.0,0.0,-1.0
73028000,73028000,-0.000199318,-0.000266476,0.000701994,0.558537,0.0,0.0,0.0,-1.0
73128000,73128000,0.00339709,-0.00334484,0.00514378,0.558769,0.0,0.0,0.0,-1.0
73224000,73224000,-0.00124059,-0.00734254,0.0030052,0.556417,0.0,0.0,0.0,1.0
73320000,73320000,-0.00146765,-0.00254019,0.00165703,0.48351,0.0,0.0,0.0,1.0
73420000,73420000,0.000321941,0.00228595,0.00077111,0.446481,0.0,0.0,0.0,1.0
73520000,73520000,0.00372873,-0.000700998,-0.000173109,0.448442,0.0,0.0,0.0,1.0
73620000,73620000,0.000720422,0.00569264,-0.00130059,0.448508,0.0,0.0,0.0,1.0
73716000,73716000,0.00253479,0.00176206,-1.99959e-05,0.454937,0.0,0.0,0.0,1.0
73812000,73812000,0.0012746,0.00170646,-0.00204259,0.452235,0.0,0.0,0.0,1.0
73912000,73912000,-0.00274221,0.00648919,-0.000543204,0.454492,0.0,0.0,0.0,1.0
74008000,74008000,-0.00374415,0.00322845,-0.000514123,0.456033,0.0,0.0,0.0,1.0
74104000,74104000,0.00113764,0.0031198,-0.000923227,0.466418,0.0,0.0,0.0,1.0
74204000,74204000,0.00260507,-0.00158091,-0.000683006,0.46437,0.0,0.0,0.0,1.0
74300000,74300000,0.00250756,0.0012032,-0.00117401,0.467693,0.0,0.0,0.0,1.0
74400000,74400000,-0.00522352,1.51324e-05,-0.00229047,0.467494,0.0,0.0,0.0,1.0
74500000,74500000,0.000424256,0.000756177,-0.00232861,0.476456,0.0,0.0,0.0,1.0
74596000,74596000,-0.000838356,-0.00600527,0.00037961,0.47551,0.0,0.0,0.0,1.0
74692000,74692000,0.000157324,-0.00513228,-0.00138869,0.477584,0.0,0.0,0.0,1.0
74792000,74792000,0.00379031,-0.00328553,-0.00107252,0.476491,0.0,0.0,0.0,1.0
74892000,74892000,-0.00299966,-0.00089343,0.000473613,0.484796,0.0,0.0,0.0,1.0
74992000,74992000,0.00485552,0.0061838,0.00064223,0.483527,0.0,0.0,0.0,1.0
75088000,75088000,0.0051581,-0.00757703,-0.000789094,0.485705,0.0,0.0,0.0,1.0
75184000,75184000,0.00192819,-0.00246088,-0.000694188,0.483421,0.0,0.0,0.0,1.0
75284000,75284000,0.000426163,0.00122685,0.000279251,0.489769,0.0,0.0,0.0,1.0
75384000,75384000,-0.00275873,-0.00187577,0.000273317,0.486108,0.0,0.0,0.0,1.0
75484000,75484000,-0.00351041,-0.00783049,-0.000583911,0.487718,0.0,0.0,0.0,1.0
75580000,75580000,0.00280945,0.0042362,0.000802379,0.485535,0.0,0.0,0.0,1.0
75680000,75680000,0.000418754,0.00608079,-0.00119566,0.493014,0.0,0.0,0.0,1.0
75780000,75780000,0.00448902,0.00564502,-0.00066049,0.493301,0.0,0.0,0.0,1.0
75880000,75880000,-0.000234778,0.00437635,-0.00107635,0.489296,0.0,0.0,0.0,1.0
75976000,75976000,0.00301237,0.00448873,-0.000308738,0.48702,0.0,0.0,0.0,1.0
76076000,76076000,-0.00740451,0.00529067,0.000742752,0.488224,0.0,0.0,0.0,1.0
76176000,76176000,0.00408493,0.00934702,-0.00065655,0.495357,0.0,0.0,0.0,1.0
76272000,76272000,0.00249996,0.00506994,-0.00121479,0.492093,0.0,0.0,0.0,1.0
76372000,76372000,-0.00128865,-4.95226e-05,0.00233195,0.487339,0.0,0.0,0.0,1.0
76468000,76468000,-0.00913414,0.00210679,-0.000632935,0.494988,0.0,0.0,0.0,1.0
76564000,76564000,0.00558304,0.0069567,0.000589685,0.495481,0.0,0.0,0.0,1.0
76660000,76660000,-0.00119507,-0.00205439,-0.000782006,0.492092,0.0,0.0,0.0,1.0
76760000,76760000,-0.00829465,-0.00111515,-8.98345e-05,0.488882,0.0,0.0,0.0,1.0
76860000,76860000,-0.00347642,0.000326007,-0.000953551,0.488538,0.0,0.0,0.0,1.0
76960000,76960000,0.00709064,-0.004705,5.18593e-05,0.492947,0.0,0.0,0.0,1.0
77056000,77056000,0.00147401,0.00384408,-0.000562043,0.489259,0.0,0.0,0.0,1.0
77156000,77156000,-0.00710275,-0.00209238,0.000389711,0.491347,0.0,0.0,0.0,1.0
77256000,77256000,0.00111539,-0.000880326,0.000279096,0.489256,0.0,0.0,0.0,1.0
77352000,77352000,0.00471532,-0.00342072,0.000807398,0.49549,0.0,0.0,0.0,1.0
77452000,77452000,-0.00437415,-0.005934,-0.00178573,0.492322,0.0,0.0,0.0,1.0
77552000,77552000,-0.00283367,0.00230889,-0.000312232,0.492898,0.0,0.0,0.0,1.0
77652000,77652000,0.00247581,-0.00375128,0.000617627,0.489217,0.0,0.0,0.0,1.0
77748000,77748000,-0.00270924,-0.0027882,0.00133161,0.495987,0.0,0.0,0.0,1.0
77848000,77848000,0.001712,0.000222413,0.000211559,0.516077,0.0,0.0,0.0,1.0
77944000,77944000,-3.65032e-06,0.00177392,0.00130384,0.551397,0.0,0.0,0.0,1.0
78044000,78044000,-0.0046244,0.000226788,-0.000877279,0.584136,0.0,0.0,0.0,1.0
78144000,78144000,-0.000514334,0.00216702,0.00103051,0.644669,0.0,0.0,0.0,1.0
78240000,78240000,-0.000908418,0.00280617,-9.51694e-05,0.681984,0.0,0.0,0.0,1.0
78340000,78340000,0.00205014,0.00124458,-0.000460904,0.643389,0.0,0.0,0.0,1.0
78436000,78436000,-0.00367213,-0.00295007,0.00106799,0.594723,0.0,0.0,0.0,1.0
78536000,78536000,-0.00344446,-0.00263417,0.00139519,0.532043,0.0,0.0,0.0,1.0
78636000,78636000,-0.00698811,-0.000807409,-0.000393728,0.502352,0.0,0.0,0.0,1.0
