timestamp,magnetometer_ga[0],magnetometer_ga[1],magnetometer_ga[2]
128000,0.9,0.038,1.793
136000,0.899,0.028,1.793
140000,0.886,0.037,1.785
144000,0.896,0.038,1.788
148000,0.889,0.026,1.784
156000,0.896,0.036,1.777
160000,0.895,0.026,1.786
168000,0.899,0.025,1.78
172000,0.897,0.037,1.783
176000,0.897,0.033,1.787
184000,0.897,0.045,1.786
188000,0.891,0.023,1.779
192000,0.897,0.039,1.784
196000,0.899,0.044,1.785
200000,0.901,0.035,1.786
208000,0.898,0.03,1.797
212000,0.899,0.031,1.792
220000,0.894,0.031,1.784
224000,0.895,0.031,1.778
228000,0.895,0.027,1.787
236000,0.894,0.036,1.783
240000,0.889,0.027,1.792
244000,0.902,0.033,1.785
248000,0.899,0.031,1.796
252000,0.895,0.036,1.785
260000,0.902,0.034,1.786
268000,0.895,0.028,1.79
276000,0.9,0.036,1.783
280000,0.89,0.033,1.789
284000,0.889,0.039,1.788
288000,0.901,0.04,1.789
292000,0.906,0.036,1.787
296000,0.896,0.019,1.799
300000,0.906,0.024,1.786
308000,0.903,0.036,1.779
312000,0.904,0.036,1.784
320000,0.891,0.038,1.79
324000,0.898,0.031,1.776
332000,0.896,0.039,1.787
336000,0.891,0.036,1.785
340000,0.895,0.024,1.789
348000,0.894,0.032,1.788
352000,0.895,0.033,1.786
356000,0.908,0.03,1.783
364000,0.891,0.033,1.781
372000,0.881,0.033,1.786
376000,0.897,0.03,1.792
380000,0.894,0.033,1.79
388000,0.891,0.035,1.791
392000,0.894,0.028,1.783
400000,0.904,0.03,1.787
408000,0.894,0.038,1.798
412000,0.897,0.042,1.791
416000,0.898,0.03,1.777
420000,0.886,0.027,1.784
424000,0.9,0.033,1.782
432000,0.89,0.04,1.788
440000,0.892,0.028,1.793
448000,0.894,0.029,1.784
452000,0.905,0.032,1.787
456000,0.897,0.027,1.787
464000,0.895,0.023,1.786
468000,0.895,0.032,1.786
472000,0.898,0.044,1.787
476000,0.9,0.038,1.796
480000,0.899,0.043,1.794
488000,0.898,0.031,1.782
492000,0.893,0.032,1.785
496000,0.897,0.036,1.785
500000,0.904,0.029,1.796
504000,0.899,0.034,1.782
512000,0.905,0.03,1.791
516000,0.889,0.039,1.786
524000,0.904,0.038,1.79
528000,0.894,0.036,1.785
532000,0.896,0.026,1.796
536000,0.894,0.04,1.781
540000,0.901,0.035,1.791
548000,0.892,0.029,1.795
556000,0.886,0.034,1.788
560000,0.901,0.028,1.78
564000,0.906,0.037,1.787
568000,0.907,0.032,1.787
572000,0.897,0.034,1.786
576000,0.902,0.039,1.784
580000,0.904,0.029,1.787
584000,0.907,0.033,1.786
588000,0.898,0.022,1.791
592000,0.896,0.036,1.777
596000,0.895,0.033,1.786
600000,0.914,0.035,1.782
604000,0.898,0.037,1.782
612000,0.891,0.033,1.784
616000,0.89,0.034,1.784
620000,0.898,0.034,1.788
624000,0.893,0.039,1.787
628000,0.893,0.034,1.793
632000,0.897,0.029,1.787
636000,0.893,0.036,1.784
640000,0.899,0.036,1.783
644000,0.894,0.036,1.781
648000,0.904,0.04,1.787
652000,0.896,0.024,1.777
656000,0.891,0.027,1.795
660000,0.903,0.031,1.789
664000,0.896,0.04,1.796
672000,0.895,0.031,1.79
676000,0.901,0.03,1.785
680000,0.893,0.045,1.78
684000,0.9,0.03,1.788
688000,0.902,0.026,1.781
696000,0.903,0.033,1.78
700000,0.896,0.039,1.784
708000,0.894,0.032,1.786
712000,0.894,0.031,1.78
716000,0.906,0.03,1.78
724000,0.898,0.028,1.791
728000,0.892,0.04,1.787
732000,0.898,0.035,1.781
736000,0.886,0.028,1.79
740000,0.901,0.033,1.789
744000,0.897,0.029,1.784
748000,0.897,0.022,1.785
752000,0.902,0.033,1.79
756000,0.892,0.027,1.789
760000,0.892,0.031,1.787
764000,0.909,0.033,1.788
768000,0.889,0.03,1.783
772000,0.905,0.029,1.783
776000,0.895,0.034,1.79
780000,0.898,0.027,1.791
788000,0.896,0.029,1.786
792000,0.898,0.028,1.796
796000,0.897,0.029,1.788
800000,0.9,0.034,1.783
804000,0.892,0.036,1.789
812000,0.9,0.029,1.785
816000,0.904,0.028,1.782
820000,0.897,0.033,1.781
828000,0.893,0.032,1.791
836000,0.9,0.029,1.789
840000,0.894,0.026,1.784
844000,0.893,0.031,1.786
848000,0.897,0.033,1.78
856000,0.895,0.035,1.785
860000,0.9,0.038,1.786
868000,0.892,0.036,1.786
876000,0.899,0.034,1.798
880000,0.9,0.029,1.788
884000,0.889,0.034,1.785
892000,0.905,0.03,1.785
896000,0.896,0.032,1.784
900000,0.884,0.03,1.785
904000,0.888,0.032,1.785
908000,0.898,0.024,1.792
912000,0.895,0.033,1.788
920000,0.897,0.036,1.788
924000,0.901,0.031,1.795
928000,0.899,0.038,1.781
932000,0.899,0.032,1.788
940000,0.888,0.025,1.779
948000,0.898,0.029,1.782
952000,0.903,0.031,1.787
956000,0.893,0.029,1.785
960000,0.896,0.034,1.788
964000,0.9,0.037,1.784
968000,0.896,0.027,1.788
972000,0.9,0.038,1.783
976000,0.897,0.032,1.788
980000,0.898,0.032,1.791
984000,0.895,0.028,1.792
992000,0.895,0.035,1.789
996000,0.897,0.033,1.791
1000000,0.892,0.03,1.783
1004000,0.893,0.037,1.79
1008000,0.903,0.03,1.79
1012000,0.894,0.037,1.784
1016000,0.896,0.036,1.782
1020000,0.894,0.026,1.79
1024000,0.893,0.032,1.786
1028000,0.906,0.036,1.781
1036000,0.894,0.033,1.788
1040000,0.903,0.035,1.779
1044000,0.891,0.025,1.793
1048000,0.887,0.039,1.784
1052000,0.891,0.033,1.787
1056000,0.898,0.034,1.791
1064000,0.894,0.032,1.786
1072000,0.891,0.028,1.784
1076000,0.902,0.023,1.796
1080000,0.89,0.039,1.781
1084000,0.902,0.037,1.78
1088000,0.893,0.031,1.781
1092000,0.892,0.025,1.785
1096000,0.898,0.025,1.792
1100000,0.898,0.034,1.787
1108000,0.896,0.035,1.782
1116000,0.898,0.029,1.784
1120000,0.896,0.037,1.779
1124000,0.895,0.027,1.78
1128000,0.895,0.029,1.791
1132000,0.889,0.03,1.781
1140000,0.897,0.032,1.776
1144000,0.891,0.029,1.779
1148000,0.893,0.038,1.791
1152000,0.897,0.033,1.784
1156000,0.901,0.026,1.779
1164000,0.897,0.035,1.788
1168000,0.894,0.032,1.782
1176000,0.9,0.033,1.787
1180000,0.897,0.029,1.781
1184000,0.897,0.038,1.789
1192000,0.888,0.033,1.794
1196000,0.903,0.032,1.794
1200000,0.892,0.027,1.786
1204000,0.889,0.035,1.773
1208000,0.904,0.039,1.788
1212000,0.895,0.033,1.793
1216000,0.907,0.03,1.777
1224000,0.905,0.052,1.783
1228000,0.893,0.031,1.784
1232000,0.899,0.034,1.793
1236000,0.897,0.026,1.785
1240000,0.899,0.026,1.781
1244000,0.905,0.035,1.776
1248000,0.895,0.041,1.787
1252000,0.893,0.029,1.78
1256000,0.904,0.034,1.786
1260000,0.903,0.027,1.776
1264000,0.897,0.027,1.782
1272000,0.891,0.035,1.784
1276000,0.897,0.035,1.782
1284000,0.895,0.033,1.782
1288000,0.903,0.031,1.788
1292000,0.896,0.026,1.783
1296000,0.901,0.034,1.79
1304000,0.904,0.028,1.791
1308000,0.893,0.031,1.786
1312000,0.899,0.028,1.787
1316000,0.896,0.032,1.787
1320000,0.895,0.034,1.785
1328000,0.901,0.03,1.788
1332000,0.902,0.042,1.784
1340000,0.895,0.034,1.78
1344000,0.894,0.027,1.782
1352000,0.904,0.035,1.783
1360000,0.898,0.037,1.795
1364000,0.9,0.025,1.779
1368000,0.902,0.032,1.777
1372000,0.888,0.031,1.796
1380000,0.895,0.026,1.787
1384000,0.896,0.029,1.787
1388000,0.891,0.044,1.785
1396000,0.898,0.036,1.789
1400000,0.89,0.037,1.784
1404000,0.908,0.033,1.788
1412000,0.892,0.03,1.78
1416000,0.895,0.043,1.788
1420000,0.888,0.041,1.791
1428000,0.891,0.03,1.786
1432000,0.903,0.03,1.791
1436000,0.9,0.03,1.789
1444000,0.894,0.021,1.79
1448000,0.892,0.037,1.792
1452000,0.898,0.03,1.798
1456000,0.885,0.038,1.788
1460000,0.896,0.034,1.787
1464000,0.899,0.034,1.783
1468000,0.899,0.029,1.792
1472000,0.904,0.035,1.785
1480000,0.906,0.034,1.793
1484000,0.886,0.035,1.783
1488000,0.895,0.039,1.797
1492000,0.899,0.037,1.785
1496000,0.89,0.036,1.781
1500000,0.905,0.034,1.783
1504000,0.889,0.038,1.785
1512000,0.905,0.039,1.791
1516000,0.899,0.044,1.79
1524000,0.897,0.032,1.791
1528000,0.897,0.029,1.792
1532000,0.887,0.025,1.789
1536000,0.895,0.037,1.787
1540000,0.898,0.024,1.784
1544000,0.897,0.028,1.784
1548000,0.896,0.028,1.78
1556000,0.895,0.03,1.783
1560000,0.897,0.042,1.777
1564000,0.899,0.03,1.786
1568000,0.898,0.033,1.788
1572000,0.896,0.032,1.787
1576000,0.901,0.031,1.784
1584000,0.898,0.028,1.779
1588000,0.896,0.03,1.777
1592000,0.893,0.039,1.789
1596000,0.889,0.028,1.788
1600000,0.901,0.03,1.793
1604000,0.893,0.034,1.787
1608000,0.897,0.024,1.787
1612000,0.894,0.029,1.779
1616000,0.887,0.031,1.792
1624000,0.892,0.028,1.782
1628000,0.893,0.029,1.784
1632000,0.907,0.031,1.792
1636000,0.891,0.032,1.789
1640000,0.897,0.026,1.778
1644000,0.891,0.03,1.785
1652000,0.89,0.036,1.792
1656000,0.89,0.023,1.793
1660000,0.908,0.027,1.786
1664000,0.903,0.032,1.782
1672000,0.902,0.036,1.786
1676000,0.889,0.036,1.784
1680000,0.894,0.029,1.789
1688000,0.899,0.032,1.785
1692000,0.901,0.033,1.786
1696000,0.899,0.03,1.781
1704000,0.899,0.03,1.785
1708000,0.897,0.04,1.788
1712000,0.9,0.039,1.791
1716000,0.897,0.043,1.797
1720000,0.895,0.028,1.789
1724000,0.893,0.029,1.787
1728000,0.893,0.034,1.788
1732000,0.9,0.034,1.788
1740000,0.895,0.031,1.788
1744000,0.901,0.045,1.786
1748000,0.892,0.027,1.787
1752000,0.895,0.033,1.784
1756000,0.895,0.034,1.784
1764000,0.897,0.029,1.787
1768000,0.899,0.039,1.787
1772000,0.901,0.032,1.79
1780000,0.893,0.033,1.782
1788000,0.899,0.032,1.792
1792000,0.897,0.045,1.788
1796000,0.904,0.026,1.793
1800000,0.901,0.033,1.785
1808000,0.893,0.031,1.794
1812000,0.897,0.036,1.79
1816000,0.896,0.029,1.784
1820000,0.897,0.026,1.79
1828000,0.886,0.034,1.784
1832000,0.894,0.039,1.776
1836000,0.886,0.024,1.792
1840000,0.894,0.026,1.782
1844000,0.894,0.038,1.788
1852000,0.897,0.034,1.792
1856000,0.898,0.029,1.785
1860000,0.895,0.029,1.788
1864000,0.893,0.037,1.79
1872000,0.895,0.036,1.782
1880000,0.89,0.025,1.789
1888000,0.899,0.033,1.784
1892000,0.906,0.035,1.787
1900000,0.901,0.028,1.777
1904000,0.89,0.037,1.789
1908000,0.89,0.025,1.789
1912000,0.894,0.032,1.792
1920000,0.9,0.034,1.788
1924000,0.9,0.03,1.786
1928000,0.897,0.04,1.785
1932000,0.899,0.032,1.783
1936000,0.894,0.037,1.789
1944000,0.892,0.031,1.787
1948000,0.897,0.034,1.782
1956000,0.905,0.03,1.79
1964000,0.895,0.034,1.789
1972000,0.888,0.039,1.791
1976000,0.903,0.031,1.785
1980000,0.895,0.024,1.786
1984000,0.9,0.032,1.793
1988000,0.899,0.029,1.787
1992000,0.899,0.033,1.796
1996000,0.896,0.033,1.779
2000000,0.89,0.029,1.796
2008000,0.895,0.033,1.79
2012000,0.902,0.04,1.78
2016000,0.894,0.027,1.777
2024000,0.903,0.036,1.781
2032000,0.89,0.029,1.784
2036000,0.896,0.036,1.787
2040000,0.888,0.028,1.789
2044000,0.895,0.026,1.791
2048000,0.894,0.042,1.783
2052000,0.906,0.034,1.784
2060000,0.894,0.029,1.787
2064000,0.903,0.037,1.777
2068000,0.899,0.036,1.796
2072000,0.895,0.028,1.785
2080000,0.896,0.033,1.79
2084000,0.9,0.03,1.788
2092000,0.9,0.034,1.782
2096000,0.898,0.033,1.785
2100000,0.896,0.04,1.789
2104000,0.901,0.034,1.789
2108000,0.903,0.021,1.787
2116000,0.898,0.036,1.801
2120000,0.901,0.032,1.783
2128000,0.892,0.029,1.788
2132000,0.897,0.033,1.789
2136000,0.894,0.034,1.784
2144000,0.892,0.031,1.787
2152000,0.887,0.028,1.786
2156000,0.897,0.031,1.787
2160000,0.901,0.034,1.78
2164000,0.901,0.023,1.793
2172000,0.897,0.039,1.787
2176000,0.896,0.036,1.777
2180000,0.899,0.033,1.785
2184000,0.904,0.036,1.796
2192000,0.894,0.026,1.784
2196000,0.898,0.029,1.792
2200000,0.897,0.033,1.788
2208000,0.891,0.032,1.78
2212000,0.902,0.028,1.784
2216000,0.899,0.03,1.781
2220000,0.898,0.033,1.782
2228000,0.893,0.027,1.781
2236000,0.898,0.03,1.793
2240000,0.894,0.042,1.784
2244000,0.893,0.036,1.787
2252000,0.9,0.034,1.787
2256000,0.892,0.028,1.775
2260000,0.89,0.029,1.785
2264000,0.902,0.03,1.783
2268000,0.895,0.036,1.783
2272000,0.903,0.034,1.791
2280000,0.898,0.034,1.786
2284000,0.892,0.035,1.786
2288000,0.901,0.031,1.786
2292000,0.889,0.041,1.792
2296000,0.892,0.035,1.786
2304000,0.904,0.036,1.791
2312000,0.9,0.031,1.784
2316000,0.893,0.031,1.798
2320000,0.898,0.032,1.787
2324000,0.9,0.028,1.782
2328000,0.899,0.021,1.785
2332000,0.898,0.038,1.79
2336000,0.896,0.031,1.795
2340000,0.897,0.035,1.789
2344000,0.907,0.038,1.789
2348000,0.899,0.038,1.797
2352000,0.893,0.029,1.787
2356000,0.898,0.027,1.778
2360000,0.895,0.041,1.784
2364000,0.893,0.033,1.793
2372000,0.884,0.028,1.787
2376000,0.895,0.03,1.791
2380000,0.894,0.034,1.789
2384000,0.9,0.023,1.785
2392000,0.891,0.028,1.783
2396000,0.899,0.026,1.782
2404000,0.895,0.033,1.783
2408000,0.897,0.044,1.785
2412000,0.9,0.038,1.79
2416000,0.903,0.043,1.783
2424000,0.896,0.039,1.792
2428000,0.899,0.034,1.788
2432000,0.892,0.033,1.788
2436000,0.899,0.036,1.779
2440000,0.902,0.033,1.79
2444000,0.901,0.03,1.784
2452000,0.889,0.024,1.792
2460000,0.904,0.04,1.786
2464000,0.896,0.023,1.79
2468000,0.897,0.032,1.793
2472000,0.899,0.023,1.791
2480000,0.898,0.04,1.776
2484000,0.901,0.04,1.79
2492000,0.889,0.031,1.785
2496000,0.897,0.035,1.782
2500000,0.894,0.032,1.788
2504000,0.906,0.026,1.788
2508000,0.904,0.031,1.778
2516000,0.9,0.034,1.783
2520000,0.899,0.04,1.787
2524000,0.897,0.044,1.78
2532000,0.892,0.04,1.796
2536000,0.9,0.03,1.777
2544000,0.903,0.035,1.79
2548000,0.886,0.026,1.784
2552000,0.901,0.034,1.784
2560000,0.897,0.034,1.798
2568000,0.897,0.037,1.786
2572000,0.896,0.03,1.787
2576000,0.896,0.042,1.789
2580000,0.89,0.031,1.795
2588000,0.904,0.03,1.784
2592000,0.901,0.032,1.784
2596000,0.898,0.035,1.784
2600000,0.901,0.04,1.79
2604000,0.892,0.033,1.782
2608000,0.891,0.031,1.788
2612000,0.894,0.034,1.787
2616000,0.898,0.039,1.782
2620000,0.893,0.024,1.789
2628000,0.882,0.035,1.787
2632000,0.897,0.039,1.796
2636000,0.89,0.026,1.787
2640000,0.891,0.035,1.784
2648000,0.896,0.032,1.776
2656000,0.893,0.03,1.791
2660000,0.896,0.03,1.794
2668000,0.889,0.036,1.788
2672000,0.898,0.035,1.779
2680000,0.891,0.034,1.784
2684000,0.899,0.034,1.784
2688000,0.897,0.031,1.787
2692000,0.905,0.034,1.78
2696000,0.891,0.023,1.782
2700000,0.899,0.033,1.788
2704000,0.894,0.031,1.789
2708000,0.894,0.044,1.787
2712000,0.889,0.03,1.776
2720000,0.9,0.026,1.783
2724000,0.893,0.029,1.79
2728000,0.894,0.024,1.793
2736000,0.898,0.026,1.785
2740000,0.893,0.026,1.788
2744000,0.895,0.028,1.786
2752000,0.904,0.034,1.783
2756000,0.896,0.035,1.789
2760000,0.898,0.031,1.787
2764000,0.893,0.026,1.782
2772000,0.89,0.052,1.787
2776000,0.899,0.033,1.778
2780000,0.896,0.038,1.784
2788000,0.897,0.027,1.789
2792000,0.896,0.025,1.788
2796000,0.903,0.031,1.786
2804000,0.898,0.033,1.785
2808000,0.901,0.031,1.789
2812000,0.897,0.034,1.775
2816000,0.902,0.028,1.787
2824000,0.889,0.03,1.784
2828000,0.896,0.035,1.791
2836000,0.903,0.039,1.781
2840000,0.896,0.034,1.786
2844000,0.9,0.032,1.788
2848000,0.893,0.035,1.792
2856000,0.9,0.039,1.796
2860000,0.891,0.029,1.793
2864000,0.914,0.039,1.783
2872000,0.895,0.034,1.787
2876000,0.895,0.027,1.788
2880000,0.895,0.032,1.78
2888000,0.897,0.033,1.782
2892000,0.885,0.028,1.787
2904000,0.894,0.035,1.786
2912000,0.895,0.036,1.793
2920000,0.899,0.029,1.791
2924000,0.889,0.028,1.797
2932000,0.899,0.032,1.786
2940000,0.895,0.031,1.789
2944000,0.888,0.046,1.789
2948000,0.895,0.039,1.78
2952000,0.902,0.03,1.782
2956000,0.897,0.035,1.786
2960000,0.897,0.034,1.8
2964000,0.896,0.032,1.791
2968000,0.902,0.031,1.784
2972000,0.893,0.038,1.789
2976000,0.902,0.04,1.79
2984000,0.891,0.032,1.787
2988000,0.897,0.03,1.79
2996000,0.897,0.023,1.783
3000000,0.902,0.034,1.797
3004000,0.899,0.037,1.783
3008000,0.892,0.027,1.786
3012000,0.891,0.038,1.786
3020000,0.902,0.027,1.791
3024000,0.896,0.035,1.784
3032000,0.9,0.04,1.794
3036000,0.906,0.032,1.792
3040000,0.897,0.037,1.786
3044000,0.897,0.028,1.786
3052000,0.901,0.035,1.79
3056000,0.896,0.037,1.785
3060000,0.899,0.03,1.787
3068000,0.892,0.024,1.784
3076000,0.898,0.03,1.788
3080000,0.9,0.035,1.789
3084000,0.899,0.039,1.795
3088000,0.899,0.033,1.798
3092000,0.891,0.028,1.786
3100000,0.901,0.028,1.797
3104000,0.902,0.026,1.78
3108000,0.902,0.041,1.784
3116000,0.895,0.033,1.783
3120000,0.901,0.034,1.783
3128000,0.903,0.023,1.785
3132000,0.894,0.036,1.792
3136000,0.896,0.036,1.78
3140000,0.9,0.036,1.782
3144000,0.895,0.028,1.784
3148000,0.898,0.035,1.798
3152000,0.893,0.039,1.78
3156000,0.899,0.029,1.797
3164000,0.893,0.03,1.782
3168000,0.9,0.035,1.787
3176000,0.897,0.038,1.78
3180000,0.903,0.032,1.779
3184000,0.896,0.037,1.783
3192000,0.899,0.036,1.782
3200000,0.898,0.04,1.779
3204000,0.897,0.037,1.779
3208000,0.898,0.036,1.79
3216000,0.894,0.031,1.782
3220000,0.895,0.039,1.794
3224000,0.896,0.031,1.784
3228000,0.897,0.04,1.783
3236000,0.887,0.038,1.781
3240000,0.898,0.031,1.792
3244000,0.903,0.044,1.785
3248000,0.901,0.036,1.781
3252000,0.898,0.032,1.786
3256000,0.891,0.037,1.786
3260000,0.905,0.034,1.787
3268000,0.902,0.041,1.789
3272000,0.898,0.031,1.779
3276000,0.889,0.031,1.783
3280000,0.886,0.038,1.789
3288000,0.897,0.046,1.783
3292000,0.897,0.028,1.784
3304000,0.906,0.031,1.782
3308000,0.894,0.037,1.787
3312000,0.897,0.026,1.784
3316000,0.894,0.042,1.79
3324000,0.898,0.027,1.784
3328000,0.89,0.03,1.796
3332000,0.896,0.031,1.786
3336000,0.906,0.033,1.791
3340000,0.896,0.038,1.786
3344000,0.9,0.026,1.789
3348000,0.898,0.026,1.8
3356000,0.899,0.041,1.79
3360000,0.895,0.038,1.78
3368000,0.898,0.04,1.796
3372000,0.897,0.039,1.785
3380000,0.908,0.039,1.784
3388000,0.906,0.028,1.79
3392000,0.897,0.026,1.792
3396000,0.9,0.034,1.786
3400000,0.891,0.031,1.789
3408000,0.902,0.028,1.792
3416000,0.897,0.035,1.792
3424000,0.898,0.037,1.789
3428000,0.898,0.033,1.78
3432000,0.895,0.03,1.779
3440000,0.9,0.034,1.78
3444000,0.893,0.036,1.787
3452000,0.902,0.034,1.787
3460000,0.896,0.033,1.782
3464000,0.887,0.036,1.789
3468000,0.894,0.04,1.784
3472000,0.913,0.035,1.788
3476000,0.899,0.034,1.779
3484000,0.894,0.034,1.786
3488000,0.901,0.03,1.792
3492000,0.894,0.039,1.788
3496000,0.907,0.032,1.792
3500000,0.896,0.031,1.78
3504000,0.898,0.036,1.795
3508000,0.893,0.029,1.791
3512000,0.902,0.04,1.788
3520000,0.892,0.039,1.785
3524000,0.893,0.033,1.784
3528000,0.895,0.034,1.787
3532000,0.901,0.041,1.786
3540000,0.894,0.024,1.782
3544000,0.891,0.028,1.786
3552000,0.898,0.029,1.781
3556000,0.9,0.032,1.79
3564000,0.894,0.031,1.779
3572000,0.901,0.041,1.789
3576000,0.908,0.032,1.789
3584000,0.898,0.041,1.79
3588000,0.896,0.038,1.796
3592000,0.896,0.033,1.785
3596000,0.894,0.027,1.784
3600000,0.9,0.032,1.793
3608000,0.904,0.033,1.79
3612000,0.896,0.024,1.786
3620000,0.901,0.049,1.788
3624000,0.897,0.037,1.783
3632000,0.896,0.04,1.789
3640000,0.9,0.023,1.784
3648000,0.891,0.034,1.786
3652000,0.898,0.029,1.779
3656000,0.901,0.036,1.792
3660000,0.888,0.023,1.784
3664000,0.898,0.037,1.791
3668000,0.902,0.027,1.787
3672000,0.894,0.03,1.787
3676000,0.9,0.034,1.789
3684000,0.9,0.03,1.783
3688000,0.896,0.038,1.783
3692000,0.898,0.034,1.795
3696000,0.894,0.04,1.779
3700000,0.891,0.03,1.793
3704000,0.899,0.037,1.791
3712000,0.893,0.036,1.791
3716000,0.892,0.037,1.792
3720000,0.898,0.032,1.781
3724000,0.899,0.028,1.784
3732000,0.886,0.028,1.784
3736000,0.899,0.031,1.792
3740000,0.896,0.026,1.792
3748000,0.911,0.035,1.782
3752000,0.9,0.045,1.798
3756000,0.909,0.036,1.783
3760000,0.892,0.026,1.791
3764000,0.893,0.03,1.783
3768000,0.9,0.037,1.776
3772000,0.898,0.038,1.779
3780000,0.896,0.041,1.793
3784000,0.898,0.029,1.785
3788000,0.899,0.03,1.794
3792000,0.898,0.034,1.787
3796000,0.902,0.036,1.788
3804000,0.889,0.033,1.78
3808000,0.894,0.04,1.781
3816000,0.892,0.032,1.787
3824000,0.897,0.035,1.787
3832000,0.899,0.035,1.779
3836000,0.901,0.034,1.786
3840000,0.894,0.046,1.793
3848000,0.899,0.034,1.787
3852000,0.898,0.033,1.797
3856000,0.894,0.032,1.789
3860000,0.887,0.041,1.792
3868000,0.89,0.034,1.785
3876000,0.89,0.033,1.783
3884000,0.894,0.032,1.787
3892000,0.9,0.024,1.789
3900000,0.898,0.028,1.785
3904000,0.89,0.04,1.785
3908000,0.899,0.046,1.787
3912000,0.901,0.029,1.782
3916000,0.899,0.032,1.788
3920000,0.899,0.03,1.791
3928000,0.899,0.028,1.787
3932000,0.893,0.03,1.789
3940000,0.899,0.034,1.785
3944000,0.894,0.033,1.785
3948000,0.9,0.027,1.78
3952000,0.896,0.034,1.779
3956000,0.9,0.03,1.782
3960000,0.9,0.037,1.781
3964000,0.902,0.038,1.8
3968000,0.89,0.031,1.783
3972000,0.896,0.033,1.785
3980000,0.891,0.026,1.782
3988000,0.9,0.028,1.79
3992000,0.889,0.041,1.786
4004000,0.898,0.031,1.78
4008000,0.897,0.037,1.787
4016000,0.891,0.029,1.789
4024000,0.896,0.036,1.785
4028000,0.892,0.028,1.787
4032000,0.895,0.035,1.786
4040000,0.903,0.03,1.787
4044000,0.894,0.042,1.784
4048000,0.901,0.022,1.784
4052000,0.896,0.031,1.776
4060000,0.892,0.032,1.79
4064000,0.901,0.03,1.782
4068000,0.891,0.046,1.794
4072000,0.899,0.027,1.787
4076000,0.9,0.029,1.786
4084000,0.897,0.027,1.785
4088000,0.893,0.032,1.788
4096000,0.896,0.04,1.782
4100000,0.902,0.028,1.786
4108000,0.89,0.039,1.792
4116000,0.895,0.028,1.784
4120000,0.897,0.028,1.788
4124000,0.891,0.032,1.785
4132000,0.896,0.031,1.789
4136000,0.905,0.035,1.787
4144000,0.891,0.024,1.787
4148000,0.894,0.033,1.782
4152000,0.899,0.026,1.798
4160000,0.901,0.032,1.782
4164000,0.901,0.03,1.775
4168000,0.893,0.039,1.78
4172000,0.886,0.032,1.79
4176000,0.901,0.028,1.785
4180000,0.888,0.032,1.789
4188000,0.894,0.037,1.778
4196000,0.894,0.025,1.787
4200000,0.899,0.035,1.785
4208000,0.9,0.027,1.781
4212000,0.903,0.034,1.784
4220000,0.896,0.038,1.785
4224000,0.895,0.034,1.79
4228000,0.902,0.033,1.785
4232000,0.891,0.033,1.784
4236000,0.894,0.03,1.792
4240000,0.906,0.032,1.78
4244000,0.883,0.039,1.78
4248000,0.904,0.035,1.787
4252000,0.899,0.034,1.795
4256000,0.898,0.034,1.781
4260000,0.898,0.03,1.8
4264000,0.894,0.034,1.784
4272000,0.897,0.025,1.792
4276000,0.888,0.033,1.79
4284000,0.899,0.033,1.789
4292000,0.897,0.033,1.788
4300000,0.89,0.037,1.787
4304000,0.887,0.033,1.783
4308000,0.904,0.034,1.784
4312000,0.891,0.034,1.8
4316000,0.9,0.033,1.787
4320000,0.902,0.028,1.781
4324000,0.882,0.028,1.785
4328000,0.892,0.034,1.786
4336000,0.889,0.036,1.787
4340000,0.901,0.028,1.789
4344000,0.903,0.036,1.788
4348000,0.892,0.032,1.781
4352000,0.895,0.033,1.792
4356000,0.898,0.026,1.786
4360000,0.9,0.029,1.779
4364000,0.89,0.033,1.789
4368000,0.891,0.031,1.788
4372000,0.904,0.03,1.788
4376000,0.89,0.03,1.781
4380000,0.899,0.031,1.784
4388000,0.891,0.028,1.781
4392000,0.898,0.035,1.785
4396000,0.9,0.036,1.778
4404000,0.899,0.035,1.778
4408000,0.893,0.022,1.79
4416000,0.902,0.035,1.786
4420000,0.897,0.026,1.784
4424000,0.898,0.026,1.79
4432000,0.902,0.02,1.788
4436000,0.895,0.036,1.79
4440000,0.893,0.037,1.782
4444000,0.9,0.025,1.781
4452000,0.895,0.039,1.792
4456000,0.898,0.035,1.775
4460000,0.899,0.029,1.785
4468000,0.899,0.033,1.788
4472000,0.89,0.034,1.78
4476000,0.896,0.038,1.788
4480000,0.9,0.029,1.791
4484000,0.896,0.035,1.78
4492000,0.894,0.031,1.79
4496000,0.898,0.029,1.786
4504000,0.895,0.041,1.79
4508000,0.888,0.033,1.78
4516000,0.9,0.029,1.783
4520000,0.894,0.031,1.776
4528000,0.893,0.039,1.785
4532000,0.902,0.03,1.789
4540000,0.904,0.042,1.789
4548000,0.894,0.033,1.786
4552000,0.893,0.027,1.792
4556000,0.894,0.036,1.787
4560000,0.9,0.036,1.789
4564000,0.891,0.039,1.791
4572000,0.902,0.035,1.788
4580000,0.897,0.027,1.79
4584000,0.902,0.024,1.782
4588000,0.895,0.028,1.791
4592000,0.902,0.03,1.792
4596000,0.9,0.034,1.79
4604000,0.893,0.037,1.783
4608000,0.901,0.037,1.789
4612000,0.887,0.035,1.783
4616000,0.897,0.031,1.792
4620000,0.897,0.029,1.789
4624000,0.901,0.025,1.787
4628000,0.895,0.035,1.784
4632000,0.899,0.038,1.782
4636000,0.896,0.03,1.775
4640000,0.895,0.027,1.789
4644000,0.89,0.033,1.781
4648000,0.891,0.021,1.785
4656000,0.889,0.037,1.786
4660000,0.903,0.037,1.78
4664000,0.901,0.029,1.787
4672000,0.899,0.033,1.782
4676000,0.895,0.035,1.783
4680000,0.9,0.031,1.793
4688000,0.891,0.031,1.786
4692000,0.893,0.042,1.784
4696000,0.899,0.031,1.79
4700000,0.896,0.028,1.779
4704000,0.889,0.03,1.792
4708000,0.893,0.03,1.782
4712000,0.895,0.03,1.787
4720000,0.901,0.036,1.786
4724000,0.897,0.047,1.775
4732000,0.892,0.037,1.793
4736000,0.894,0.041,1.786
4740000,0.903,0.028,1.789
4748000,0.894,0.033,1.79
4752000,0.899,0.037,1.789
4756000,0.896,0.036,1.778
4760000,0.898,0.032,1.78
4768000,0.907,0.033,1.789
4772000,0.903,0.034,1.783
4776000,0.892,0.031,1.79
4784000,0.899,0.035,1.782
4788000,0.9,0.028,1.785
4796000,0.896,0.032,1.791
4800000,0.892,0.043,1.785
4804000,0.9,0.026,1.785
4808000,0.902,0.029,1.787
4812000,0.901,0.031,1.788
4816000,0.898,0.029,1.783
4820000,0.9,0.034,1.788
4824000,0.893,0.028,1.794
4828000,0.891,0.028,1.795
4836000,0.901,0.033,1.792
4840000,0.898,0.027,1.788
4848000,0.904,0.04,1.789
4852000,0.898,0.028,1.786
4856000,0.891,0.035,1.78
4864000,0.886,0.039,1.794
4868000,0.897,0.034,1.795
4872000,0.9,0.034,1.788
4880000,0.905,0.037,1.791
4884000,0.895,0.03,1.789
4888000,0.898,0.022,1.791
4892000,0.89,0.035,1.787
4900000,0.893,0.028,1.788
4908000,0.897,0.032,1.775
4916000,0.9,0.027,1.787
4920000,0.893,0.04,1.787
4928000,0.892,0.042,1.79
4932000,0.898,0.037,1.783
4936000,0.897,0.041,1.784
4940000,0.9,0.033,1.78
4948000,0.894,0.031,1.785
4952000,0.898,0.033,1.782
4956000,0.896,0.028,1.79
4964000,0.895,0.036,1.791
4968000,0.897,0.028,1.791
4972000,0.899,0.036,1.789
4980000,0.886,0.031,1.781
4984000,0.896,0.025,1.787
4988000,0.892,0.033,1.789
4992000,0.896,0.037,1.78
4996000,0.905,0.031,1.788
5000000,0.902,0.036,1.784
5004000,0.897,0.032,1.786
5012000,0.907,0.032,1.781
5016000,0.887,0.024,1.786
5020000,0.901,0.032,1.79
5028000,0.899,0.034,1.782
5036000,0.901,0.026,1.793
5040000,0.898,0.032,1.796
5048000,0.898,0.031,1.79
5052000,0.89,0.029,1.789
5056000,0.9,0.034,1.792
5060000,0.894,0.033,1.776
5064000,0.907,0.03,1.787
5068000,0.9,0.033,1.795
5072000,0.898,0.035,1.787
5076000,0.906,0.029,1.797
5080000,0.89,0.027,1.783
5084000,0.9,0.021,1.779
5088000,0.899,0.042,1.776
5092000,0.903,0.027,1.777
5096000,0.89,0.035,1.783
5104000,0.897,0.022,1.784
5112000,0.903,0.03,1.792
5116000,0.905,0.032,1.791
5120000,0.901,0.025,1.786
5124000,0.891,0.025,1.787
5128000,0.899,0.035,1.782
5132000,0.894,0.041,1.794
5136000,0.895,0.029,1.781
5144000,0.894,0.026,1.789
5148000,0.89,0.018,1.78
5152000,0.904,0.04,1.782
5156000,0.888,0.039,1.792
5164000,0.902,0.034,1.78
5172000,0.898,0.036,1.781
5176000,0.892,0.034,1.793
5188000,0.898,0.034,1.785
5192000,0.897,0.026,1.79
5200000,0.901,0.031,1.788
5204000,0.903,0.033,1.791
5208000,0.895,0.027,1.778
5212000,0.888,0.036,1.782
5220000,0.897,0.035,1.781
5224000,0.901,0.037,1.792
5232000,0.898,0.033,1.785
5236000,0.898,0.028,1.783
5240000,0.895,0.03,1.775
5248000,0.902,0.034,1.795
5252000,0.888,0.033,1.789
5260000,0.904,0.032,1.784
5264000,0.902,0.029,1.783
5268000,0.899,0.036,1.789
5272000,0.904,0.034,1.8
5276000,0.903,0.031,1.785
5284000,0.899,0.026,1.783
5292000,0.906,0.035,1.787
5296000,0.891,0.032,1.782
5300000,0.897,0.04,1.792
5304000,0.901,0.041,1.791
5308000,0.886,0.033,1.788
5316000,0.908,0.037,1.785
5320000,0.901,0.036,1.791
5328000,0.899,0.033,1.785
5332000,0.899,0.026,1.79
5336000,0.891,0.032,1.785
5340000,0.898,0.033,1.784
5344000,0.896,0.03,1.791
5348000,0.898,0.028,1.789
5352000,0.897,0.034,1.789
5356000,0.891,0.039,1.79
5360000,0.902,0.035,1.785
5364000,0.898,0.035,1.793
5368000,0.894,0.03,1.793
5372000,0.889,0.04,1.786
5380000,0.898,0.031,1.789
5384000,0.889,0.033,1.796
5388000,0.893,0.034,1.784
5392000,0.904,0.035,1.782
5400000,0.901,0.032,1.778
5404000,0.897,0.044,1.784
5412000,0.893,0.031,1.791
5416000,0.891,0.034,1.779
5420000,0.897,0.035,1.783
5424000,0.886,0.033,1.784
5432000,0.901,0.031,1.78
5436000,0.902,0.046,1.784
5440000,0.894,0.026,1.792
5444000,0.898,0.046,1.783
5448000,0.893,0.033,1.786
5452000,0.896,0.033,1.78
5456000,0.896,0.032,1.788
5460000,0.888,0.039,1.778
5468000,0.9,0.034,1.792
5472000,0.892,0.039,1.787
5476000,0.898,0.043,1.788
5480000,0.896,0.029,1.783
5488000,0.901,0.023,1.788
5492000,0.9,0.026,1.784
5496000,0.893,0.022,1.781
5504000,0.898,0.03,1.79
5508000,0.892,0.033,1.794
5516000,0.904,0.032,1.791
5520000,0.894,0.031,1.785
5524000,0.898,0.029,1.79
5528000,0.904,0.036,1.789
5532000,0.891,0.024,1.786
5536000,0.895,0.04,1.783
5540000,0.899,0.031,1.787
5548000,0.897,0.036,1.777
5552000,0.902,0.038,1.777
5556000,0.894,0.025,1.788
5564000,0.902,0.029,1.782
5568000,0.9,0.027,1.782
5572000,0.905,0.038,1.777
5576000,0.902,0.032,1.785
5584000,0.897,0.033,1.783
5592000,0.899,0.031,1.788
5596000,0.894,0.029,1.781
5600000,0.892,0.04,1.797
5604000,0.905,0.033,1.782
5608000,0.895,0.04,1.784
5612000,0.902,0.03,1.794
5616000,0.892,0.041,1.782
5620000,0.909,0.027,1.783
5624000,0.892,0.024,1.788
5628000,0.899,0.031,1.786
5632000,0.899,0.036,1.789
5636000,0.901,0.031,1.784
5640000,0.905,0.032,1.78
5648000,0.905,0.043,1.786
5652000,0.895,0.034,1.781
5656000,0.896,0.028,1.791
5660000,0.903,0.031,1.79
5668000,0.901,0.03,1.788
5672000,0.898,0.026,1.783
5676000,0.89,0.028,1.794
5684000,0.89,0.032,1.785
5688000,0.897,0.04,1.78
5692000,0.893,0.032,1.788
5696000,0.898,0.034,1.788
5704000,0.896,0.03,1.787
5712000,0.897,0.03,1.783
5720000,0.893,0.032,1.777
5724000,0.897,0.033,1.781
5728000,0.892,0.041,1.784
5736000,0.891,0.036,1.79
5740000,0.888,0.035,1.788
5744000,0.896,0.035,1.784
5748000,0.896,0.028,1.781
5752000,0.898,0.038,1.771
5760000,0.888,0.032,1.78
5768000,0.898,0.024,1.782
5772000,0.891,0.037,1.794
5776000,0.905,0.033,1.791
5780000,0.895,0.032,1.787
5788000,0.9,0.039,1.791
5792000,0.898,0.03,1.79
5796000,0.892,0.032,1.798
5800000,0.888,0.037,1.791
5804000,0.907,0.039,1.786
5812000,0.89,0.033,1.785
5820000,0.895,0.039,1.784
5828000,0.894,0.04,1.787
5832000,0.898,0.03,1.786
5836000,0.895,0.039,1.791
5840000,0.893,0.032,1.795
5848000,0.9,0.031,1.778
5852000,0.897,0.027,1.787
5860000,0.89,0.033,1.781
5864000,0.896,0.044,1.789
5868000,0.893,0.03,1.793
5872000,0.89,0.038,1.793
5876000,0.892,0.037,1.794
5880000,0.899,0.032,1.795
5884000,0.9,0.036,1.787
5888000,0.898,0.043,1.784
5896000,0.897,0.037,1.789
5900000,0.893,0.035,1.788
5904000,0.897,0.032,1.781
5908000,0.889,0.031,1.783
5912000,0.901,0.029,1.789
5916000,0.895,0.03,1.78
5924000,0.889,0.033,1.785
5928000,0.891,0.03,1.784
5932000,0.898,0.027,1.78
5936000,0.89,0.041,1.787
5940000,0.901,0.031,1.781
5944000,0.905,0.035,1.791
5948000,0.892,0.039,1.783
5952000,0.899,0.033,1.787
5956000,0.894,0.029,1.783
5964000,0.897,0.032,1.781
5968000,0.893,0.039,1.783
5972000,0.903,0.033,1.781
5980000,0.896,0.037,1.783
5984000,0.902,0.043,1.785
5988000,0.902,0.034,1.784
5992000,0.898,0.03,1.786
5996000,0.892,0.034,1.789
6000000,0.896,0.022,1.784
6008000,0.894,0.031,1.793
6012000,0.888,0.037,1.792
6016000,0.891,0.035,1.785
6020000,0.896,0.032,1.786
6028000,0.901,0.028,1.782
6032000,0.896,0.033,1.793
6040000,0.896,0.028,1.781
6044000,0.897,0.028,1.801
6048000,0.9,0.035,1.788
6052000,0.892,0.034,1.788
6060000,0.892,0.038,1.793
6064000,0.899,0.029,1.79
6068000,0.902,0.032,1.787
6076000,0.899,0.032,1.791
6080000,0.89,0.031,1.789
6084000,0.899,0.022,1.786
6088000,0.9,0.03,1.792
6092000,0.898,0.026,1.782
6100000,0.896,0.039,1.786
6104000,0.888,0.043,1.785
6112000,0.9,0.039,1.778
6116000,0.89,0.025,1.79
6120000,0.9,0.037,1.788
6124000,0.888,0.032,1.788
6128000,0.895,0.033,1.787
6132000,0.89,0.04,1.782
6136000,0.902,0.032,1.786
6140000,0.89,0.033,1.788
6144000,0.894,0.026,1.794
6148000,0.895,0.029,1.787
6156000,0.905,0.031,1.792
6160000,0.892,0.027,1.786
6168000,0.894,0.034,1.79
6172000,0.903,0.025,1.779
6176000,0.895,0.04,1.796
6180000,0.89,0.03,1.783
6188000,0.901,0.034,1.788
6192000,0.896,0.034,1.785
6200000,0.89,0.026,1.791
6208000,0.902,0.031,1.787
6212000,0.895,0.029,1.783
6216000,0.895,0.038,1.792
6220000,0.89,0.031,1.799
6224000,0.902,0.034,1.793
6228000,0.899,0.034,1.781
6232000,0.902,0.029,1.783
6236000,0.887,0.028,1.789
6240000,0.9,0.031,1.789
6244000,0.9,0.031,1.797
6248000,0.898,0.035,1.78
6252000,0.896,0.032,1.788
6260000,0.89,0.036,1.789
6268000,0.895,0.033,1.789
6272000,0.892,0.033,1.78
6276000,0.899,0.036,1.781
6280000,0.895,0.034,1.789
6288000,0.894,0.031,1.789
6292000,0.888,0.034,1.793
6296000,0.899,0.036,1.783
6300000,0.889,0.035,1.791
6304000,0.887,0.039,1.787
6308000,0.902,0.031,1.794
6316000,0.892,0.025,1.788
6320000,0.893,0.032,1.786
6328000,0.898,0.031,1.78
6336000,0.897,0.024,1.79
6340000,0.898,0.038,1.785
6344000,0.902,0.032,1.786
6348000,0.896,0.035,1.786
6352000,0.901,0.036,1.786
6356000,0.908,0.032,1.783
6364000,0.889,0.041,1.784
6372000,0.887,0.035,1.79
6380000,0.898,0.033,1.785
6384000,0.899,0.035,1.784
6388000,0.897,0.031,1.787
6392000,0.902,0.026,1.789
6400000,0.902,0.036,1.783
6408000,0.896,0.031,1.783
6412000,0.899,0.021,1.78
6416000,0.897,0.023,1.78
6420000,0.894,0.031,1.79
6424000,0.894,0.04,1.784
6432000,0.899,0.025,1.793
6436000,0.899,0.027,1.784
6448000,0.893,0.041,1.786
6452000,0.897,0.041,1.792
6456000,0.9,0.035,1.785
6460000,0.89,0.038,1.788
6468000,0.895,0.035,1.792
6476000,0.902,0.036,1.788
6480000,0.897,0.028,1.788
6488000,0.889,0.029,1.789
6492000,0.888,0.035,1.788
6496000,0.889,0.034,1.784
6504000,0.887,0.027,1.794
6512000,0.896,0.034,1.782
6516000,0.889,0.034,1.788
6520000,0.901,0.036,1.785
6524000,0.893,0.037,1.785
6528000,0.897,0.035,1.795
6532000,0.896,0.043,1.785
6540000,0.894,0.036,1.783
6544000,0.905,0.035,1.788
6548000,0.9,0.026,1.781
6552000,0.905,0.033,1.788
6556000,0.893,0.028,1.786
6564000,0.886,0.033,1.773
6568000,0.894,0.032,1.784
6572000,0.895,0.04,1.788
6580000,0.892,0.035,1.781
6584000,0.898,0.045,1.789
6592000,0.894,0.034,1.787
6596000,0.898,0.038,1.78
6600000,0.895,0.034,1.794
6604000,0.902,0.031,1.782
6612000,0.892,0.036,1.791
6616000,0.897,0.03,1.786
6620000,0.889,0.027,1.78
6628000,0.893,0.032,1.787
6632000,0.901,0.038,1.775
6636000,0.898,0.035,1.784
6640000,0.893,0.037,1.797
6644000,0.9,0.031,1.791
6648000,0.897,0.028,1.789
6652000,0.905,0.038,1.798
6660000,0.895,0.036,1.786
6664000,0.894,0.034,1.778
6668000,0.895,0.027,1.786
6676000,0.897,0.038,1.785
6684000,0.895,0.032,1.79
6688000,0.896,0.033,1.794
6692000,0.901,0.028,1.79
6696000,0.903,0.036,1.788
6704000,0.9,0.047,1.787
6708000,0.899,0.035,1.785
6716000,0.896,0.03,1.782
6720000,0.897,0.033,1.79
6724000,0.905,0.037,1.787
6732000,0.894,0.036,1.79
6736000,0.905,0.03,1.79
6740000,0.895,0.031,1.788
6744000,0.9,0.031,1.795
6748000,0.897,0.032,1.777
6752000,0.9,0.027,1.786
6756000,0.889,0.029,1.791
6764000,0.903,0.039,1.793
6768000,0.897,0.034,1.801
6772000,0.896,0.034,1.788
6780000,0.899,0.034,1.777
6788000,0.902,0.027,1.791
6792000,0.899,0.041,1.779
6796000,0.891,0.035,1.79
6800000,0.89,0.039,1.786
6804000,0.905,0.038,1.794
6808000,0.9,0.025,1.788
6812000,0.893,0.022,1.792
6816000,0.904,0.037,1.791
6820000,0.898,0.031,1.788
6828000,0.897,0.029,1.777
6832000,0.892,0.022,1.78
6836000,0.898,0.04,1.795
6840000,0.897,0.027,1.789
6844000,0.898,0.029,1.783
6852000,0.901,0.036,1.781
6860000,0.893,0.038,1.786
6864000,0.896,0.035,1.779
6868000,0.89,0.037,1.792
6872000,0.897,0.03,1.787
6880000,0.904,0.032,1.785
6884000,0.892,0.034,1.786
6892000,0.895,0.036,1.789
6896000,0.901,0.034,1.794
6900000,0.903,0.039,1.78
6904000,0.889,0.03,1.786
6908000,0.9,0.029,1.782
6916000,0.898,0.032,1.79
6920000,0.89,0.029,1.789
6924000,0.893,0.032,1.793
6928000,0.886,0.031,1.793
6932000,0.899,0.032,1.775
6936000,0.896,0.031,1.784
6944000,0.897,0.035,1.781
6948000,0.883,0.032,1.791
6952000,0.901,0.031,1.783
6960000,0.893,0.025,1.788
6964000,0.898,0.034,1.792
6968000,0.898,0.024,1.794
6972000,0.898,0.031,1.785
6980000,0.898,0.033,1.785
6984000,0.903,0.039,1.79
6988000,0.893,0.037,1.785
6992000,0.891,0.033,1.782
7000000,0.887,0.028,1.78
7004000,0.902,0.033,1.78
7012000,0.893,0.034,1.788
7016000,0.895,0.028,1.787
7020000,0.899,0.031,1.782
7024000,0.902,0.029,1.783
7028000,0.895,0.027,1.786
7032000,0.895,0.039,1.786
7036000,0.894,0.028,1.787
7040000,0.894,0.029,1.783
7048000,0.896,0.035,1.789
7052000,0.898,0.041,1.783
7060000,0.892,0.035,1.785
7064000,0.899,0.037,1.789
7068000,0.9,0.034,1.795
7076000,0.894,0.042,1.781
7080000,0.905,0.039,1.789
7084000,0.902,0.027,1.797
7088000,0.902,0.028,1.785
7092000,0.907,0.027,1.78
7100000,0.896,0.032,1.78
7104000,0.897,0.035,1.789
7112000,0.9,0.029,1.785
7116000,0.892,0.028,1.785
7120000,0.896,0.031,1.785
7124000,0.9,0.036,1.794
7132000,0.894,0.04,1.779
7140000,0.894,0.029,1.792
7144000,0.89,0.031,1.789
7152000,0.905,0.029,1.783
7156000,0.887,0.034,1.788
7160000,0.903,0.029,1.792
7164000,0.901,0.032,1.786
7168000,0.888,0.036,1.783
7172000,0.899,0.034,1.789
7180000,0.894,0.025,1.786
7184000,0.9,0.033,1.795
7196000,0.886,0.041,1.792
7204000,0.893,0.029,1.788
7208000,0.906,0.027,1.787
7216000,0.892,0.033,1.786
7220000,0.902,0.028,1.79
7224000,0.912,0.034,1.785
7228000,0.899,0.043,1.794
7232000,0.896,0.038,1.788
7236000,0.897,0.031,1.787
7240000,0.892,0.035,1.793
7244000,0.902,0.039,1.798
7248000,0.901,0.039,1.784
7252000,0.887,0.033,1.789
7256000,0.901,0.039,1.794
7260000,0.9,0.028,1.789
7264000,0.891,0.039,1.789
7268000,0.891,0.029,1.789
7276000,0.891,0.029,1.788
7280000,0.895,0.032,1.788
7288000,0.893,0.035,1.788
7296000,0.897,0.035,1.78
7300000,0.9,0.035,1.792
7308000,0.89,0.022,1.792
7312000,0.896,0.034,1.786
7316000,0.9,0.03,1.788
7320000,0.891,0.036,1.795
7324000,0.904,0.028,1.789
7328000,0.892,0.033,1.791
7332000,0.899,0.03,1.794
7336000,0.898,0.039,1.78
7344000,0.888,0.037,1.781
7348000,0.893,0.038,1.795
7352000,0.898,0.041,1.784
7356000,0.891,0.032,1.79
7360000,0.898,0.036,1.787
7364000,0.896,0.03,1.789
7368000,0.892,0.029,1.793
7372000,0.897,0.027,1.779
7376000,0.901,0.029,1.786
7384000,0.895,0.035,1.785
7388000,0.899,0.03,1.785
7392000,0.896,0.036,1.79
7400000,0.9,0.041,1.783
7404000,0.909,0.032,1.787
7408000,0.893,0.042,1.784
7412000,0.9,0.037,1.782
7420000,0.893,0.036,1.796
7424000,0.891,0.041,1.793
7428000,0.899,0.033,1.786
7432000,0.892,0.033,1.79
7440000,0.898,0.034,1.782
7444000,0.893,0.032,1.792
7448000,0.899,0.031,1.787
7452000,0.892,0.029,1.783
7456000,0.888,0.037,1.791
7460000,0.896,0.04,1.785
7468000,0.904,0.039,1.789
7472000,0.899,0.034,1.796
7476000,0.895,0.031,1.794
7480000,0.885,0.031,1.789
7484000,0.896,0.029,1.792
7488000,0.893,0.029,1.793
7492000,0.907,0.03,1.789
7500000,0.893,0.025,1.794
7504000,0.896,0.041,1.782
7508000,0.897,0.033,1.795
7512000,0.901,0.042,1.785
7516000,0.894,0.027,1.797
7520000,0.897,0.029,1.793
7524000,0.896,0.033,1.787
7528000,0.894,0.026,1.781
7532000,0.89,0.035,1.78
7540000,0.894,0.028,1.776
7544000,0.904,0.028,1.798
7548000,0.89,0.039,1.791
7552000,0.895,0.026,1.786
7560000,0.898,0.035,1.789
7564000,0.896,0.031,1.791
7568000,0.898,0.034,1.782
7572000,0.896,0.032,1.791
7576000,0.893,0.026,1.792
7580000,0.894,0.028,1.794
7584000,0.906,0.035,1.787
7588000,0.908,0.03,1.786
7596000,0.899,0.047,1.785
7600000,0.895,0.038,1.788
7604000,0.894,0.032,1.78
7608000,0.9,0.03,1.783
7612000,0.893,0.029,1.782
7616000,0.894,0.033,1.787
7620000,0.883,0.035,1.796
7628000,0.902,0.032,1.79
7632000,0.886,0.036,1.786
7636000,0.898,0.032,1.794
7644000,0.885,0.026,1.788
7648000,0.896,0.028,1.785
7652000,0.902,0.04,1.78
7660000,0.899,0.031,1.792
7664000,0.899,0.026,1.785
7668000,0.896,0.03,1.788
7672000,0.899,0.032,1.793
7676000,0.894,0.037,1.786
7684000,0.896,0.034,1.787
7688000,0.898,0.035,1.784
7700000,0.901,0.029,1.782
7708000,0.9,0.038,1.782
7716000,0.89,0.036,1.794
7724000,0.893,0.035,1.784
7728000,0.904,0.033,1.796
7732000,0.897,0.025,1.786
7736000,0.892,0.035,1.782
7740000,0.903,0.032,1.798
7744000,0.902,0.034,1.791
7748000,0.899,0.036,1.796
7752000,0.899,0.037,1.786
7760000,0.903,0.034,1.784
7768000,0.905,0.037,1.785
7776000,0.892,0.036,1.793
7780000,0.902,0.024,1.792
7784000,0.887,0.033,1.795
7788000,0.897,0.038,1.791
7796000,0.897,0.03,1.785
7800000,0.891,0.031,1.794
7808000,0.903,0.036,1.793
7812000,0.897,0.029,1.791
7816000,0.888,0.031,1.786
7820000,0.898,0.031,1.784
7828000,0.892,0.041,1.783
7836000,0.889,0.027,1.79
7840000,0.905,0.032,1.777
7844000,0.887,0.035,1.783
7848000,0.895,0.031,1.784
7852000,0.894,0.032,1.783
7856000,0.889,0.034,1.793
7860000,0.896,0.042,1.789
7868000,0.898,0.024,1.788
7872000,0.895,0.038,1.778
7876000,0.9,0.027,1.795
7880000,0.9,0.037,1.785
7884000,0.892,0.031,1.793
7892000,0.904,0.031,1.779
7896000,0.897,0.034,1.785
7904000,0.896,0.027,1.784
7908000,0.89,0.031,1.785
7912000,0.899,0.034,1.793
7920000,0.896,0.03,1.789
7924000,0.905,0.031,1.791
7928000,0.892,0.037,1.777
7932000,0.891,0.03,1.799
7940000,0.903,0.02,1.796
7944000,0.906,0.029,1.79
7948000,0.898,0.036,1.784
7952000,0.899,0.037,1.788
7956000,0.898,0.038,1.792
7964000,0.896,0.036,1.79
7968000,0.895,0.038,1.783
7976000,0.896,0.039,1.79
7980000,0.901,0.026,1.785
7984000,0.904,0.036,1.797
7988000,0.897,0.037,1.789
7992000,0.898,0.035,1.796
7996000,0.897,0.024,1.793
8000000,0.89,0.042,1.785
8008000,0.896,0.042,1.793
8012000,0.897,0.035,1.782
8020000,0.9,0.029,1.785
8024000,0.899,0.032,1.78
8028000,0.905,0.03,1.789
8032000,0.886,0.036,1.79
8036000,0.896,0.034,1.789
8040000,0.882,0.026,1.787
8044000,0.895,0.028,1.791
8048000,0.892,0.03,1.782
8056000,0.895,0.034,1.786
8060000,0.897,0.04,1.794
8064000,0.892,0.032,1.786
8068000,0.892,0.028,1.792
8076000,0.888,0.034,1.789
8080000,0.889,0.032,1.793
8088000,0.901,0.037,1.785
8092000,0.892,0.029,1.778
8096000,0.906,0.034,1.775
8100000,0.897,0.032,1.789
8104000,0.89,0.035,1.789
8112000,0.9,0.034,1.788
8116000,0.899,0.031,1.779
8120000,0.903,0.04,1.796
8124000,0.898,0.032,1.784
8128000,0.899,0.028,1.787
8132000,0.897,0.035,1.792
8140000,0.899,0.029,1.785
8148000,0.894,0.045,1.795
8152000,0.9,0.024,1.788
8156000,0.896,0.028,1.776
8160000,0.909,0.029,1.781
8168000,0.902,0.033,1.794
8176000,0.898,0.031,1.789
8180000,0.887,0.035,1.781
8184000,0.903,0.021,1.782
8188000,0.892,0.034,1.789
8192000,0.893,0.036,1.786
8196000,0.895,0.032,1.785
8200000,0.89,0.028,1.789
8204000,0.892,0.038,1.783
8212000,0.901,0.031,1.796
8216000,0.899,0.038,1.781
8224000,0.897,0.032,1.783
8228000,0.901,0.039,1.792
8232000,0.896,0.027,1.782
8236000,0.901,0.032,1.794
8244000,0.893,0.036,1.788
8248000,0.895,0.024,1.788
8252000,0.895,0.031,1.786
8260000,0.887,0.029,1.79
8268000,0.893,0.037,1.779
8272000,0.9,0.042,1.779
8276000,0.898,0.023,1.793
8284000,0.9,0.033,1.788
8288000,0.902,0.038,1.787
8296000,0.887,0.04,1.787
8300000,0.898,0.043,1.788
8308000,0.908,0.031,1.787
8312000,0.896,0.03,1.787
8316000,0.901,0.024,1.791
8320000,0.9,0.044,1.797
8324000,0.892,0.035,1.788
8328000,0.9,0.026,1.786
8332000,0.903,0.034,1.79
8336000,0.902,0.038,1.787
8344000,0.891,0.042,1.793
8348000,0.894,0.021,1.792
8356000,0.899,0.033,1.787
8360000,0.895,0.033,1.783
8364000,0.9,0.039,1.782
8368000,0.892,0.026,1.776
8372000,0.89,0.037,1.787
8376000,0.896,0.038,1.799
8384000,0.899,0.031,1.792
8388000,0.901,0.029,1.783
8392000,0.911,0.032,1.79
8396000,0.906,0.032,1.784
8400000,0.888,0.04,1.784
8404000,0.891,0.039,1.784
8412000,0.899,0.034,1.797
8416000,0.9,0.033,1.785
8420000,0.902,0.04,1.782
8428000,0.901,0.028,1.784
8432000,0.895,0.031,1.785
8436000,0.899,0.035,1.79
8440000,0.894,0.032,1.783
8444000,0.897,0.031,1.79
8452000,0.898,0.028,1.777
8456000,0.909,0.025,1.787
8460000,0.904,0.03,1.781
8468000,0.89,0.036,1.784
8476000,0.892,0.027,1.784
8480000,0.896,0.036,1.788
8488000,0.904,0.029,1.778
8496000,0.896,0.032,1.785
8500000,0.893,0.035,1.788
8508000,0.895,0.032,1.782
8512000,0.889,0.039,1.786
8520000,0.896,0.026,1.784
8524000,0.887,0.039,1.773
8528000,0.909,0.035,1.787
8536000,0.894,0.028,1.784
8540000,0.892,0.03,1.784
8544000,0.907,0.035,1.79
8548000,0.896,0.029,1.788
8556000,0.89,0.035,1.794
8560000,0.893,0.03,1.788
8564000,0.897,0.029,1.777
8568000,0.903,0.03,1.785
8572000,0.894,0.033,1.781
8576000,0.9,0.031,1.792
8584000,0.892,0.032,1.784
8588000,0.895,0.025,1.792
8596000,0.896,0.034,1.787
8600000,0.905,0.03,1.794
8608000,0.903,0.03,1.789
8612000,0.891,0.036,1.792
8616000,0.896,0.035,1.781
8624000,0.898,0.037,1.784
8628000,0.902,0.035,1.783
8632000,0.901,0.044,1.785
8636000,0.899,0.029,1.793
8640000,0.897,0.043,1.792
8644000,0.906,0.032,1.791
8648000,0.903,0.037,1.788
8652000,0.903,0.038,1.795
8656000,0.889,0.03,1.778
8660000,0.891,0.041,1.776
8664000,0.901,0.034,1.789
8668000,0.9,0.027,1.789
8672000,0.902,0.026,1.784
8676000,0.893,0.035,1.789
8680000,0.895,0.036,1.783
8688000,0.897,0.032,1.785
8692000,0.895,0.036,1.787
8696000,0.898,0.031,1.788
8704000,0.893,0.029,1.784
8708000,0.895,0.035,1.787
8712000,0.898,0.032,1.782
8716000,0.896,0.036,1.782
8720000,0.902,0.036,1.787
8724000,0.894,0.034,1.788
8728000,0.902,0.035,1.783
8732000,0.886,0.033,1.794
8736000,0.898,0.035,1.785
8740000,0.892,0.03,1.788
8744000,0.884,0.028,1.785
8748000,0.898,0.043,1.794
8756000,0.896,0.031,1.793
8760000,0.892,0.029,1.784
8764000,0.901,0.036,1.794
8768000,0.897,0.038,1.783
8776000,0.9,0.025,1.789
8780000,0.884,0.041,1.791
8784000,0.904,0.031,1.782
8792000,0.896,0.027,1.787
8796000,0.898,0.035,1.787
8800000,0.898,0.036,1.788
8808000,0.897,0.044,1.782
8816000,0.897,0.037,1.782
8820000,0.897,0.035,1.786
8824000,0.893,0.028,1.785
8828000,0.896,0.035,1.787
8836000,0.898,0.033,1.786
8840000,0.886,0.033,1.791
8844000,0.898,0.036,1.782
8848000,0.888,0.035,1.795
8856000,0.899,0.036,1.784
8860000,0.891,0.031,1.787
8864000,0.898,0.041,1.788
8868000,0.899,0.037,1.789
8876000,0.912,0.042,1.787
8880000,0.9,0.042,1.783
8888000,0.893,0.038,1.779
8896000,0.896,0.029,1.775
8900000,0.896,0.04,1.788
8904000,0.901,0.03,1.793
8908000,0.898,0.033,1.786
8912000,0.89,0.032,1.788
8920000,0.895,0.028,1.793
8924000,0.899,0.039,1.792
8932000,0.9,0.025,1.781
8940000,0.894,0.036,1.798
8944000,0.897,0.034,1.789
8948000,0.899,0.035,1.784
8956000,0.9,0.031,1.784
8960000,0.892,0.031,1.784
8964000,0.9,0.035,1.786
8968000,0.89,0.033,1.785
8976000,0.892,0.034,1.797
8980000,0.897,0.037,1.781
8988000,0.898,0.038,1.781
8992000,0.893,0.032,1.785
8996000,0.893,0.036,1.783
9004000,0.902,0.023,1.778
9012000,0.895,0.034,1.791
9016000,0.9,0.031,1.786
9020000,0.898,0.035,1.787
9024000,0.897,0.04,1.786
9028000,0.892,0.045,1.788
9032000,0.893,0.032,1.787
9040000,0.9,0.024,1.793
9044000,0.897,0.042,1.785
9048000,0.896,0.031,1.789
9056000,0.905,0.028,1.781
9064000,0.9,0.038,1.782
9068000,0.889,0.038,1.791
9072000,0.904,0.038,1.777
9076000,0.892,0.03,1.79
9080000,0.894,0.032,1.796
9084000,0.885,0.033,1.791
9092000,0.895,0.023,1.792
9096000,0.9,0.028,1.796
9100000,0.904,0.038,1.792
9104000,0.894,0.03,1.788
9108000,0.903,0.038,1.786
9112000,0.889,0.029,1.778
9116000,0.893,0.026,1.789
9120000,0.892,0.03,1.773
9128000,0.899,0.034,1.786
9132000,0.9,0.038,1.787
9136000,0.904,0.029,1.786
9140000,0.904,0.035,1.789
9144000,0.905,0.025,1.786
9148000,0.893,0.042,1.787
9152000,0.897,0.032,1.786
9156000,0.891,0.032,1.785
9164000,0.901,0.038,1.785
9168000,0.897,0.035,1.791
9176000,0.896,0.033,1.785
9184000,0.899,0.025,1.78
9188000,0.894,0.028,1.788
9192000,0.892,0.031,1.791
9196000,0.899,0.031,1.786
9204000,0.902,0.031,1.78
9208000,0.903,0.032,1.788
9212000,0.885,0.023,1.792
9216000,0.9,0.027,1.786
9220000,0.904,0.04,1.785
9224000,0.907,0.043,1.778
9232000,0.891,0.034,1.786
9236000,0.898,0.034,1.79
9240000,0.894,0.031,1.784
9244000,0.898,0.029,1.787
9248000,0.898,0.035,1.796
9256000,0.897,0.033,1.778
9260000,0.898,0.023,1.785
9264000,0.896,0.033,1.78
9268000,0.896,0.031,1.783
9272000,0.894,0.03,1.786
9276000,0.898,0.04,1.79
9280000,0.898,0.036,1.786
9284000,0.899,0.033,1.786
9288000,0.897,0.036,1.786
9296000,0.89,0.035,1.792
9300000,0.898,0.038,1.784
9304000,0.899,0.034,1.789
9308000,0.901,0.029,1.788
9312000,0.891,0.032,1.791
9316000,0.897,0.025,1.792
9324000,0.897,0.033,1.793
9328000,0.9,0.026,1.789
9332000,0.897,0.024,1.795
9340000,0.91,0.032,1.779
9348000,0.897,0.023,1.79
9352000,0.905,0.027,1.786
9360000,0.895,0.043,1.783
9364000,0.898,0.033,1.787
9368000,0.898,0.031,1.79
9372000,0.899,0.045,1.794
9376000,0.894,0.035,1.79
9380000,0.901,0.024,1.783
9388000,0.896,0.029,1.776
9392000,0.895,0.034,1.788
9396000,0.895,0.034,1.787
9400000,0.894,0.026,1.788
9404000,0.902,0.029,1.788
9408000,0.9,0.035,1.786
9412000,0.884,0.029,1.788
9416000,0.894,0.03,1.788
9424000,0.889,0.035,1.788
9428000,0.9,0.041,1.789
9432000,0.889,0.04,1.786
9436000,0.903,0.036,1.794
9440000,0.893,0.029,1.79
9448000,0.892,0.033,1.788
9456000,0.895,0.034,1.786
9460000,0.897,0.034,1.784
9464000,0.897,0.04,1.785
9468000,0.894,0.031,1.782
9472000,0.893,0.039,1.776
9476000,0.897,0.032,1.79
9480000,0.905,0.038,1.79
9484000,0.891,0.035,1.782
9492000,0.899,0.03,1.781
9496000,0.904,0.033,1.78
9500000,0.9,0.04,1.783
9504000,0.889,0.034,1.783
9512000,0.904,0.025,1.776
9516000,0.896,0.027,1.78
9524000,0.907,0.039,1.786
9528000,0.889,0.039,1.785
9532000,0.893,0.035,1.792
9536000,0.896,0.04,1.778
9540000,0.902,0.031,1.788
9544000,0.9,0.029,1.785
9548000,0.896,0.02,1.787
9552000,0.893,0.042,1.783
9556000,0.905,0.03,1.782
9560000,0.905,0.032,1.785
9564000,0.894,0.03,1.793
9572000,0.902,0.03,1.78
9576000,0.903,0.03,1.791
9580000,0.9,0.028,1.787
9588000,0.895,0.039,1.79
9592000,0.882,0.042,1.788
9596000,0.906,0.045,1.798
9604000,0.899,0.034,1.788
9608000,0.9,0.028,1.788
9612000,0.896,0.037,1.784
9616000,0.896,0.031,1.792
9620000,0.897,0.031,1.788
9628000,0.899,0.023,1.776
9632000,0.906,0.032,1.799
9636000,0.897,0.032,1.785
9640000,0.898,0.037,1.783
9648000,0.894,0.041,1.781
9652000,0.899,0.041,1.787
9660000,0.895,0.033,1.783
9664000,0.897,0.041,1.789
9668000,0.897,0.032,1.783
9676000,0.892,0.021,1.788
9680000,0.898,0.034,1.785
9684000,0.886,0.025,1.796
9692000,0.897,0.037,1.791
9696000,0.901,0.039,1.785
9700000,0.899,0.036,1.789
9704000,0.897,0.032,1.785
9708000,0.889,0.038,1.794
9716000,0.899,0.032,1.79
9720000,0.892,0.039,1.79
9724000,0.891,0.032,1.786
9728000,0.898,0.044,1.777
9732000,0.895,0.037,1.792
9740000,0.89,0.04,1.785
9744000,0.893,0.035,1.793
9748000,0.896,0.034,1.789
9752000,0.906,0.017,1.787
9756000,0.892,0.025,1.791
9760000,0.894,0.031,1.788
9764000,0.898,0.03,1.785
9772000,0.902,0.026,1.789
9780000,0.9,0.03,1.778
9784000,0.909,0.026,1.789
9788000,0.892,0.038,1.779
9792000,0.897,0.031,1.782
9796000,0.891,0.03,1.785
9800000,0.903,0.037,1.78
9804000,0.887,0.039,1.785
9808000,0.89,0.038,1.783
9812000,0.905,0.037,1.797
9820000,0.89,0.032,1.786
9824000,0.889,0.024,1.793
9828000,0.892,0.036,1.786
9832000,0.902,0.028,1.79
9836000,0.899,0.027,1.781
9840000,0.892,0.034,1.792
9844000,0.896,0.037,1.797
9848000,0.891,0.032,1.778
9852000,0.898,0.033,1.772
9856000,0.896,0.032,1.786
9860000,0.9,0.035,1.788
9864000,0.891,0.035,1.783
9868000,0.892,0.028,1.782
9872000,0.9,0.029,1.786
9876000,0.891,0.046,1.793
9880000,0.904,0.041,1.783
9884000,0.9,0.025,1.794
9892000,0.89,0.033,1.786
9896000,0.903,0.033,1.784
9900000,0.892,0.033,1.792
9904000,0.9,0.036,1.786
9912000,0.893,0.027,1.787
9916000,0.899,0.028,1.79
9920000,0.892,0.034,1.78
9924000,0.901,0.036,1.798
9928000,0.892,0.031,1.791
9940000,0.898,0.04,1.783
9944000,0.899,0.03,1.786
9952000,0.895,0.033,1.783
9960000,0.895,0.027,1.778
9964000,0.892,0.033,1.781
9968000,0.892,0.034,1.796
9972000,0.9,0.024,1.78
9980000,0.902,0.03,1.797
9984000,0.897,0.035,1.787
9988000,0.898,0.033,1.792
9996000,0.9,0.031,1.791
10004000,0.901,0.026,1.788
10008000,0.898,0.033,1.794
10012000,0.897,0.035,1.785
10020000,0.897,0.03,1.794
10024000,0.897,0.028,1.793
10028000,0.897,0.03,1.793
10032000,0.9,0.034,1.787
10040000,0.901,0.037,1.795
10044000,0.896,0.028,1.791
10052000,0.89,0.026,1.779
10056000,0.896,0.042,1.786
10060000,0.891,0.025,1.78
10064000,0.899,0.04,1.789
10068000,0.892,0.031,1.787
10076000,0.893,0.04,1.784
10080000,0.901,0.033,1.792
10084000,0.891,0.028,1.791
10088000,0.894,0.034,1.784
10092000,0.897,0.022,1.792
10096000,0.898,0.036,1.787
10100000,0.903,0.03,1.782
10108000,0.901,0.03,1.792
10112000,0.901,0.034,1.78
10120000,0.892,0.043,1.781
10124000,0.897,0.031,1.784
10128000,0.898,0.038,1.792
10132000,0.899,0.04,1.79
10136000,0.902,0.034,1.788
10140000,0.898,0.043,1.778
10144000,0.892,0.031,1.788
10148000,0.892,0.023,1.787
10156000,0.89,0.036,1.788
10160000,0.89,0.037,1.791
10164000,0.903,0.034,1.784
10172000,0.9,0.027,1.79
10180000,0.9,0.041,1.783
10184000,0.891,0.021,1.794
10188000,0.899,0.032,1.788
10192000,0.906,0.027,1.783
10196000,0.883,0.035,1.782
10204000,0.896,0.037,1.789
10208000,0.9,0.036,1.792
10212000,0.899,0.043,1.797
10216000,0.894,0.026,1.778
10220000,0.903,0.034,1.795
10224000,0.899,0.03,1.787
10228000,0.894,0.035,1.797
10236000,0.897,0.042,1.786
10240000,0.904,0.046,1.786
10244000,0.902,0.033,1.781
10248000,0.899,0.029,1.783
10252000,0.892,0.028,1.788
10256000,0.898,0.032,1.782
10260000,0.897,0.034,1.786
10264000,0.894,0.028,1.785
10272000,0.896,0.036,1.788
10276000,0.893,0.029,1.794
10280000,0.894,0.026,1.795
10284000,0.888,0.038,1.784
10292000,0.892,0.028,1.785
10296000,0.901,0.043,1.793
10300000,0.898,0.036,1.789
10304000,0.9,0.033,1.782
10312000,0.891,0.032,1.782
10316000,0.895,0.04,1.795
10324000,0.897,0.035,1.785
10328000,0.897,0.03,1.784
10336000,0.898,0.03,1.794
10340000,0.897,0.034,1.787
10344000,0.899,0.025,1.795
10348000,0.898,0.033,1.777
10352000,0.898,0.031,1.784
10356000,0.891,0.033,1.785
10360000,0.899,0.032,1.784
10364000,0.892,0.041,1.784
10368000,0.894,0.032,1.78
10372000,0.901,0.033,1.786
10380000,0.901,0.036,1.779
10388000,0.888,0.034,1.777
10392000,0.906,0.025,1.787
10396000,0.887,0.031,1.784
10400000,0.897,0.032,1.792
10404000,0.901,0.043,1.795
10408000,0.892,0.028,1.784
10412000,0.902,0.034,1.787
10416000,0.907,0.031,1.784
10424000,0.896,0.034,1.794
10428000,0.895,0.035,1.794
10432000,0.9,0.029,1.788
10436000,0.894,0.031,1.782
10440000,0.896,0.032,1.787
10444000,0.905,0.038,1.78
10452000,0.898,0.032,1.789
10456000,0.895,0.028,1.777
10460000,0.894,0.03,1.791
10464000,0.892,0.034,1.787
10468000,0.886,0.028,1.793
10472000,0.896,0.033,1.789
10476000,0.896,0.034,1.788
10480000,0.899,0.036,1.777
10484000,0.899,0.034,1.789
10492000,0.905,0.039,1.781
10496000,0.896,0.04,1.783
10500000,0.892,0.031,1.791
10508000,0.906,0.035,1.778
10512000,0.897,0.033,1.793
10516000,0.896,0.03,1.791
10524000,0.896,0.037,1.787
10528000,0.895,0.04,1.788
10532000,0.896,0.031,1.784
10536000,0.891,0.026,1.784
10540000,0.897,0.038,1.786
10544000,0.892,0.032,1.786
10552000,0.896,0.031,1.796
10556000,0.898,0.019,1.787
10560000,0.888,0.029,1.782
10564000,0.899,0.031,1.797
10568000,0.897,0.033,1.784
10572000,0.89,0.031,1.79
10580000,0.898,0.028,1.788
10588000,0.897,0.034,1.787
10592000,0.892,0.034,1.79
10596000,0.899,0.033,1.791
10604000,0.899,0.034,1.795
10612000,0.896,0.031,1.78
10616000,0.9,0.043,1.785
10620000,0.897,0.041,1.786
10628000,0.9,0.042,1.791
10636000,0.893,0.037,1.79
10640000,0.897,0.035,1.793
10644000,0.892,0.038,1.791
10648000,0.898,0.031,1.798
10652000,0.889,0.033,1.796
10656000,0.896,0.031,1.777
10660000,0.902,0.023,1.784
10664000,0.897,0.038,1.786
10668000,0.89,0.025,1.782
10672000,0.899,0.028,1.787
10680000,0.897,0.037,1.794
10688000,0.894,0.033,1.792
10692000,0.893,0.029,1.79
10696000,0.899,0.032,1.78
10700000,0.892,0.029,1.79
10704000,0.897,0.034,1.788
10708000,0.902,0.033,1.784
10712000,0.893,0.043,1.788
10720000,0.897,0.029,1.788
10724000,0.895,0.024,1.787
10732000,0.895,0.025,1.787
10736000,0.893,0.037,1.784
10744000,0.897,0.038,1.78
10748000,0.895,0.028,1.789
10752000,0.903,0.026,1.784
10760000,0.894,0.031,1.786
10764000,0.905,0.035,1.789
10772000,0.892,0.03,1.795
10776000,0.909,0.037,1.782
10780000,0.89,0.033,1.783
10788000,0.896,0.033,1.785
10792000,0.898,0.026,1.787
10796000,0.897,0.035,1.792
10800000,0.892,0.036,1.793
10804000,0.891,0.029,1.783
10808000,0.897,0.031,1.79
10812000,0.888,0.044,1.786
10816000,0.901,0.028,1.794
10820000,0.889,0.024,1.788
10828000,0.896,0.028,1.791
10832000,0.889,0.033,1.792
10836000,0.893,0.029,1.792
10840000,0.892,0.038,1.787
10844000,0.898,0.036,1.782
10852000,0.894,0.035,1.788
10860000,0.902,0.025,1.785
10864000,0.899,0.032,1.793
10868000,0.887,0.034,1.791
10872000,0.893,0.03,1.783
10876000,0.888,0.033,1.79
10884000,0.897,0.03,1.776
10888000,0.904,0.026,1.784
10892000,0.893,0.034,1.781
10896000,0.895,0.031,1.787
10900000,0.895,0.037,1.786
10904000,0.898,0.031,1.782
10908000,0.9,0.046,1.788
10912000,0.897,0.025,1.783
10916000,0.898,0.029,1.791
10924000,0.899,0.037,1.784
10928000,0.895,0.032,1.788
10936000,0.905,0.036,1.792
10940000,0.899,0.034,1.783
10948000,0.9,0.04,1.787
10952000,0.901,0.037,1.791
10956000,0.897,0.034,1.773
10964000,0.9,0.035,1.792
10968000,0.892,0.029,1.783
10972000,0.903,0.032,1.779
10976000,0.893,0.043,1.796
10980000,0.894,0.033,1.786
10984000,0.9,0.034,1.786
10988000,0.894,0.028,1.787
10992000,0.893,0.042,1.78
10996000,0.895,0.03,1.788
11000000,0.904,0.037,1.793
11004000,0.889,0.04,1.789
11012000,0.897,0.037,1.782
11016000,0.898,0.038,1.778
11024000,0.898,0.035,1.785
11028000,0.888,0.029,1.791
11036000,0.901,0.033,1.788
11040000,0.899,0.036,1.791
11044000,0.899,0.03,1.78
11052000,0.904,0.032,1.788
11056000,0.898,0.038,1.792
11060000,0.895,0.031,1.786
11068000,0.897,0.034,1.79
11072000,0.895,0.037,1.785
11076000,0.906,0.038,1.786
11080000,0.892,0.03,1.79
11088000,0.906,0.036,1.784
11096000,0.898,0.036,1.781
11100000,0.894,0.043,1.788
11104000,0.899,0.037,1.792
11112000,0.899,0.032,1.785
11116000,0.901,0.034,1.783
11120000,0.892,0.035,1.788
11124000,0.889,0.026,1.774
11128000,0.892,0.035,1.791
11132000,0.891,0.034,1.787
11140000,0.896,0.029,1.787
11144000,0.894,0.031,1.783
11152000,0.89,0.027,1.795
11156000,0.899,0.036,1.788
11160000,0.893,0.028,1.785
11164000,0.894,0.046,1.786
11168000,0.894,0.032,1.789
11172000,0.901,0.032,1.788
11176000,0.9,0.036,1.786
11180000,0.901,0.039,1.785
11184000,0.895,0.034,1.784
11188000,0.898,0.037,1.782
11196000,0.896,0.028,1.776
11200000,0.898,0.038,1.783
11208000,0.899,0.033,1.783
11212000,0.906,0.037,1.78
11220000,0.897,0.034,1.789
11224000,0.892,0.03,1.784
11228000,0.9,0.03,1.787
11236000,0.896,0.033,1.794
11240000,0.901,0.04,1.779
11244000,0.895,0.031,1.778
11248000,0.893,0.03,1.786
11252000,0.896,0.033,1.778
11256000,0.895,0.038,1.792
11260000,0.903,0.025,1.789
11268000,0.896,0.038,1.778
11272000,0.894,0.028,1.795
11276000,0.895,0.038,1.786
11284000,0.9,0.042,1.789
11292000,0.899,0.04,1.787
11300000,0.895,0.032,1.786
11304000,0.901,0.029,1.789
11312000,0.901,0.027,1.791
11316000,0.905,0.031,1.786
11320000,0.885,0.04,1.788
11324000,0.882,0.038,1.79
11328000,0.903,0.032,1.784
11332000,0.901,0.037,1.785
11340000,0.894,0.031,1.796
11344000,0.904,0.035,1.789
11352000,0.896,0.03,1.792
11360000,0.894,0.04,1.789
11364000,0.909,0.031,1.792
11372000,0.895,0.037,1.791
11376000,0.893,0.038,1.79
11380000,0.893,0.038,1.781
11388000,0.898,0.025,1.791
11392000,0.902,0.031,1.784
11396000,0.899,0.03,1.789
11404000,0.892,0.034,1.786
11408000,0.905,0.027,1.784
11412000,0.898,0.031,1.775
11420000,0.898,0.035,1.785
11424000,0.897,0.028,1.782
11428000,0.9,0.028,1.791
11436000,0.899,0.032,1.781
11440000,0.898,0.034,1.788
11444000,0.902,0.019,1.783
11452000,0.9,0.026,1.783
11456000,0.899,0.028,1.792
11460000,0.899,0.034,1.786
11464000,0.896,0.03,1.786
11468000,0.896,0.037,1.794
11472000,0.899,0.03,1.788
11476000,0.903,0.045,1.777
11480000,0.896,0.021,1.793
11488000,0.903,0.03,1.787
11492000,0.893,0.03,1.787
11496000,0.892,0.043,1.781
11500000,0.899,0.027,1.775
11504000,0.889,0.03,1.787
11512000,0.893,0.037,1.778
11516000,0.901,0.038,1.787
11520000,0.888,0.025,1.787
11528000,0.901,0.029,1.79
11532000,0.894,0.034,1.791
11536000,0.898,0.029,1.785
11540000,0.899,0.036,1.79
11544000,0.9,0.028,1.774
11548000,0.895,0.03,1.78
11556000,0.9,0.033,1.787
11560000,0.9,0.035,1.787
11564000,0.894,0.032,1.794
11568000,0.892,0.027,1.79
11576000,0.898,0.029,1.791
11580000,0.885,0.038,1.791
11588000,0.899,0.04,1.796
11592000,0.905,0.024,1.786
11596000,0.894,0.045,1.784
11600000,0.901,0.041,1.79
11604000,0.901,0.021,1.79
11608000,0.897,0.031,1.79
11612000,0.891,0.027,1.784
11616000,0.9,0.038,1.781
11624000,0.895,0.03,1.784
11628000,0.901,0.044,1.781
11632000,0.895,0.036,1.793
11636000,0.895,0.039,1.774
11640000,0.894,0.025,1.791
11644000,0.905,0.037,1.784
11652000,0.902,0.027,1.778
11660000,0.892,0.024,1.776
11664000,0.897,0.035,1.79
11668000,0.888,0.04,1.784
11676000,0.892,0.027,1.784
11680000,0.898,0.035,1.784
11684000,0.9,0.029,1.771
11692000,0.881,0.037,1.789
11696000,0.898,0.032,1.787
11704000,0.898,0.034,1.795
11708000,0.905,0.033,1.783
11712000,0.894,0.029,1.794
11720000,0.905,0.034,1.79
11724000,0.903,0.025,1.788
11728000,0.897,0.03,1.784
11732000,0.898,0.034,1.789
11736000,0.903,0.036,1.787
11740000,0.893,0.037,1.786
11744000,0.897,0.036,1.784
11752000,0.891,0.034,1.786
11756000,0.893,0.028,1.787
11760000,0.907,0.034,1.789
11764000,0.899,0.037,1.788
11768000,0.898,0.034,1.787
11772000,0.904,0.039,1.79
11776000,0.899,0.039,1.787
11780000,0.899,0.035,1.789
11784000,0.894,0.031,1.778
11792000,0.892,0.033,1.785
11796000,0.89,0.033,1.784
11800000,0.894,0.031,1.792
11808000,0.908,0.034,1.788
11812000,0.895,0.039,1.788
11816000,0.9,0.03,1.788
11820000,0.898,0.034,1.789
11824000,0.89,0.024,1.782
11828000,0.892,0.031,1.787
11836000,0.893,0.032,1.791
11840000,0.899,0.027,1.785
11844000,0.886,0.033,1.785
11852000,0.902,0.024,1.778
11860000,0.894,0.039,1.792
11864000,0.894,0.031,1.78
11868000,0.896,0.033,1.796
11872000,0.902,0.027,1.781
11876000,0.896,0.034,1.778
11880000,0.895,0.026,1.782
11888000,0.898,0.031,1.78
11892000,0.898,0.031,1.781
11896000,0.906,0.032,1.786
11900000,0.896,0.036,1.789
11904000,0.898,0.025,1.788
11908000,0.903,0.033,1.778
11912000,0.894,0.031,1.782
11916000,0.894,0.02,1.784
11920000,0.902,0.032,1.785
11924000,0.896,0.042,1.788
