timestamp,vel_pos_innov[0],vel_pos_innov[1],vel_pos_innov[2],vel_pos_innov[3],vel_pos_innov[4],vel_pos_innov[5],mag_innov[0],mag_innov[1],mag_innov[2],heading_innov,airspeed_innov,beta_innov,flow_innov[0],flow_innov[1],hagl_innov,vel_pos_innov_var[0],vel_pos_innov_var[1],vel_pos_innov_var[2],vel_pos_innov_var[3],vel_pos_innov_var[4],vel_pos_innov_var[5],mag_innov_var[0],mag_innov_var[1],mag_innov_var[2],heading_innov_var,airspeed_innov_var,beta_innov_var,flow_innov_var[0],flow_innov_var[1],hagl_innov_var,output_tracking_error[0],output_tracking_error[1],output_tracking_error[2],drag_innov[0],drag_innov[1],drag_innov_var[0],drag_innov_var[1],aux_vel_innov[0],aux_vel_innov[1]
1252000,0.0,0.0,0.0,0.000139831,3.08415e-05,-0.0104065,0.0,0.0,0.0,-0.000445524,0.0,0.0,0.0,0.0,0.0,0.0,0.0,0.0,0.302407,0.302407,4.22874,0.0,0.0,0.0,0.0932335,0.0,0.0,0.0,0.0,0.0,0.000554891,0.00163789,0.00198032,0.0,0.0,0.0,0.0,0.0,0.0
1444000,0.0,0.0,0.0,-1.09814e-05,0.000201362,-0.089447,0.0,0.0,0.0,0.00435766,0.0,0.0,0.0,0.0,0.0,0.0,0.0,0.0,0.286331,0.286331,4.19285,0.0,0.0,0.0,0.0924547,0.0,0.0,0.0,0.0,0.0,0.000427502,0.0063067,0.00797088,0.0,0.0,0.0,0.0,0.0,0.0
1636000,0.0,0.0,0.0,-4.00072e-05,0.000282593,0.0899353,0.0,0.0,0.0,0.00375921,0.0,0.0,0.0,0.0,0.0,0.0,0.0,0.0,0.278365,0.278365,4.18638,0.0,0.0,0.0,0.0920286,0.0,0.0,0.0,0.0,0.0,0.00067638,0.00847133,0.0101726,0.0,0.0,0.0,0.0,0.0,0.0
1828000,0.0,0.0,0.0,0.000224302,2.88271e-05,0.00228882,0.0,0.0,0.0,-0.00202192,0.0,0.0,0.0,0.0,0.0,0.0,0.0,0.0,0.273087,0.273087,4.18773,0.0,0.0,0.0,0.0917052,0.0,0.0,0.0,0.0,0.0,0.000424804,0.000857129,0.00485747,0.0,0.0,0.0,0.0,0.0,0.0
2020000,0.0,0.0,0.0,0.000674639,-0.000161057,0.00817871,0.0,0.0,0.0,0.0076672,0.0,0.0,0.0,0.0,0.0,0.0,0.0,0.0,0.269392,0.269392,4.18545,0.0,0.0,0.0,0.0914784,0.0,0.0,0.0,0.0,0.0,0.000549753,0.00228285,0.0064675,0.0,0.0,0.0,0.0,0.0,0.0
2212000,0.0,0.0,0.0,0.00110508,-0.000276048,-0.0249329,0.0,0.0,0.0,0.00237144,0.0,0.0,0.0,0.0,0.0,0.0,0.0,0.0,0.267545,0.267545,4.18333,0.0,0.0,0.0,0.0913142,0.0,0.0,0.0,0.0,0.0,0.000462397,0.000967337,0.00375616,0.0,0.0,0.0,0.0,0.0,0.0
2404000,0.0,0.0,0.0,0.00132033,-0.000331116,-0.0328369,0.0,0.0,0.0,0.000499233,0.0,0.0,0.0,0.0,0.0,0.0,0.0,0.0,0.266903,0.266903,4.1808,0.0,0.0,0.0,0.0912045,0.0,0.0,0.0,0.0,0.0,0.000297122,0.00375616,0.00746886,0.0,0.0,0.0,0.0,0.0,0.0
2596000,0.0,0.0,0.0,0.0015426,-0.000585572,0.0382385,0.0,0.0,0.0,0.00283665,0.0,0.0,0.0,0.0,0.0,0.0,0.0,0.0,0.266535,0.266535,4.17399,0.0,0.0,0.0,0.0911084,0.0,0.0,0.0,0.0,0.0,0.000234143,0.0062451,0.00481696,0.0,0.0,0.0,0.0,0.0,0.0
2788000,0.0,0.0,0.0,0.00176906,-0.000929228,-0.0262146,0.0,0.0,0.0,0.00136975,0.0,0.0,0.0,0.0,0.0,0.0,0.0,0.0,0.266479,0.266479,4.16686,0.0,0.0,0.0,0.0910416,0.0,0.0,0.0,0.0,0.0,0.000145955,0.00505073,0.00451784,0.0,0.0,0.0,0.0,0.0,0.0
2980000,0.0,0.0,0.0,0.00210982,-0.00124881,-0.0491333,0.0,0.0,0.0,-0.00167257,0.0,0.0,0.0,0.0,0.0,0.0,0.0,0.0,0.266757,0.266757,4.15988,0.0,0.0,0.0,0.0909832,0.0,0.0,0.0,0.0,0.0,0.000124921,0.00211484,0.00190635,0.0,0.0,0.0,0.0,0.0,0.0
3172000,0.0,0.0,0.0,0.00208994,-0.00150139,0.066925,0.0,0.0,0.0,-0.00377351,0.0,0.0,0.0,0.0,0.0,0.0,0.0,0.0,0.266727,0.266727,4.1521,0.0,0.0,0.0,0.0909363,0.0,0.0,0.0,0.0,0.0,0.000146005,0.0028878,0.00417795,0.0,0.0,0.0,0.0,0.0,0.0
3364000,0.0,0.0,0.0,0.00220626,-0.00143998,0.000335693,0.0,0.0,0.0,0.00498868,0.0,0.0,0.0,0.0,0.0,0.0,0.0,0.0,0.266629,0.266629,4.14569,0.0,0.0,0.0,0.0908998,0.0,0.0,0.0,0.0,0.0,0.000181769,0.00552028,0.00569882,0.0,0.0,0.0,0.0,0.0,0.0
3556000,0.0,0.0,0.0,0.00225557,-0.00138675,0.0410461,0.0,0.0,0.0,-0.00725227,0.0,0.0,0.0,0.0,0.0,0.0,0.0,0.0,0.266736,0.266736,4.14204,0.0,0.0,0.0,0.0908736,0.0,0.0,0.0,0.0,0.0,0.000196245,0.00284106,0.00240523,0.0,0.0,0.0,0.0,0.0,0.0
3748000,0.0,0.0,0.0,0.00186606,-0.00140986,0.039917,0.0,0.0,0.0,0.00239266,0.0,0.0,0.0,0.0,0.0,0.0,0.0,0.0,0.26657,0.26657,4.13911,0.0,0.0,0.0,0.0908555,0.0,0.0,0.0,0.0,0.0,0.000197813,0.00290241,0.00268571,0.0,0.0,0.0,0.0,0.0,0.0
3940000,0.0,0.0,0.0,0.00150971,-0.00132883,0.069519,0.0,0.0,0.0,0.00254692,0.0,0.0,0.0,0.0,0.0,0.0,0.0,0.0,0.266396,0.266396,4.13706,0.0,0.0,0.0,0.0908407,0.0,0.0,0.0,0.0,0.0,0.000172164,0.00194407,0.00264674,0.0,0.0,0.0,0.0,0.0,0.0
4132000,0.0,0.0,0.0,0.00132812,-0.00124845,-0.0231934,0.0,0.0,0.0,0.00472126,0.0,0.0,0.0,0.0,0.0,0.0,0.0,0.0,0.266143,0.266143,4.13569,0.0,0.0,0.0,0.0908303,0.0,0.0,0.0,0.0,0.0,0.000152883,0.00246569,0.00228107,0.0,0.0,0.0,0.0,0.0,0.0
4324000,0.0,0.0,0.0,0.00125907,-0.00138592,0.00656128,0.0,0.0,0.0,-0.00284493,0.0,0.0,0.0,0.0,0.0,0.0,0.0,0.0,0.265534,0.265534,4.13326,0.0,0.0,0.0,0.0908208,0.0,0.0,0.0,0.0,0.0,0.000184885,0.00531283,0.00825658,0.0,0.0,0.0,0.0,0.0,0.0
4516000,0.0,0.0,0.0,0.00118554,-0.00135124,-0.09021,0.0,0.0,0.0,-0.00273643,0.0,0.0,0.0,0.0,0.0,0.0,0.0,0.0,0.265271,0.265271,4.13257,0.0,0.0,0.0,0.0908162,0.0,0.0,0.0,0.0,0.0,0.000160009,0.000905944,0.00255555,0.0,0.0,0.0,0.0,0.0,0.0
4708000,0.0,0.0,0.0,0.00100845,-0.0012907,-0.127899,0.0,0.0,0.0,-0.00474215,0.0,0.0,0.0,0.0,0.0,0.0,0.0,0.0,0.265069,0.265069,4.13236,0.0,0.0,0.0,0.0908136,0.0,0.0,0.0,0.0,0.0,0.000284678,0.00248826,0.00171972,0.0,0.0,0.0,0.0,0.0,0.0
4900000,0.0,0.0,0.0,0.000586991,-0.00110825,0.0809021,0.0,0.0,0.0,0.000986134,0.0,0.0,0.0,0.0,0.0,0.0,0.0,0.0,0.264888,0.264888,4.13218,0.0,0.0,0.0,0.0908124,0.0,0.0,0.0,0.0,0.0,0.000342681,0.0016028,0.00106909,0.0,0.0,0.0,0.0,0.0,0.0
5092000,0.0,0.0,0.0,3.25033e-05,-0.000701163,-0.115753,0.0,0.0,0.0,0.000576473,0.0,0.0,0.0,0.0,0.0,0.0,0.0,0.0,0.264472,0.264472,4.13051,0.0,0.0,0.0,0.0908096,0.0,0.0,0.0,0.0,0.0,0.000371041,0.00113522,0.00241872,0.0,0.0,0.0,0.0,0.0,0.0
5284000,0.0,0.0,0.0,-0.000847046,-0.000436149,-0.0527344,0.0,0.0,0.0,-0.00465646,0.0,0.0,0.0,0.0,0.0,0.0,0.0,0.0,0.264328,0.264328,4.12993,0.0,0.0,0.0,0.0908094,0.0,0.0,0.0,0.0,0.0,0.000393242,0.00140406,0.00114504,0.0,0.0,0.0,0.0,0.0,0.0
5476000,0.0,0.0,0.0,-0.00185795,-0.000133819,0.00946045,0.0,0.0,0.0,-0.000456922,0.0,0.0,0.0,0.0,0.0,0.0,0.0,0.0,0.264238,0.264238,4.1294,0.0,0.0,0.0,0.0908102,0.0,0.0,0.0,0.0,0.0,0.000584092,0.00201767,0.00283407,0.0,0.0,0.0,0.0,0.0,0.0
5668000,0.0,0.0,0.0,-0.00286078,1.03654e-05,-0.218964,0.0,0.0,0.0,-0.00466906,0.0,0.0,0.0,0.0,0.0,0.0,0.0,0.0,0.264118,0.264118,4.1285,0.0,0.0,0.0,0.0908109,0.0,0.0,0.0,0.0,0.0,0.000440287,0.00845969,0.0111037,0.0,0.0,0.0,0.0,0.0,0.0
5860000,0.0,0.0,0.0,-0.00340477,7.86195e-05,-0.0157471,0.0,0.0,0.0,-0.00341476,0.0,0.0,0.0,0.0,0.0,0.0,0.0,0.0,0.263969,0.263969,4.12721,0.0,0.0,0.0,0.0908108,0.0,0.0,0.0,0.0,0.0,0.000357755,0.00361959,0.00404826,0.0,0.0,0.0,0.0,0.0,0.0
6052000,0.0,0.0,0.0,-0.00382764,0.000251462,0.0464478,0.0,0.0,0.0,0.00249441,0.0,0.0,0.0,0.0,0.0,0.0,0.0,0.0,0.263881,0.263881,4.12593,0.0,0.0,0.0,0.0908112,0.0,0.0,0.0,0.0,0.0,0.000369694,0.00804331,0.0116353,0.0,0.0,0.0,0.0,0.0,0.0
6252000,0.0,0.0,0.0,-0.0039704,0.000490245,0.154907,0.0,0.0,0.0,-0.000710002,0.0,0.0,0.0,0.0,0.0,0.0,0.0,0.0,0.263791,0.263791,4.12446,0.0,0.0,0.0,0.0908111,0.0,0.0,0.0,0.0,0.0,0.000361932,0.0114056,0.0183879,0.0,0.0,0.0,0.0,0.0,0.0
6444000,0.0,0.0,0.0,-0.0035834,0.000829891,0.0164795,0.0,0.0,0.0,-0.00184028,0.0,0.0,0.0,0.0,0.0,0.0,0.0,0.0,0.263437,0.263437,4.12156,0.0,0.0,0.0,0.0908079,0.0,0.0,0.0,0.0,0.0,0.000417167,0.00876992,0.0153543,0.0,0.0,0.0,0.0,0.0,0.0
6636000,0.0,0.0,0.0,-0.00309243,0.000968354,0.0276794,0.0,0.0,0.0,-0.00123259,0.0,0.0,0.0,0.0,0.0,0.0,0.0,0.0,0.263329,0.263329,4.11982,0.0,0.0,0.0,0.0908068,0.0,0.0,0.0,0.0,0.0,0.00037592,0.00434533,0.00768809,0.0,0.0,0.0,0.0,0.0,0.0
6828000,0.0,0.0,0.0,-0.00282023,0.00133025,0.081665,0.0,0.0,0.0,-0.00501038,0.0,0.0,0.0,0.0,0.0,0.0,0.0,0.0,0.263179,0.263179,4.11796,0.0,0.0,0.0,0.0908048,0.0,0.0,0.0,0.0,0.0,0.000313188,0.00327171,0.00544592,0.0,0.0,0.0,0.0,0.0,0.0
7020000,0.0,0.0,0.0,-0.00235625,0.00204241,-0.0153809,0.0,0.0,0.0,-0.00222064,0.0,0.0,0.0,0.0,0.0,0.0,0.0,0.0,0.26306,0.26306,4.11609,0.0,0.0,0.0,0.0908026,0.0,0.0,0.0,0.0,0.0,0.000285637,0.00285556,0.00447258,0.0,0.0,0.0,0.0,0.0,0.0
7212000,0.0,0.0,0.0,-0.0012696,0.00251058,0.0609436,0.0,0.0,0.0,0.00145409,0.0,0.0,0.0,0.0,0.0,0.0,0.0,0.0,0.262707,0.262707,4.11311,0.0,0.0,0.0,0.0907974,0.0,0.0,0.0,0.0,0.0,0.000246818,0.00259245,0.00391831,0.0,0.0,0.0,0.0,0.0,0.0
7412000,0.0,0.0,0.0,3.97019e-05,0.00276607,-0.0688477,0.0,0.0,0.0,0.00508357,0.0,0.0,0.0,0.0,0.0,0.0,0.0,0.0,0.262587,0.262587,4.11124,0.0,0.0,0.0,0.0907941,0.0,0.0,0.0,0.0,0.0,0.000219957,0.00199376,0.00209185,0.0,0.0,0.0,0.0,0.0,0.0
7604000,0.0,0.0,0.0,0.000984496,0.00297356,-0.00445557,0.0,0.0,0.0,0.00058691,0.0,0.0,0.0,0.0,0.0,0.0,0.0,0.0,0.262447,0.262447,4.10934,0.0,0.0,0.0,0.0907903,0.0,0.0,0.0,0.0,0.0,0.000240636,0.00225099,0.00252792,0.0,0.0,0.0,0.0,0.0,0.0
7796000,0.0,0.0,0.0,0.00152091,0.00306553,-0.0724182,0.0,0.0,0.0,-1.20969e-05,0.0,0.0,0.0,0.0,0.0,0.0,0.0,0.0,0.262266,0.262266,4.10742,0.0,0.0,0.0,0.0907859,0.0,0.0,0.0,0.0,0.0,0.00021908,0.00321667,0.00491828,0.0,0.0,0.0,0.0,0.0,0.0
7988000,0.0,0.0,0.0,0.00194367,0.00323695,0.0223389,0.0,0.0,0.0,-0.000558783,0.0,0.0,0.0,0.0,0.0,0.0,0.0,0.0,0.262107,0.262107,4.1055,0.0,0.0,0.0,0.0907811,0.0,0.0,0.0,0.0,0.0,0.000226294,0.00378963,0.00630359,0.0,0.0,0.0,0.0,0.0,0.0
8180000,0.0,0.0,0.0,0.00188994,0.00333799,-0.0336914,0.0,0.0,0.0,0.00582382,0.0,0.0,0.0,0.0,0.0,0.0,0.0,0.0,0.26175,0.26175,4.10272,0.0,0.0,0.0,0.0907736,0.0,0.0,0.0,0.0,0.0,0.000232374,0.00380364,0.00660084,0.0,0.0,0.0,0.0,0.0,0.0
8372000,0.0,0.0,0.0,0.00196147,0.00325937,0.0253906,0.0,0.0,0.0,0.0031589,0.0,0.0,0.0,0.0,0.0,0.0,0.0,0.0,0.261594,0.261594,4.10088,0.0,0.0,0.0,0.090768,0.0,0.0,0.0,0.0,0.0,0.000228834,0.00245068,0.0029535,0.0,0.0,0.0,0.0,0.0,0.0
8564000,0.0,0.0,0.0,0.00164161,0.00331009,0.0245667,0.0,0.0,0.0,-0.000787777,0.0,0.0,0.0,0.0,0.0,0.0,0.0,0.0,0.261422,0.261422,4.09911,0.0,0.0,0.0,0.0907623,0.0,0.0,0.0,0.0,0.0,0.000203162,0.00213254,0.00275695,0.0,0.0,0.0,0.0,0.0,0.0
8756000,0.0,0.0,0.0,0.00117689,0.00363479,-0.0359192,0.0,0.0,0.0,-0.00383865,0.0,0.0,0.0,0.0,0.0,0.0,0.0,0.0,0.261277,0.261277,4.09736,0.0,0.0,0.0,0.090756,0.0,0.0,0.0,0.0,0.0,0.00020329,0.00261061,0.004406,0.0,0.0,0.0,0.0,0.0,0.0
8948000,0.0,0.0,0.0,0.0006241,0.00402229,-0.0102539,0.0,0.0,0.0,-0.000779416,0.0,0.0,0.0,0.0,0.0,0.0,0.0,0.0,0.260962,0.260962,4.0949,0.0,0.0,0.0,0.0907475,0.0,0.0,0.0,0.0,0.0,0.000199522,0.00159666,0.00201202,0.0,0.0,0.0,0.0,0.0,0.0
9140000,0.0,0.0,0.0,4.69609e-05,0.00452103,-0.0864563,0.0,0.0,0.0,0.00188731,0.0,0.0,0.0,0.0,0.0,0.0,0.0,0.0,0.260831,0.260831,4.09327,0.0,0.0,0.0,0.0907408,0.0,0.0,0.0,0.0,0.0,0.000240473,0.00324907,0.0062869,0.0,0.0,0.0,0.0,0.0,0.0
9332000,0.0,0.0,0.0,-0.000415225,0.00466373,0.0362244,0.0,0.0,0.0,0.00105478,0.0,0.0,0.0,0.0,0.0,0.0,0.0,0.0,0.260682,0.260682,4.09171,0.0,0.0,0.0,0.0907343,0.0,0.0,0.0,0.0,0.0,0.000261382,0.00151309,0.0025222,0.0,0.0,0.0,0.0,0.0,0.0
9524000,0.0,0.0,0.0,-0.000599624,0.00505706,-0.0531616,0.0,0.0,0.0,0.000977377,0.0,0.0,0.0,0.0,0.0,0.0,0.0,0.0,0.260553,0.260553,4.09016,0.0,0.0,0.0,0.0907272,0.0,0.0,0.0,0.0,0.0,0.000239327,0.00147984,0.00246179,0.0,0.0,0.0,0.0,0.0,0.0
9716000,0.0,0.0,0.0,-0.000507717,0.00533469,0.00897217,0.0,0.0,0.0,-0.0047022,0.0,0.0,0.0,0.0,0.0,0.0,0.0,0.0,0.260277,0.260277,4.08801,0.0,0.0,0.0,0.0907182,0.0,0.0,0.0,0.0,0.0,0.000300555,0.00121976,0.00152283,0.0,0.0,0.0,0.0,0.0,0.0
9908000,0.0,0.0,0.0,-0.000289947,0.00512296,-0.0106506,0.0,0.0,0.0,0.00172106,0.0,0.0,0.0,0.0,0.0,0.0,0.0,0.0,0.260159,0.260159,4.08657,0.0,0.0,0.0,0.0907109,0.0,0.0,0.0,0.0,0.0,0.000363669,0.00149165,0.00276403,0.0,0.0,0.0,0.0,0.0,0.0
10100000,0.0,0.0,0.0,-0.000112964,0.00501296,0.0395203,0.0,0.0,0.0,0.00219143,0.0,0.0,0.0,0.0,0.0,0.0,0.0,0.0,0.260024,0.260024,4.08518,0.0,0.0,0.0,0.0907039,0.0,0.0,0.0,0.0,0.0,0.00034223,0.00135274,0.00294868,0.0,0.0,0.0,0.0,0.0,0.0
10292000,0.0,0.0,0.0,0.000461417,0.00471152,-0.009552,0.0,0.0,0.0,0.0101975,0.0,0.0,0.0,0.0,0.0,0.0,0.0,0.0,0.259875,0.259875,4.08377,0.0,0.0,0.0,0.0978869,0.0,0.0,0.0,0.0,0.0,0.00142943,0.00133835,0.00320545,0.0,0.0,0.0,0.0,0.0,0.0
10492000,0.0,0.0,0.0,0.000870656,0.00418106,-0.00814819,0.0,0.0,0.0,-0.00161,0.0,0.0,0.0,0.0,0.0,0.0,0.0,0.0,0.259509,0.259509,4.0824,0.0,0.0,0.0,0.0944103,0.0,0.0,0.0,0.0,0.0,0.000622856,0.000363083,0.000653932,0.0,0.0,0.0,0.0,0.0,0.0
10684000,0.0,0.0,0.0,0.00171025,0.00328442,0.148865,0.0,0.0,0.0,-0.00375735,0.0,0.0,0.0,0.0,0.0,0.0,0.0,0.0,0.259107,0.259107,4.08108,0.0,0.0,0.0,0.0930624,0.0,0.0,0.0,0.0,0.0,0.000740264,0.00099863,0.00202654,0.0,0.0,0.0,0.0,0.0,0.0
10876000,0.0,0.0,0.0,0.0024037,0.00213351,0.0151978,0.0,0.0,0.0,-0.00445107,0.0,0.0,0.0,0.0,0.0,0.0,0.0,0.0,0.258915,0.258915,4.07983,0.0,0.0,0.0,0.0924096,0.0,0.0,0.0,0.0,0.0,0.000934858,0.00146715,0.00327344,0.0,0.0,0.0,0.0,0.0,0.0
11068000,0.0,0.0,0.0,0.0030556,0.000450697,-0.019989,0.0,0.0,0.0,0.000624173,0.0,0.0,0.0,0.0,0.0,0.0,0.0,0.0,0.259111,0.259111,4.0786,0.0,0.0,0.0,0.0919453,0.0,0.0,0.0,0.0,0.0,0.000602962,0.00120353,0.00148825,0.0,0.0,0.0,0.0,0.0,0.0
11260000,0.0,0.0,0.0,0.00323637,-0.00128497,-0.00115967,0.0,0.0,0.0,0.00326755,0.0,0.0,0.0,0.0,0.0,0.0,0.0,0.0,0.259616,0.259616,4.07693,0.0,0.0,0.0,0.0916327,0.0,0.0,0.0,0.0,0.0,0.000170378,0.00258979,0.00535211,0.0,0.0,0.0,0.0,0.0,0.0
11460000,0.0,0.0,0.0,0.00289063,-0.00310316,-0.00933838,0.0,0.0,0.0,0.0020533,0.0,0.0,0.0,0.0,0.0,0.0,0.0,0.0,0.260631,0.260631,4.07581,0.0,0.0,0.0,0.0914088,0.0,0.0,0.0,0.0,0.0,0.00034879,0.00271102,0.00381219,0.0,0.0,0.0,0.0,0.0,0.0
11652000,0.0,0.0,0.0,0.00232063,-0.00457584,-0.0176086,0.0,0.0,0.0,-0.00370895,0.0,0.0,0.0,0.0,0.0,0.0,0.0,0.0,0.26177,0.26177,4.07473,0.0,0.0,0.0,0.0912409,0.0,0.0,0.0,0.0,0.0,0.000234679,0.00399209,0.00635272,0.0,0.0,0.0,0.0,0.0,0.0
11844000,0.0,0.0,0.0,0.00187489,-0.00502876,-0.0264587,0.0,0.0,0.0,-0.0121369,0.0,0.0,0.0,0.0,0.0,0.0,0.0,0.0,0.262592,0.262592,4.07371,0.0,0.0,0.0,0.0911238,0.0,0.0,0.0,0.0,0.0,0.000550566,0.00443569,0.00665747,0.0,0.0,0.0,0.0,0.0,0.0
12036000,0.0,0.0,0.0,0.00132047,-0.00467201,0.0226135,0.0,0.0,0.0,-0.0027597,0.0,0.0,0.0,0.0,0.0,0.0,0.0,0.0,0.263256,0.263256,4.07272,0.0,0.0,0.0,0.0910179,0.0,0.0,0.0,0.0,0.0,0.000582458,0.00449459,0.00528261,0.0,0.0,0.0,0.0,0.0,0.0
12236000,0.0,0.0,0.0,0.000771783,-0.00361834,0.184998,0.0,0.0,0.0,-0.0015353,0.0,0.0,0.0,0.0,0.0,0.0,0.0,0.0,0.263281,0.263281,4.07135,0.0,0.0,0.0,0.090932,0.0,0.0,0.0,0.0,0.0,0.000458243,0.00403367,0.00524043,0.0,0.0,0.0,0.0,0.0,0.0
12428000,0.0,0.0,0.0,0.000106721,-0.00271519,0.0700684,0.0,0.0,0.0,-0.00463903,0.0,0.0,0.0,0.0,0.0,0.0,0.0,0.0,0.263268,0.263268,4.07047,0.0,0.0,0.0,0.0908618,0.0,0.0,0.0,0.0,0.0,0.000431762,0.00316168,0.00402254,0.0,0.0,0.0,0.0,0.0,0.0
12620000,0.0,0.0,0.0,-0.000513363,-0.00187122,0.0683594,0.0,0.0,0.0,-0.00624652,0.0,0.0,0.0,0.0,0.0,0.0,0.0,0.0,0.263037,0.263037,4.06964,0.0,0.0,0.0,0.0908036,0.0,0.0,0.0,0.0,0.0,0.000451035,0.00232825,0.00338971,0.0,0.0,0.0,0.0,0.0,0.0
12812000,0.0,0.0,0.0,-0.000950457,-0.000998411,-0.0724182,0.0,0.0,0.0,-0.00428567,0.0,0.0,0.0,0.0,0.0,0.0,0.0,0.0,0.262673,0.262673,4.06885,0.0,0.0,0.0,0.0907597,0.0,0.0,0.0,0.0,0.0,0.000279564,0.0016386,0.00276781,0.0,0.0,0.0,0.0,0.0,0.0
13004000,0.0,0.0,0.0,-0.00141156,-0.000391511,-0.0169373,0.0,0.0,0.0,-0.000121756,0.0,0.0,0.0,0.0,0.0,0.0,0.0,0.0,0.262254,0.262254,4.06811,0.0,0.0,0.0,0.0907177,0.0,0.0,0.0,0.0,0.0,0.000278668,0.00210248,0.00525693,0.0,0.0,0.0,0.0,0.0,0.0
13196000,0.0,0.0,0.0,-0.00195212,0.000115117,-0.0573425,0.0,0.0,0.0,-0.00273265,0.0,0.0,0.0,0.0,0.0,0.0,0.0,0.0,0.261629,0.261629,4.06705,0.0,0.0,0.0,0.0906815,0.0,0.0,0.0,0.0,0.0,0.000318513,0.00241401,0.00636673,0.0,0.0,0.0,0.0,0.0,0.0
13388000,0.0,0.0,0.0,-0.00196424,0.000973929,0.0475769,0.0,0.0,0.0,0.00106151,0.0,0.0,0.0,0.0,0.0,0.0,0.0,0.0,0.261201,0.261201,4.06643,0.0,0.0,0.0,0.0906511,0.0,0.0,0.0,0.0,0.0,0.000206667,0.0015062,0.00272842,0.0,0.0,0.0,0.0,0.0,0.0
13580000,0.0,0.0,0.0,-0.00194703,0.00204383,-0.00836182,0.0,0.0,0.0,0.000516184,0.0,0.0,0.0,0.0,0.0,0.0,0.0,0.0,0.260796,0.260796,4.06584,0.0,0.0,0.0,0.0906277,0.0,0.0,0.0,0.0,0.0,0.000149247,0.00143663,0.00198012,0.0,0.0,0.0,0.0,0.0,0.0
13772000,0.0,0.0,0.0,-0.00192183,0.00297667,-0.0376892,0.0,0.0,0.0,-0.00110945,0.0,0.0,0.0,0.0,0.0,0.0,0.0,0.0,0.260408,0.260408,4.06533,0.0,0.0,0.0,0.0906051,0.0,0.0,0.0,0.0,0.0,0.000110257,0.00172234,0.00288318,0.0,0.0,0.0,0.0,0.0,0.0
13964000,0.0,0.0,0.0,-0.00165067,0.00336073,-0.0102234,0.0,0.0,0.0,-0.000493692,0.0,0.0,0.0,0.0,0.0,0.0,0.0,0.0,0.259921,0.259921,4.06452,0.0,0.0,0.0,0.0905852,0.0,0.0,0.0,0.0,0.0,0.000133778,0.00176362,0.00286343,0.0,0.0,0.0,0.0,0.0,0.0
14156000,0.0,0.0,0.0,-0.00146759,0.00359316,-0.0760803,0.0,0.0,0.0,-0.00624759,0.0,0.0,0.0,0.0,0.0,0.0,0.0,0.0,0.2596,0.2596,4.06413,0.0,0.0,0.0,0.0905686,0.0,0.0,0.0,0.0,0.0,0.000188855,0.00181061,0.00318921,0.0,0.0,0.0,0.0,0.0,0.0
14348000,0.0,0.0,0.0,-0.00130822,0.00371542,0.0806274,0.0,0.0,0.0,-0.00340032,0.0,0.0,0.0,0.0,0.0,0.0,0.0,0.0,0.259313,0.259313,4.06374,0.0,0.0,0.0,0.0905558,0.0,0.0,0.0,0.0,0.0,0.000140696,0.00158768,0.0029784,0.0,0.0,0.0,0.0,0.0,0.0
14540000,0.0,0.0,0.0,-0.00116624,0.00388682,-0.0372314,0.0,0.0,0.0,-0.00152408,0.0,0.0,0.0,0.0,0.0,0.0,0.0,0.0,0.259048,0.259048,4.06344,0.0,0.0,0.0,0.0905436,0.0,0.0,0.0,0.0,0.0,6.82462e-05,0.00167682,0.00377273,0.0,0.0,0.0,0.0,0.0,0.0
14732000,0.0,0.0,0.0,0.0,0.0,-0.0403748,0.0,0.0,0.0,-0.00170271,0.0,0.0,0.0,0.0,0.0,0.3125,0.3125,0.625,0.72,0.72,4.06101,0.0,0.0,0.0,0.0905333,0.0,0.0,0.0,0.0,0.0,7.21309e-05,0.000996172,0.0021922,0.0,0.0,0.0,0.0,0.0,0.0
14932000,-0.00142371,-0.00115271,-0.0017317,0.0110262,0.0251316,-0.00247192,0.0,0.0,0.0,0.00250883,0.0,0.0,0.0,0.0,0.0,0.291844,0.291844,0.613764,0.443287,0.443287,4.05611,0.0,0.0,0.0,0.0905237,0.0,0.0,0.0,0.0,0.0,0.000131638,0.000449613,0.00553329,0.0,0.0,0.0,0.0,0.0,0.0
15124000,0.000192967,-0.00153931,-0.00199344,-0.0136209,0.00248198,0.0304871,0.0,0.0,0.0,-0.00423868,0.0,0.0,0.0,0.0,0.0,0.281473,0.281473,0.605749,0.372417,0.372417,4.05429,0.0,0.0,0.0,0.0905164,0.0,0.0,0.0,0.0,0.0,0.000181457,0.00100527,0.00402575,0.0,0.0,0.0,0.0,0.0,0.0
15316000,-0.00120576,-0.00155283,-3.36372e-05,-0.000105141,0.00144884,-0.0660706,0.0,0.0,0.0,-0.00423772,0.0,0.0,0.0,0.0,0.0,0.275223,0.275223,0.599603,0.330761,0.330761,4.0537,0.0,0.0,0.0,0.0905107,0.0,0.0,0.0,0.0,0.0,3.91148e-05,0.00109723,0.00299,0.0,0.0,0.0,0.0,0.0,0.0
15508000,-0.00247633,-0.00198389,0.000595804,-0.00179514,0.00736152,0.016449,0.0,0.0,0.0,0.0040783,0.0,0.0,0.0,0.0,0.0,0.271053,0.271053,0.594685,0.299229,0.299229,4.05393,0.0,0.0,0.0,0.0905056,0.0,0.0,0.0,0.0,0.0,5.29017e-05,0.000772126,0.00272684,0.0,0.0,0.0,0.0,0.0,0.0
15700000,-0.0027921,-0.00210962,-0.000455549,-0.0113637,-0.00875628,-0.0168762,0.0,0.0,0.0,-0.000837428,0.0,0.0,0.0,0.0,0.0,0.268092,0.268092,0.590646,0.28255,0.28255,4.05447,0.0,0.0,0.0,0.0905014,0.0,0.0,0.0,0.0,0.0,0.000116527,0.00104306,0.00244316,0.0,0.0,0.0,0.0,0.0,0.0
15892000,-0.00579786,-0.000645209,0.000591838,0.0115814,-0.000355088,0.0164185,0.0,0.0,0.0,0.000407683,0.0,0.0,0.0,0.0,0.0,0.265936,0.265936,0.58728,0.278509,0.278509,4.05472,0.0,0.0,0.0,0.0904972,0.0,0.0,0.0,0.0,0.0,0.000125127,0.00106731,0.0027506,0.0,0.0,0.0,0.0,0.0,0.0
16084000,-0.00725658,-3.48217e-05,0.00109456,0.00962262,0.000462129,0.0602722,0.0,0.0,0.0,0.00313106,0.0,0.0,0.0,0.0,0.0,0.264342,0.264342,0.584312,0.275949,0.275949,4.05589,0.0,0.0,0.0,0.0904946,0.0,0.0,0.0,0.0,0.0,0.000134138,0.000707217,0.00179013,0.0,0.0,0.0,0.0,0.0,0.0
16276000,-0.0102131,-0.00124768,0.00092477,0.00809856,0.0154632,0.098999,0.0,0.0,0.0,0.000925552,0.0,0.0,0.0,0.0,0.0,0.263729,0.263729,0.583147,0.275101,0.275101,4.05632,0.0,0.0,0.0,0.0904924,0.0,0.0,0.0,0.0,0.0,0.000177564,0.00066622,0.00148308,0.0,0.0,0.0,0.0,0.0,0.0
16468000,-0.0112269,-0.0023933,-0.00111786,0.00643979,-0.00870769,-0.0814209,0.0,0.0,0.0,-0.00292287,0.0,0.0,0.0,0.0,0.0,0.262678,0.262678,0.580947,0.273556,0.273556,4.05625,0.0,0.0,0.0,0.09049,0.0,0.0,0.0,0.0,0.0,0.000177182,0.000807334,0.00179236,0.0,0.0,0.0,0.0,0.0,0.0
16660000,-0.00972346,-0.000736177,-0.000479937,-0.00512889,-0.00746084,-0.0370483,0.0,0.0,0.0,0.00250191,0.0,0.0,0.0,0.0,0.0,0.261963,0.261963,0.578988,0.27263,0.27263,4.05606,0.0,0.0,0.0,0.090488,0.0,0.0,0.0,0.0,0.0,0.000286005,0.00119663,0.00244077,0.0,0.0,0.0,0.0,0.0,0.0
16852000,-0.0105824,0.000276853,-0.000654362,-0.0166403,-0.0138139,-0.0395508,0.0,0.0,0.0,0.00778526,0.0,0.0,0.0,0.0,0.0,0.261472,0.261472,0.577451,0.271993,0.271993,4.05582,0.0,0.0,0.0,0.0904871,0.0,0.0,0.0,0.0,0.0,0.000263534,0.0017634,0.00394757,0.0,0.0,0.0,0.0,0.0,0.0
17044000,-0.0103049,-0.000586392,-0.00181312,0.00525641,0.0102546,-0.0395813,0.0,0.0,0.0,0.00265834,0.0,0.0,0.0,0.0,0.0,0.261161,0.261161,0.576163,0.271556,0.271556,4.05572,0.0,0.0,0.0,0.0904866,0.0,0.0,0.0,0.0,0.0,0.000217456,0.000651166,0.00130348,0.0,0.0,0.0,0.0,0.0,0.0
17236000,-0.0150796,-0.00250536,-0.00148999,-0.00823196,-0.00600443,0.0242004,0.0,0.0,0.0,-0.00161412,0.0,0.0,0.0,0.0,0.0,0.260995,0.260995,0.57509,0.271262,0.271262,4.0555,0.0,0.0,0.0,0.0904864,0.0,0.0,0.0,0.0,0.0,0.000171521,0.000971113,0.00159362,0.0,0.0,0.0,0.0,0.0,0.0
17428000,-0.0176099,-0.00607357,-0.000929251,0.0234948,-0.00631539,0.0281677,0.0,0.0,0.0,0.00129318,0.0,0.0,0.0,0.0,0.0,0.260945,0.260945,0.574203,0.271075,0.271075,4.05486,0.0,0.0,0.0,0.0904855,0.0,0.0,0.0,0.0,0.0,0.000186031,0.00126882,0.00335547,0.0,0.0,0.0,0.0,0.0,0.0
17620000,-0.0183025,-0.00651131,-0.000397996,-0.0155438,-0.0061098,0.0432129,0.0,0.0,0.0,-0.00032704,0.0,0.0,0.0,0.0,0.0,0.260981,0.260981,0.573478,0.270969,0.270969,4.05432,0.0,0.0,0.0,0.0904854,0.0,0.0,0.0,0.0,0.0,0.000226614,0.00133561,0.00188817,0.0,0.0,0.0,0.0,0.0,0.0
17812000,-0.0149791,-0.00738326,6.77767e-05,-0.00389656,0.00156092,-0.024231,0.0,0.0,0.0,0.00222479,0.0,0.0,0.0,0.0,0.0,0.261079,0.261079,0.572895,0.270926,0.270926,4.05389,0.0,0.0,0.0,0.0904856,0.0,0.0,0.0,0.0,0.0,0.000267095,0.00176873,0.00260143,0.0,0.0,0.0,0.0,0.0,0.0
18004000,-0.0115411,-0.0112418,-0.00338467,0.00725309,-0.00150351,-0.0311279,0.0,0.0,0.0,0.00267708,0.0,0.0,0.0,0.0,0.0,0.261219,0.261218,0.572433,0.270934,0.270934,4.05343,0.0,0.0,0.0,0.0904859,0.0,0.0,0.0,0.0,0.0,0.00027041,0.0013011,0.00168987,0.0,0.0,0.0,0.0,0.0,0.0
18196000,-0.0131729,-0.0102435,-0.00265783,0.0167567,0.0206959,0.0509644,0.0,0.0,0.0,-0.000405498,0.0,0.0,0.0,0.0,0.0,0.261373,0.261372,0.572076,0.270981,0.270981,4.05266,0.0,0.0,0.0,0.0904853,0.0,0.0,0.0,0.0,0.0,0.000195367,0.000596349,0.000656735,0.0,0.0,0.0,0.0,0.0,0.0
18388000,-0.0147375,-0.0114271,-0.00258022,-0.00872165,0.00310195,0.0411987,0.0,0.0,0.0,-0.00371231,0.0,0.0,0.0,0.0,0.0,0.261526,0.261526,0.571743,0.271057,0.271057,4.05255,0.0,0.0,0.0,0.0904853,0.0,0.0,0.0,0.0,0.0,0.00019782,0.00129076,0.00156398,0.0,0.0,0.0,0.0,0.0,0.0
18580000,-0.0149658,-0.0116788,-0.00274928,-0.0202163,0.00889838,0.00326538,0.0,0.0,0.0,0.00620337,0.0,0.0,0.0,0.0,0.0,0.261667,0.261666,0.57156,0.271154,0.271154,4.05204,0.0,0.0,0.0,0.0904856,0.0,0.0,0.0,0.0,0.0,0.000306249,0.0021987,0.00315148,0.0,0.0,0.0,0.0,0.0,0.0
18772000,-0.0151302,-0.0129847,-0.00381064,0.0028361,-0.0150318,-0.000732422,0.0,0.0,0.0,0.00396071,0.0,0.0,0.0,0.0,0.0,0.261685,0.261684,0.571511,0.271114,0.271114,4.05156,0.0,0.0,0.0,0.0904859,0.0,0.0,0.0,0.0,0.0,0.000376163,0.00126993,0.00189517,0.0,0.0,0.0,0.0,0.0,0.0
18964000,-0.0151957,-0.0165321,-0.00220993,-0.0103793,-0.00693364,-0.0376587,0.0,0.0,0.0,0.00503436,0.0,0.0,0.0,0.0,0.0,0.261783,0.261782,0.571422,0.271226,0.271226,4.05101,0.0,0.0,0.0,0.0904859,0.0,0.0,0.0,0.0,0.0,0.00043892,0.00199103,0.00373814,0.0,0.0,0.0,0.0,0.0,0.0
19156000,-0.0133245,-0.0201548,0.000869211,0.0111182,-0.00152884,-0.00787354,0.0,0.0,0.0,0.00187079,0.0,0.0,0.0,0.0,0.0,0.261844,0.261843,0.571384,0.27134,0.27134,4.05059,0.0,0.0,0.0,0.090486,0.0,0.0,0.0,0.0,0.0,0.00039884,0.0014948,0.00211118,0.0,0.0,0.0,0.0,0.0,0.0
19348000,-0.0139938,-0.0194083,0.000603608,-0.0116149,-0.0253155,0.00131226,0.0,0.0,0.0,0.00127361,0.0,0.0,0.0,0.0,0.0,0.261872,0.261871,0.57139,0.271451,0.271451,4.04998,0.0,0.0,0.0,0.0904851,0.0,0.0,0.0,0.0,0.0,0.000306635,0.00272581,0.00440037,0.0,0.0,0.0,0.0,0.0,0.0
19540000,-0.0112006,-0.0190299,0.000161838,-0.0110828,-0.00950743,0.0161133,0.0,0.0,0.0,-0.00190921,0.0,0.0,0.0,0.0,0.0,0.261863,0.261862,0.571431,0.271555,0.271555,4.04966,0.0,0.0,0.0,0.090485,0.0,0.0,0.0,0.0,0.0,0.000281195,0.00266661,0.00439326,0.0,0.0,0.0,0.0,0.0,0.0
19732000,-0.0124323,-0.0170885,0.00194362,-0.0106499,-0.00231481,-0.0300293,0.0,0.0,0.0,-0.00324139,0.0,0.0,0.0,0.0,0.0,0.261818,0.261817,0.571499,0.271649,0.271648,4.04927,0.0,0.0,0.0,0.0904847,0.0,0.0,0.0,0.0,0.0,0.000247966,0.00230929,0.00398446,0.0,0.0,0.0,0.0,0.0,0.0
19924000,-0.0130667,-0.0135312,0.000391476,-0.0103847,-0.0172495,0.0493774,0.0,0.0,0.0,0.00146179,0.0,0.0,0.0,0.0,0.0,0.261744,0.261744,0.571532,0.271728,0.271728,4.04905,0.0,0.0,0.0,0.0904844,0.0,0.0,0.0,0.0,0.0,0.000256979,0.00251675,0.00442826,0.0,0.0,0.0,0.0,0.0,0.0
20116000,-0.0134006,-0.0139547,0.000192598,-0.00924722,0.00480882,-0.0264893,0.0,0.0,0.0,0.000557982,0.0,0.0,0.0,0.0,0.0,0.261643,0.261643,0.571637,0.271793,0.271793,4.04888,0.0,0.0,0.0,0.0904831,0.0,0.0,0.0,0.0,0.0,0.000224091,0.00168894,0.00308996,0.0,0.0,0.0,0.0,0.0,0.0
20308000,-0.0135178,-0.0151752,-0.00188039,-0.00823452,0.0107497,-0.0133667,0.0,0.0,0.0,-0.000929729,0.0,0.0,0.0,0.0,0.0,0.261521,0.26152,0.571751,0.271843,0.271843,4.04851,0.0,0.0,0.0,0.0904826,0.0,0.0,0.0,0.0,0.0,0.000211696,0.00152575,0.00293365,0.0,0.0,0.0,0.0,0.0,0.0
20500000,-0.0150882,-0.0117577,-0.000772603,0.00268387,0.00155051,0.0369873,0.0,0.0,0.0,-0.000632084,0.0,0.0,0.0,0.0,0.0,0.261378,0.261378,0.571869,0.271877,0.271877,4.0483,0.0,0.0,0.0,0.0904818,0.0,0.0,0.0,0.0,0.0,0.000207719,0.000916016,0.0018347,0.0,0.0,0.0,0.0,0.0,0.0
20692000,-0.0140205,-0.0108184,-0.000381447,-0.0205751,-0.00785774,-0.0285034,0.0,0.0,0.0,-0.00480762,0.0,0.0,0.0,0.0,0.0,0.261222,0.261222,0.57199,0.271897,0.271896,4.04827,0.0,0.0,0.0,0.0904811,0.0,0.0,0.0,0.0,0.0,0.000263191,0.0014365,0.0025134,0.0,0.0,0.0,0.0,0.0,0.0
20884000,-0.0146813,-0.00967685,0.00049717,-0.0187961,-0.014621,0.0844116,0.0,0.0,0.0,-0.00465854,0.0,0.0,0.0,0.0,0.0,0.261057,0.261057,0.572108,0.271902,0.271901,4.04828,0.0,0.0,0.0,0.0904802,0.0,0.0,0.0,0.0,0.0,0.000276012,0.00214005,0.00372541,0.0,0.0,0.0,0.0,0.0,0.0
21076000,-0.0135041,-0.00967141,0.000257014,0.00495965,-0.0138627,0.0444336,0.0,0.0,0.0,-0.00107421,0.0,0.0,0.0,0.0,0.0,0.260887,0.260887,0.572221,0.271894,0.271893,4.04859,0.0,0.0,0.0,0.0904783,0.0,0.0,0.0,0.0,0.0,0.00025178,0.00156786,0.00294198,0.0,0.0,0.0,0.0,0.0,0.0
21268000,-0.0146635,-0.00950076,0.000617176,-0.00739365,-0.00575268,0.0480652,0.0,0.0,0.0,-0.00219856,0.0,0.0,0.0,0.0,0.0,0.260839,0.260838,0.572265,0.271983,0.271983,4.04868,0.0,0.0,0.0,0.0904771,0.0,0.0,0.0,0.0,0.0,0.000171923,0.000392112,0.00134467,0.0,0.0,0.0,0.0,0.0,0.0
21460000,-0.0122249,-0.00839345,0.0012321,-0.0186586,-0.00574308,0.0551758,0.0,0.0,0.0,-0.00227963,0.0,0.0,0.0,0.0,0.0,0.260665,0.260665,0.572367,0.271958,0.271958,4.04854,0.0,0.0,0.0,0.0904759,0.0,0.0,0.0,0.0,0.0,0.000171846,0.00117597,0.00374677,0.0,0.0,0.0,0.0,0.0,0.0
21652000,-0.00889983,-0.0100443,0.000463448,-0.0279563,0.00104405,0.0569153,0.0,0.0,0.0,-0.00222483,0.0,0.0,0.0,0.0,0.0,0.260496,0.260496,0.57246,0.271923,0.271923,4.04868,0.0,0.0,0.0,0.0904745,0.0,0.0,0.0,0.0,0.0,0.000179921,0.00104408,0.00287641,0.0,0.0,0.0,0.0,0.0,0.0
21844000,-0.00693925,-0.00571851,-0.00132215,-0.0150137,-0.0136871,0.0663452,0.0,0.0,0.0,-0.00280567,0.0,0.0,0.0,0.0,0.0,0.260332,0.260332,0.572542,0.27188,0.27188,4.04859,0.0,0.0,0.0,0.0904722,0.0,0.0,0.0,0.0,0.0,0.00020694,0.000385043,0.00151011,0.0,0.0,0.0,0.0,0.0,0.0
22036000,-0.00562764,-0.000654545,-0.00380308,0.00802942,-0.0192852,0.0428467,0.0,0.0,0.0,-0.00270988,0.0,0.0,0.0,0.0,0.0,0.260174,0.260174,0.572616,0.271831,0.271831,4.04859,0.0,0.0,0.0,0.0904706,0.0,0.0,0.0,0.0,0.0,0.000205456,0.00116548,0.00192743,0.0,0.0,0.0,0.0,0.0,0.0
22228000,-0.00471191,0.00446997,-0.000628723,-0.00404164,-0.0159801,-0.0130615,0.0,0.0,0.0,-0.000804702,0.0,0.0,0.0,0.0,0.0,0.260018,0.260017,0.572678,0.271776,0.271776,4.04878,0.0,0.0,0.0,0.090469,0.0,0.0,0.0,0.0,0.0,0.000175538,0.00147197,0.00285604,0.0,0.0,0.0,0.0,0.0,0.0
22420000,-0.00335556,0.0091754,0.00237415,-0.0139845,0.00235728,0.0154419,0.0,0.0,0.0,-0.00183476,0.0,0.0,0.0,0.0,0.0,0.259869,0.259869,0.572662,0.271717,0.271717,4.04897,0.0,0.0,0.0,0.0904672,0.0,0.0,0.0,0.0,0.0,0.000210349,0.00147204,0.0016246,0.0,0.0,0.0,0.0,0.0,0.0
22612000,-0.00167292,0.0117448,0.0013125,-0.000908569,-0.00442303,-0.00149536,0.0,0.0,0.0,0.00164247,0.0,0.0,0.0,0.0,0.0,0.259732,0.259732,0.572702,0.271655,0.271655,4.04897,0.0,0.0,0.0,0.0904654,0.0,0.0,0.0,0.0,0.0,0.000166012,0.0022728,0.00300706,0.0,0.0,0.0,0.0,0.0,0.0
22804000,-0.00174748,0.0128403,0.00201014,-0.0121497,0.0057368,-0.00921631,0.0,0.0,0.0,0.00522442,0.0,0.0,0.0,0.0,0.0,0.259602,0.259602,0.572732,0.271592,0.271592,4.04917,0.0,0.0,0.0,0.0904635,0.0,0.0,0.0,0.0,0.0,0.000173041,0.00270378,0.00381936,0.0,0.0,0.0,0.0,0.0,0.0
22996000,0.00427543,0.0132443,0.000195317,0.00110894,-0.00115247,0.0175476,0.0,0.0,0.0,-0.00340149,0.0,0.0,0.0,0.0,0.0,0.259483,0.259483,0.572752,0.271527,0.271527,4.04909,0.0,0.0,0.0,0.0904615,0.0,0.0,0.0,0.0,0.0,0.000184806,0.00321245,0.00475123,0.0,0.0,0.0,0.0,0.0,0.0
23188000,0.00555043,0.0175066,0.00145631,0.00154738,0.00835957,-0.01828,0.0,0.0,0.0,-0.00768704,0.0,0.0,0.0,0.0,0.0,0.259369,0.259369,0.572765,0.271463,0.271463,4.04927,0.0,0.0,0.0,0.0904586,0.0,0.0,0.0,0.0,0.0,0.000293992,0.00398181,0.00619935,0.0,0.0,0.0,0.0,0.0,0.0
23380000,0.00632757,0.0195646,0.000822812,-0.0202202,0.00227832,-0.0218506,0.0,0.0,0.0,0.00308816,0.0,0.0,0.0,0.0,0.0,0.259265,0.259265,0.572771,0.271399,0.271399,4.04975,0.0,0.0,0.0,0.0904566,0.0,0.0,0.0,0.0,0.0,0.000251813,0.00380618,0.00584586,0.0,0.0,0.0,0.0,0.0,0.0
23572000,0.00618114,0.0190655,0.000616007,-0.00720492,-0.0044315,-0.00872803,0.0,0.0,0.0,-0.00153848,0.0,0.0,0.0,0.0,0.0,0.259186,0.259186,0.572787,0.271278,0.271278,4.04992,0.0,0.0,0.0,0.0904544,0.0,0.0,0.0,0.0,0.0,0.000177126,0.00292561,0.00456202,0.0,0.0,0.0,0.0,0.0,0.0
23764000,0.00528953,0.021263,0.000189637,0.00483405,0.012894,0.0424194,0.0,0.0,0.0,0.00104191,0.0,0.0,0.0,0.0,0.0,0.259093,0.259093,0.572784,0.271216,0.271216,4.05007,0.0,0.0,0.0,0.0904521,0.0,0.0,0.0,0.0,0.0,0.000199615,0.00344868,0.00571145,0.0,0.0,0.0,0.0,0.0,0.0
23956000,0.00704715,0.0191891,-0.0011789,-0.00626011,0.0120158,-0.033783,0.0,0.0,0.0,-0.0016866,0.0,0.0,0.0,0.0,0.0,0.259008,0.259008,0.572707,0.271156,0.271156,4.04995,0.0,0.0,0.0,0.0904499,0.0,0.0,0.0,0.0,0.0,0.000147242,0.00381797,0.00662516,0.0,0.0,0.0,0.0,0.0,0.0
24148000,0.00747368,0.014885,0.000176169,0.0177445,0.0120134,-0.0333862,0.0,0.0,0.0,0.000751079,0.0,0.0,0.0,0.0,0.0,0.258928,0.258928,0.572697,0.271099,0.271098,4.0499,0.0,0.0,0.0,0.0904475,0.0,0.0,0.0,0.0,0.0,0.000149157,0.0037996,0.00704758,0.0,0.0,0.0,0.0,0.0,0.0
24340000,0.00703395,0.0113795,-0.00196459,-0.00553327,0.0040071,0.029541,0.0,0.0,0.0,-0.000947746,0.0,0.0,0.0,0.0,0.0,0.258856,0.258856,0.572684,0.271043,0.271043,4.05003,0.0,0.0,0.0,0.0904444,0.0,0.0,0.0,0.0,0.0,0.000113833,0.00290201,0.00514328,0.0,0.0,0.0,0.0,0.0,0.0
24532000,0.00856339,0.00909548,-0.0003445,0.00811968,0.0119884,0.0553894,0.0,0.0,0.0,0.000775971,0.0,0.0,0.0,0.0,0.0,0.258788,0.258788,0.572668,0.27099,0.27099,4.05014,0.0,0.0,0.0,0.0904419,0.0,0.0,0.0,0.0,0.0,0.000118626,0.00255094,0.0049256,0.0,0.0,0.0,0.0,0.0,0.0
24724000,0.00878204,0.00728704,-1.20997e-05,-0.00418239,0.00300064,-0.0406799,0.0,0.0,0.0,0.00290624,0.0,0.0,0.0,0.0,0.0,0.258725,0.258725,0.572653,0.270939,0.270939,4.05007,0.0,0.0,0.0,0.0904396,0.0,0.0,0.0,0.0,0.0,0.000137732,0.00238531,0.00425768,0.0,0.0,0.0,0.0,0.0,0.0
24916000,0.00992193,0.00725009,0.00142784,0.0102483,0.00449393,-0.00567627,0.0,0.0,0.0,0.000168201,0.0,0.0,0.0,0.0,0.0,0.258667,0.258667,0.572636,0.270891,0.270891,4.05016,0.0,0.0,0.0,0.090437,0.0,0.0,0.0,0.0,0.0,7.08643e-05,0.00167784,0.00301393,0.0,0.0,0.0,0.0,0.0,0.0
25108000,0.0124295,0.0064416,0.00297567,0.0109038,0.0115666,0.0517578,0.0,0.0,0.0,-0.00046871,0.0,0.0,0.0,0.0,0.0,0.258612,0.258612,0.57262,0.270845,0.270845,4.04998,0.0,0.0,0.0,0.0904345,0.0,0.0,0.0,0.0,0.0,0.000104597,0.00213889,0.00360295,0.0,0.0,0.0,0.0,0.0,0.0
25300000,0.0108978,0.00721347,0.00327886,0.0208763,0.00422524,0.0636597,0.0,0.0,0.0,0.00230702,0.0,0.0,0.0,0.0,0.0,0.258562,0.258562,0.572604,0.270802,0.270802,4.05006,0.0,0.0,0.0,0.0904312,0.0,0.0,0.0,0.0,0.0,0.000177141,0.0030474,0.00550456,0.0,0.0,0.0,0.0,0.0,0.0
25492000,0.00957751,0.00836588,0.00592032,-0.0032675,0.0126153,-0.0152588,0.0,0.0,0.0,0.00028521,0.0,0.0,0.0,0.0,0.0,0.258513,0.258513,0.572589,0.270761,0.270761,4.05046,0.0,0.0,0.0,0.0904288,0.0,0.0,0.0,0.0,0.0,0.000121374,0.00263319,0.00486216,0.0,0.0,0.0,0.0,0.0,0.0
25684000,0.0108697,0.00751426,0.00766944,-0.00247181,0.0116107,0.0180054,0.0,0.0,0.0,-0.00191372,0.0,0.0,0.0,0.0,0.0,0.258469,0.258469,0.572577,0.270722,0.270722,4.05053,0.0,0.0,0.0,0.0904262,0.0,0.0,0.0,0.0,0.0,0.000102506,0.00218274,0.00366991,0.0,0.0,0.0,0.0,0.0,0.0
25876000,0.00962343,0.0055156,0.00848549,-7.91028e-05,0.0105212,-0.0510864,0.0,0.0,0.0,0.00230959,0.0,0.0,0.0,0.0,0.0,0.258428,0.258428,0.572495,0.270686,0.270686,4.05033,0.0,0.0,0.0,0.0904236,0.0,0.0,0.0,0.0,0.0,8.01103e-05,0.00150322,0.00233395,0.0,0.0,0.0,0.0,0.0,0.0
26068000,0.0100195,0.00457263,0.00802755,0.000561122,0.0100023,-0.0415649,0.0,0.0,0.0,0.00508778,0.0,0.0,0.0,0.0,0.0,0.258435,0.258435,0.572545,0.270752,0.270752,4.05039,0.0,0.0,0.0,0.0904211,0.0,0.0,0.0,0.0,0.0,5.46908e-05,0.00190829,0.00525566,0.0,0.0,0.0,0.0,0.0,0.0
26260000,0.00888497,0.00337381,0.00743984,0.0016227,0.0304148,-0.0316162,0.0,0.0,0.0,0.00309334,0.0,0.0,0.0,0.0,0.0,0.258397,0.258397,0.572535,0.270718,0.270718,4.05028,0.0,0.0,0.0,0.0904184,0.0,0.0,0.0,0.0,0.0,8.30887e-05,0.00181587,0.00475893,0.0,0.0,0.0,0.0,0.0,0.0
26460000,0.00670681,0.00266466,0.00572836,0.02451,0.0204367,-0.0396118,0.0,0.0,0.0,0.00479889,0.0,0.0,0.0,0.0,0.0,0.258362,0.258362,0.572527,0.270687,0.270687,4.05033,0.0,0.0,0.0,0.0904152,0.0,0.0,0.0,0.0,0.0,8.46948e-05,0.00155312,0.003723,0.0,0.0,0.0,0.0,0.0,0.0
26652000,0.00561422,0.00223651,0.00850365,0.00017103,0.00963834,0.0090332,0.0,0.0,0.0,-0.000521311,0.0,0.0,0.0,0.0,0.0,0.258327,0.258327,0.572451,0.270657,0.270657,4.05038,0.0,0.0,0.0,0.0904125,0.0,0.0,0.0,0.0,0.0,0.000149513,0.00102732,0.0022367,0.0,0.0,0.0,0.0,0.0,0.0
26852000,0.003011,-0.000147916,0.00961233,0.000643836,0.00773999,0.0471191,0.0,0.0,0.0,-0.00155308,0.0,0.0,0.0,0.0,0.0,0.258294,0.258294,0.572446,0.270628,0.270628,4.05016,0.0,0.0,0.0,0.0904099,0.0,0.0,0.0,0.0,0.0,0.000203451,0.000777237,0.00214767,0.0,0.0,0.0,0.0,0.0,0.0
27044000,0.00269768,-0.000763487,0.00713303,0.0119275,-0.0160412,-0.00485229,0.0,0.0,0.0,0.000773033,0.0,0.0,0.0,0.0,0.0,0.258264,0.258264,0.572442,0.270602,0.270602,4.05021,0.0,0.0,0.0,0.0904072,0.0,0.0,0.0,0.0,0.0,9.35948e-05,0.00131152,0.00313515,0.0,0.0,0.0,0.0,0.0,0.0
27244000,0.00113057,-0.00273952,0.00603326,0.000810765,0.00165565,-0.0710754,0.0,0.0,0.0,0.00906564,0.0,0.0,0.0,0.0,0.0,0.258235,0.258235,0.57244,0.270576,0.270576,4.05026,0.0,0.0,0.0,0.090404,0.0,0.0,0.0,0.0,0.0,0.000227242,0.00158655,0.0032137,0.0,0.0,0.0,0.0,0.0,0.0
27436000,-0.00028912,-0.00457758,0.00454678,0.000648331,0.000931322,-0.00390625,0.0,0.0,0.0,0.0016133,0.0,0.0,0.0,0.0,0.0,0.258206,0.258207,0.572439,0.270552,0.270552,4.0503,0.0,0.0,0.0,0.0904013,0.0,0.0,0.0,0.0,0.0,0.000311796,0.00210437,0.00542753,0.0,0.0,0.0,0.0,0.0,0.0
27628000,-0.00314317,-0.00561599,0.00390937,0.0106164,-0.0142901,0.0195923,0.0,0.0,0.0,0.00283781,0.0,0.0,0.0,0.0,0.0,0.258179,0.258179,0.57244,0.270529,0.270529,4.05008,0.0,0.0,0.0,0.0903988,0.0,0.0,0.0,0.0,0.0,0.000202668,0.00232109,0.00561508,0.0,0.0,0.0,0.0,0.0,0.0
27820000,-0.00576906,-0.00360043,0.00243803,-0.00264646,-0.0127229,0.0879517,0.0,0.0,0.0,-0.00892907,0.0,0.0,0.0,0.0,0.0,0.258152,0.258152,0.572441,0.270507,0.270507,4.04995,0.0,0.0,0.0,0.0903962,0.0,0.0,0.0,0.0,0.0,0.000147359,0.00250589,0.00591759,0.0,0.0,0.0,0.0,0.0,0.0
28012000,-0.00629368,-0.00564663,0.00032232,0.00898974,0.0181535,0.00930786,0.0,0.0,0.0,0.00556,0.0,0.0,0.0,0.0,0.0,0.258127,0.258127,0.572443,0.270486,0.270486,4.05,0.0,0.0,0.0,0.0903936,0.0,0.0,0.0,0.0,0.0,0.000172122,0.00140201,0.00272912,0.0,0.0,0.0,0.0,0.0,0.0
28204000,-0.00691958,-0.00770915,-0.00303372,-0.00259295,0.00073175,-0.0893555,0.0,0.0,0.0,0.00162887,0.0,0.0,0.0,0.0,0.0,0.258103,0.258103,0.572447,0.270466,0.270466,4.05004,0.0,0.0,0.0,0.0903904,0.0,0.0,0.0,0.0,0.0,0.000184476,0.00176946,0.00330736,0.0,0.0,0.0,0.0,0.0,0.0
28396000,-0.0082085,-0.0096598,-0.00262617,-0.00316085,-0.0154905,-0.0505371,0.0,0.0,0.0,0.00810239,0.0,0.0,0.0,0.0,0.0,0.258079,0.258079,0.572451,0.270447,0.270447,4.05041,0.0,0.0,0.0,0.090388,0.0,0.0,0.0,0.0,0.0,0.000225759,0.00298923,0.00716739,0.0,0.0,0.0,0.0,0.0,0.0
28596000,-0.00819208,-0.00963629,-0.00186515,-0.00363063,-0.00683925,-0.0453491,0.0,0.0,0.0,0.00098506,0.0,0.0,0.0,0.0,0.0,0.258055,0.258055,0.572456,0.270428,0.270428,4.04987,0.0,0.0,0.0,0.0903854,0.0,0.0,0.0,0.0,0.0,0.000207343,0.00277589,0.00615429,0.0,0.0,0.0,0.0,0.0,0.0
28788000,-0.0102849,-0.0113126,-0.00185554,-0.00339339,0.000560748,-0.0364075,0.0,0.0,0.0,-2.32188e-05,0.0,0.0,0.0,0.0,0.0,0.258031,0.258031,0.572392,0.27041,0.27041,4.05023,0.0,0.0,0.0,0.0903828,0.0,0.0,0.0,0.0,0.0,0.000205303,0.00256023,0.00521408,0.0,0.0,0.0,0.0,0.0,0.0
28980000,-0.0126697,-0.0158065,-0.00111196,-0.00437453,-0.0093373,0.0103455,0.0,0.0,0.0,0.0032317,0.0,0.0,0.0,0.0,0.0,0.258007,0.258007,0.572465,0.270392,0.270392,4.05054,0.0,0.0,0.0,0.0903803,0.0,0.0,0.0,0.0,0.0,0.000138374,0.00247887,0.00434588,0.0,0.0,0.0,0.0,0.0,0.0
29172000,-0.013763,-0.0143362,-0.00135419,-0.0047904,-0.017009,0.125702,0.0,0.0,0.0,0.000293383,0.0,0.0,0.0,0.0,0.0,0.257971,0.257971,0.572412,0.270302,0.270302,4.05031,0.0,0.0,0.0,0.0903779,0.0,0.0,0.0,0.0,0.0,0.000161744,0.00196736,0.0037388,0.0,0.0,0.0,0.0,0.0,0.0
29364000,-0.0165474,-0.0142635,-0.00168231,-0.0169407,-0.00927008,0.0521851,0.0,0.0,0.0,0.00460793,0.0,0.0,0.0,0.0,0.0,0.257949,0.257949,0.572417,0.270285,0.270285,4.05017,0.0,0.0,0.0,0.0903753,0.0,0.0,0.0,0.0,0.0,0.00022737,0.00225538,0.00432658,0.0,0.0,0.0,0.0,0.0,0.0
29556000,-0.0164492,-0.0148947,-0.00382122,-0.00551604,-0.0027408,-0.0161743,0.0,0.0,0.0,0.000607469,0.0,0.0,0.0,0.0,0.0,0.257928,0.257928,0.572421,0.270268,0.270268,4.05021,0.0,0.0,0.0,0.0903728,0.0,0.0,0.0,0.0,0.0,0.000273766,0.00212698,0.00395937,0.0,0.0,0.0,0.0,0.0,0.0
29748000,-0.0168781,-0.0160685,-0.00417934,-0.0177704,-0.0112246,-0.0437622,0.0,0.0,0.0,-0.000737941,0.0,0.0,0.0,0.0,0.0,0.257908,0.257908,0.572427,0.270252,0.270252,4.05026,0.0,0.0,0.0,0.0903699,0.0,0.0,0.0,0.0,0.0,0.000312865,0.00246886,0.00479811,0.0,0.0,0.0,0.0,0.0,0.0
29940000,-0.0190933,-0.0136538,-0.00236288,-0.0181701,-0.0111813,-0.11673,0.0,0.0,0.0,-0.00511261,0.0,0.0,0.0,0.0,0.0,0.257888,0.257888,0.572432,0.270236,0.270236,4.05013,0.0,0.0,0.0,0.0903675,0.0,0.0,0.0,0.0,0.0,0.000195829,0.00279465,0.00608452,0.0,0.0,0.0,0.0,0.0,0.0
30132000,-0.0193523,-0.0144315,-0.00137237,-0.0186825,0.0112615,-0.0027771,0.0,0.0,0.0,0.001469,0.0,0.0,0.0,0.0,0.0,0.257868,0.257868,0.572438,0.270221,0.270221,4.05017,0.0,0.0,0.0,0.0903651,0.0,0.0,0.0,0.0,0.0,0.000182709,0.00291745,0.00726108,0.0,0.0,0.0,0.0,0.0,0.0
30324000,-0.019627,-0.0146644,8.50487e-05,-0.00790232,-0.0129492,-0.0526428,0.0,0.0,0.0,-0.00699412,0.0,0.0,0.0,0.0,0.0,0.257849,0.257849,0.572445,0.270205,0.270205,4.04995,0.0,0.0,0.0,0.0903626,0.0,0.0,0.0,0.0,0.0,0.000175974,0.00266998,0.00655695,0.0,0.0,0.0,0.0,0.0,0.0
30516000,-0.0197691,-0.0131974,0.000140613,-0.00829954,0.00229992,-0.00857544,0.0,0.0,0.0,8.00951e-05,0.0,0.0,0.0,0.0,0.0,0.257832,0.257832,0.572451,0.270191,0.270191,4.05,0.0,0.0,0.0,0.0903598,0.0,0.0,0.0,0.0,0.0,0.000164754,0.00240215,0.00562926,0.0,0.0,0.0,0.0,0.0,0.0
30708000,-0.0192512,-0.0119666,0.000285714,-0.008507,-0.00750675,0.0200195,0.0,0.0,0.0,-0.00188377,0.0,0.0,0.0,0.0,0.0,0.257813,0.257813,0.572389,0.270176,0.270176,4.04988,0.0,0.0,0.0,0.0903576,0.0,0.0,0.0,0.0,0.0,0.000150881,0.0018751,0.00342185,0.0,0.0,0.0,0.0,0.0,0.0
30900000,-0.0212778,-0.0105445,-0.000196472,0.001475,-0.000173923,0.0177917,0.0,0.0,0.0,0.00173324,0.0,0.0,0.0,0.0,0.0,0.257796,0.257796,0.572395,0.270162,0.270162,4.04993,0.0,0.0,0.0,0.0903552,0.0,0.0,0.0,0.0,0.0,0.000129426,0.00139108,0.00236069,0.0,0.0,0.0,0.0,0.0,0.0
31092000,-0.0242594,-0.0104721,-0.00204141,0.00958058,-0.0082789,0.0539856,0.0,0.0,0.0,0.000640202,0.0,0.0,0.0,0.0,0.0,0.257781,0.257781,0.572402,0.270148,0.270148,4.04998,0.0,0.0,0.0,0.0903528,0.0,0.0,0.0,0.0,0.0,0.000119612,0.000954017,0.00124933,0.0,0.0,0.0,0.0,0.0,0.0
31284000,-0.0245442,-0.00871617,-0.00328644,-0.00497052,-9.93223e-05,-0.0783081,0.0,0.0,0.0,0.00293367,0.0,0.0,0.0,0.0,0.0,0.257765,0.257765,0.572408,0.270135,0.270135,4.04977,0.0,0.0,0.0,0.0903507,0.0,0.0,0.0,0.0,0.0,0.000161158,0.00118025,0.00139985,0.0,0.0,0.0,0.0,0.0,0.0
31476000,-0.0249451,-0.00687283,-0.00377033,0.00395602,-0.0229557,-0.0193787,0.0,0.0,0.0,0.00102702,0.0,0.0,0.0,0.0,0.0,0.257751,0.257751,0.572415,0.270122,0.270122,4.05014,0.0,0.0,0.0,0.0903483,0.0,0.0,0.0,0.0,0.0,0.000144503,0.00159115,0.00291367,0.0,0.0,0.0,0.0,0.0,0.0
31668000,-0.0243054,-0.00505081,-0.00483267,0.00200966,-0.00654395,0.00515747,0.0,0.0,0.0,-0.00200583,0.0,0.0,0.0,0.0,0.0,0.257767,0.257767,0.572404,0.270194,0.270194,4.05019,0.0,0.0,0.0,0.0903457,0.0,0.0,0.0,0.0,0.0,0.000105655,0.000438712,0.0011343,0.0,0.0,0.0,0.0,0.0,0.0
31860000,-0.0232261,-0.00386275,-0.00326859,0.000539096,0.00185207,-0.110931,0.0,0.0,0.0,-0.00258905,0.0,0.0,0.0,0.0,0.0,0.257752,0.257752,0.57241,0.270182,0.270182,4.05025,0.0,0.0,0.0,0.0903434,0.0,0.0,0.0,0.0,0.0,0.000110825,0.000649167,0.00125969,0.0,0.0,0.0,0.0,0.0,0.0
32052000,-0.018743,-0.00145013,-0.00396277,-0.0225121,-0.0132387,0.0121765,0.0,0.0,0.0,-0.00328624,0.0,0.0,0.0,0.0,0.0,0.257738,0.257738,0.572417,0.270169,0.270169,4.05013,0.0,0.0,0.0,0.0903413,0.0,0.0,0.0,0.0,0.0,0.000127309,0.0010939,0.00203405,0.0,0.0,0.0,0.0,0.0,0.0
32244000,-0.0150607,-0.00156979,-0.00162496,-0.0204486,-0.0125917,-0.00457764,0.0,0.0,0.0,0.000771284,0.0,0.0,0.0,0.0,0.0,0.257724,0.257724,0.572424,0.270157,0.270157,4.05018,0.0,0.0,0.0,0.0903391,0.0,0.0,0.0,0.0,0.0,0.000143403,0.0013926,0.0029265,0.0,0.0,0.0,0.0,0.0,0.0
32436000,-0.0129152,0.000768015,-0.00526293,0.00235469,-0.00375796,0.0361328,0.0,0.0,0.0,0.0018782,0.0,0.0,0.0,0.0,0.0,0.257713,0.257713,0.57243,0.270146,0.270146,4.04997,0.0,0.0,0.0,0.0903369,0.0,0.0,0.0,0.0,0.0,9.26561e-05,0.00107709,0.00300413,0.0,0.0,0.0,0.0,0.0,0.0
32628000,-0.00977298,0.00356867,-0.0045602,-0.00962143,-0.017386,-0.0350342,0.0,0.0,0.0,0.00154051,0.0,0.0,0.0,0.0,0.0,0.2577,0.2577,0.572436,0.270134,0.270134,4.05003,0.0,0.0,0.0,0.0903343,0.0,0.0,0.0,0.0,0.0,8.47577e-05,0.000498191,0.0009293,0.0,0.0,0.0,0.0,0.0,0.0
32820000,-0.00907031,0.00376346,-0.00596095,-0.00934802,-0.00626837,-0.00839233,0.0,0.0,0.0,0.00298805,0.0,0.0,0.0,0.0,0.0,0.257688,0.257688,0.572443,0.270123,0.270124,4.04991,0.0,0.0,0.0,0.0903323,0.0,0.0,0.0,0.0,0.0,7.807e-05,0.00116658,0.00379312,0.0,0.0,0.0,0.0,0.0,0.0
33012000,-0.00538748,0.00420201,-0.00705894,-0.00799466,0.00269128,0.135193,0.0,0.0,0.0,-0.00467914,0.0,0.0,0.0,0.0,0.0,0.257677,0.257677,0.572449,0.270113,0.270113,4.04997,0.0,0.0,0.0,0.0903302,0.0,0.0,0.0,0.0,0.0,7.50015e-05,0.00161608,0.00486972,0.0,0.0,0.0,0.0,0.0,0.0
33204000,-0.00384515,0.00387031,-0.00699235,-0.0185326,0.00270948,-0.00585938,0.0,0.0,0.0,0.00325247,0.0,0.0,0.0,0.0,0.0,0.257666,0.257666,0.572455,0.270103,0.270103,4.05002,0.0,0.0,0.0,0.0903281,0.0,0.0,0.0,0.0,0.0,6.19209e-05,0.00125298,0.00231275,0.0,0.0,0.0,0.0,0.0,0.0
33404000,-0.00281507,0.00492742,-0.00791582,-0.0170549,0.0167414,-0.14563,0.0,0.0,0.0,-0.00101347,0.0,0.0,0.0,0.0,0.0,0.257656,0.257656,0.572461,0.270093,0.270093,4.04982,0.0,0.0,0.0,0.090326,0.0,0.0,0.0,0.0,0.0,6.59112e-05,0.0023064,0.00469553,0.0,0.0,0.0,0.0,0.0,0.0
33596000,1.65144e-06,0.00652848,-0.00630364,-0.0257929,0.00117471,-3.05176e-05,0.0,0.0,0.0,-0.00390994,0.0,0.0,0.0,0.0,0.0,0.257645,0.257645,0.572398,0.270083,0.270083,4.04987,0.0,0.0,0.0,0.0903241,0.0,0.0,0.0,0.0,0.0,6.91594e-05,0.00193083,0.0040731,0.0,0.0,0.0,0.0,0.0,0.0
33788000,0.00179692,0.00455634,-0.0074147,0.00982932,0.00103153,-0.0557556,0.0,0.0,0.0,-0.000923095,0.0,0.0,0.0,0.0,0.0,0.257637,0.257637,0.572405,0.270074,0.270074,4.05025,0.0,0.0,0.0,0.090322,0.0,0.0,0.0,0.0,0.0,5.15384e-05,0.00246138,0.00535358,0.0,0.0,0.0,0.0,0.0,0.0
33980000,0.00233251,0.00506897,-0.00598719,-0.0117981,0.0089174,-0.0548096,0.0,0.0,0.0,0.00215906,0.0,0.0,0.0,0.0,0.0,0.257628,0.257628,0.572411,0.270066,0.270066,4.0503,0.0,0.0,0.0,0.0903197,0.0,0.0,0.0,0.0,0.0,0.000114725,0.00270245,0.0067864,0.0,0.0,0.0,0.0,0.0,0.0
34172000,0.00438066,0.0027256,-0.00540905,-0.0218267,-0.00661676,-0.003479,0.0,0.0,0.0,0.0017676,0.0,0.0,0.0,0.0,0.0,0.2576,0.2576,0.572429,0.269984,0.269984,4.05036,0.0,0.0,0.0,0.0903177,0.0,0.0,0.0,0.0,0.0,0.00011306,0.00163505,0.00398222,0.0,0.0,0.0,0.0,0.0,0.0
34364000,0.00534701,0.000917956,-0.00472993,-0.00770953,0.00259263,0.0266418,0.0,0.0,0.0,0.00179703,0.0,0.0,0.0,0.0,0.0,0.257592,0.257592,0.572434,0.269975,0.269975,4.05015,0.0,0.0,0.0,0.0903158,0.0,0.0,0.0,0.0,0.0,6.32224e-05,0.00180707,0.00469401,0.0,0.0,0.0,0.0,0.0,0.0
34556000,0.00660458,-0.00023243,-0.00690823,0.00438414,-0.0122889,-0.0870056,0.0,0.0,0.0,0.00389143,0.0,0.0,0.0,0.0,0.0,0.257585,0.257585,0.572441,0.269967,0.269967,4.05003,0.0,0.0,0.0,0.0903139,0.0,0.0,0.0,0.0,0.0,5.14244e-05,0.0019828,0.00431192,0.0,0.0,0.0,0.0,0.0,0.0
34748000,0.0059854,0.00181735,-0.00892934,-0.00654161,-0.0110018,-0.00332642,0.0,0.0,0.0,-0.00139369,0.0,0.0,0.0,0.0,0.0,0.257578,0.257578,0.572447,0.26996,0.26996,4.05009,0.0,0.0,0.0,0.0903119,0.0,0.0,0.0,0.0,0.0,4.71479e-05,0.00191858,0.00398642,0.0,0.0,0.0,0.0,0.0,0.0
34940000,0.00670478,0.0022872,-0.00770907,-0.00400659,0.0192966,-0.137512,0.0,0.0,0.0,-0.000708081,0.0,0.0,0.0,0.0,0.0,0.257569,0.25757,0.572453,0.269953,0.269953,4.05015,0.0,0.0,0.0,0.0903097,0.0,0.0,0.0,0.0,0.0,1.90445e-05,0.00214759,0.00515162,0.0,0.0,0.0,0.0,0.0,0.0
35132000,0.00857479,-0.000170297,-0.00579819,0.00685585,0.0020777,0.0105591,0.0,0.0,0.0,-0.000209076,0.0,0.0,0.0,0.0,0.0,0.257561,0.257562,0.57239,0.269946,0.269946,4.05003,0.0,0.0,0.0,0.090308,0.0,0.0,0.0,0.0,0.0,4.71889e-05,0.00229983,0.00456354,0.0,0.0,0.0,0.0,0.0,0.0
35324000,0.00816361,0.00308836,-0.0047552,0.0180296,-0.0129526,-0.0247192,0.0,0.0,0.0,-0.00146232,0.0,0.0,0.0,0.0,0.0,0.257554,0.257554,0.572396,0.269939,0.269939,4.05009,0.0,0.0,0.0,0.0903061,0.0,0.0,0.0,0.0,0.0,7.34783e-05,0.00256511,0.00510076,0.0,0.0,0.0,0.0,0.0,0.0
35516000,0.0106973,0.00394423,-0.00440478,-0.00395217,0.0102244,0.110138,0.0,0.0,0.0,-0.000346537,0.0,0.0,0.0,0.0,0.0,0.257546,0.257546,0.572402,0.269932,0.269932,4.04988,0.0,0.0,0.0,0.0903042,0.0,0.0,0.0,0.0,0.0,7.07944e-05,0.00220226,0.00450609,0.0,0.0,0.0,0.0,0.0,0.0
35708000,0.0128481,0.00569058,-0.00486922,-0.00193243,0.00230602,0.0361938,0.0,0.0,0.0,-0.00474568,0.0,0.0,0.0,0.0,0.0,0.257539,0.25754,0.572408,0.269926,0.269926,4.04993,0.0,0.0,0.0,0.0903021,0.0,0.0,0.0,0.0,0.0,0.000112796,0.00234777,0.00567693,0.0,0.0,0.0,0.0,0.0,0.0
35900000,0.0175591,0.00482841,-0.00578092,-0.00996491,0.00257235,0.0437622,0.0,0.0,0.0,-0.000886709,0.0,0.0,0.0,0.0,0.0,0.257533,0.257533,0.572414,0.269919,0.269919,4.04982,0.0,0.0,0.0,0.0903004,0.0,0.0,0.0,0.0,0.0,0.000127545,0.00198458,0.00492418,0.0,0.0,0.0,0.0,0.0,0.0
36092000,0.0197453,0.00768617,-0.0046533,-0.0182057,-0.00341318,-0.039917,0.0,0.0,0.0,9.10675e-05,0.0,0.0,0.0,0.0,0.0,0.257526,0.257526,0.57242,0.269913,0.269913,4.04987,0.0,0.0,0.0,0.0902986,0.0,0.0,0.0,0.0,0.0,0.000115429,0.00140185,0.00256174,0.0,0.0,0.0,0.0,0.0,0.0
36284000,0.0235157,0.0077788,-0.00262067,0.00851102,-0.00254205,-0.0540466,0.0,0.0,0.0,-0.00437386,0.0,0.0,0.0,0.0,0.0,0.257519,0.25752,0.572426,0.269907,0.269907,4.04993,0.0,0.0,0.0,0.0902969,0.0,0.0,0.0,0.0,0.0,9.17324e-05,0.0021492,0.00310908,0.0,0.0,0.0,0.0,0.0,0.0
36476000,0.025337,0.00685427,-0.00137818,0.0204384,-0.00238168,-0.0273438,0.0,0.0,0.0,-0.00800444,0.0,0.0,0.0,0.0,0.0,0.257513,0.257513,0.572432,0.269901,0.269901,4.05021,0.0,0.0,0.0,0.0902953,0.0,0.0,0.0,0.0,0.0,0.000150721,0.00357396,0.00614958,0.0,0.0,0.0,0.0,0.0,0.0
36668000,0.0249449,0.00484001,-0.000767201,0.0206143,0.0131917,0.0577087,0.0,0.0,0.0,-0.00156947,0.0,0.0,0.0,0.0,0.0,0.257533,0.257533,0.572421,0.269975,0.269975,4.05009,0.0,0.0,0.0,0.0902935,0.0,0.0,0.0,0.0,0.0,0.000160824,0.00282791,0.00529435,0.0,0.0,0.0,0.0,0.0,0.0
36860000,0.025698,0.00582034,0.000705495,0.0429177,0.00491581,-0.0637817,0.0,0.0,0.0,0.0019838,0.0,0.0,0.0,0.0,0.0,0.257527,0.257527,0.572427,0.26997,0.26997,4.05015,0.0,0.0,0.0,0.0902915,0.0,0.0,0.0,0.0,0.0,0.00016822,0.00360244,0.00723604,0.0,0.0,0.0,0.0,0.0,0.0
37052000,0.0245415,0.00572596,0.00276203,0.0302314,-0.00320684,-0.0635681,0.0,0.0,0.0,-0.00150789,0.0,0.0,0.0,0.0,0.0,0.257522,0.257522,0.572433,0.269964,0.269964,4.05021,0.0,0.0,0.0,0.0902899,0.0,0.0,0.0,0.0,0.0,0.000171936,0.00368213,0.00810737,0.0,0.0,0.0,0.0,0.0,0.0
37244000,0.0256291,0.00559723,0.00478254,0.0178505,0.00381678,-0.0289001,0.0,0.0,0.0,-0.00138925,0.0,0.0,0.0,0.0,0.0,0.257517,0.257517,0.572439,0.269959,0.269959,4.05,0.0,0.0,0.0,0.0902883,0.0,0.0,0.0,0.0,0.0,0.000153744,0.00331538,0.00687895,0.0,0.0,0.0,0.0,0.0,0.0
37436000,0.0237606,0.00422408,0.000319656,0.00795851,0.0114177,-0.018158,0.0,0.0,0.0,0.000547377,0.0,0.0,0.0,0.0,0.0,0.257514,0.257514,0.572447,0.269954,0.269955,4.04988,0.0,0.0,0.0,0.0902867,0.0,0.0,0.0,0.0,0.0,0.000135944,0.00241065,0.00472256,0.0,0.0,0.0,0.0,0.0,0.0
37628000,0.0223665,0.00315152,0.00183803,0.0190433,-0.0117615,-0.0514832,0.0,0.0,0.0,-0.00367424,0.0,0.0,0.0,0.0,0.0,0.257509,0.257509,0.572454,0.26995,0.26995,4.04995,0.0,0.0,0.0,0.090285,0.0,0.0,0.0,0.0,0.0,0.000153044,0.00246839,0.00487855,0.0,0.0,0.0,0.0,0.0,0.0
37820000,0.0211596,0.00351094,0.00394195,0.0189503,-0.00259248,0.0711365,0.0,0.0,0.0,0.000726068,0.0,0.0,0.0,0.0,0.0,0.257503,0.257503,0.572392,0.269945,0.269945,4.05001,0.0,0.0,0.0,0.0902832,0.0,0.0,0.0,0.0,0.0,0.000137273,0.00236726,0.00487688,0.0,0.0,0.0,0.0,0.0,0.0
38012000,0.0169153,0.00488425,0.00124906,0.0192372,-0.0243607,-0.0591125,0.0,0.0,0.0,-0.00484807,0.0,0.0,0.0,0.0,0.0,0.2575,0.2575,0.572399,0.269941,0.269941,4.0499,0.0,0.0,0.0,0.0902817,0.0,0.0,0.0,0.0,0.0,0.000133396,0.00196761,0.00406242,0.0,0.0,0.0,0.0,0.0,0.0
38204000,0.0150976,0.00458875,-0.000610091,0.00878559,0.0161808,0.0488281,0.0,0.0,0.0,-0.00278678,0.0,0.0,0.0,0.0,0.0,0.257497,0.257497,0.572406,0.269937,0.269937,4.04996,0.0,0.0,0.0,0.0902801,0.0,0.0,0.0,0.0,0.0,9.94332e-05,0.000925802,0.00204402,0.0,0.0,0.0,0.0,0.0,0.0
38396000,0.0135011,0.00492097,-0.00102582,-0.00273173,0.00743076,0.0154724,0.0,0.0,0.0,-0.00369267,0.0,0.0,0.0,0.0,0.0,0.257493,0.257493,0.572413,0.269933,0.269933,4.04975,0.0,0.0,0.0,0.0902785,0.0,0.0,0.0,0.0,0.0,7.15862e-05,0.0008192,0.0019783,0.0,0.0,0.0,0.0,0.0,0.0
38588000,0.0147394,0.00308508,0.00174841,0.0208351,0.00631358,-0.0281982,0.0,0.0,0.0,0.000297326,0.0,0.0,0.0,0.0,0.0,0.257488,0.257488,0.57242,0.269929,0.269929,4.04981,0.0,0.0,0.0,0.0902768,0.0,0.0,0.0,0.0,0.0,9.09864e-05,0.00105578,0.00183974,0.0,0.0,0.0,0.0,0.0,0.0
38780000,0.0136167,0.00343033,0.000703737,0.0202662,0.00575652,0.00125122,0.0,0.0,0.0,-0.00178274,0.0,0.0,0.0,0.0,0.0,0.257485,0.257485,0.572427,0.269926,0.269926,4.0502,0.0,0.0,0.0,0.0902754,0.0,0.0,0.0,0.0,0.0,0.000103425,0.00113363,0.00202846,0.0,0.0,0.0,0.0,0.0,0.0
38972000,0.012863,0.0033898,0.000111031,0.0195509,-0.00200959,0.039093,0.0,0.0,0.0,0.00433204,0.0,0.0,0.0,0.0,0.0,0.257461,0.257461,0.572446,0.269847,0.269847,4.05026,0.0,0.0,0.0,0.0902738,0.0,0.0,0.0,0.0,0.0,9.2478e-05,0.000212414,0.000394637,0.0,0.0,0.0,0.0,0.0,0.0
39164000,0.00985008,3.17139e-05,-0.00240381,0.0173088,0.0118001,0.0050354,0.0,0.0,0.0,0.000785957,0.0,0.0,0.0,0.0,0.0,0.257459,0.257459,0.572385,0.269844,0.269844,4.05006,0.0,0.0,0.0,0.0902724,0.0,0.0,0.0,0.0,0.0,9.38002e-05,0.000577671,0.00143458,0.0,0.0,0.0,0.0,0.0,0.0
39356000,0.00769442,-0.00076109,-0.000606678,0.00483868,-0.00385896,-0.0426941,0.0,0.0,0.0,-0.00499826,0.0,0.0,0.0,0.0,0.0,0.257454,0.257454,0.572392,0.269841,0.269841,4.05012,0.0,0.0,0.0,0.0902707,0.0,0.0,0.0,0.0,0.0,8.83237e-05,0.000629308,0.00175288,0.0,0.0,0.0,0.0,0.0,0.0
39556000,0.00579212,-0.000169465,-0.000315174,0.00413785,0.00417642,0.0436707,0.0,0.0,0.0,0.000957784,0.0,0.0,0.0,0.0,0.0,0.257451,0.257451,0.572399,0.269838,0.269838,4.05019,0.0,0.0,0.0,0.0902692,0.0,0.0,0.0,0.0,0.0,9.1486e-05,0.000663566,0.00119604,0.0,0.0,0.0,0.0,0.0,0.0
39748000,0.00422581,0.00159129,0.00223421,0.0262343,0.0113301,-0.0192566,0.0,0.0,0.0,-0.00242868,0.0,0.0,0.0,0.0,0.0,0.257446,0.257446,0.572406,0.269835,0.269835,4.05008,0.0,0.0,0.0,0.0902679,0.0,0.0,0.0,0.0,0.0,0.000153494,0.000439204,0.000712857,0.0,0.0,0.0,0.0,0.0,0.0
39940000,0.00325919,0.0019943,0.000578001,0.0229546,-0.0046423,-0.0315552,0.0,0.0,0.0,0.00237173,0.0,0.0,0.0,0.0,0.0,0.257444,0.257444,0.572412,0.269831,0.269831,4.05013,0.0,0.0,0.0,0.0902665,0.0,0.0,0.0,0.0,0.0,0.000150486,0.000246448,0.000532079,0.0,0.0,0.0,0.0,0.0,0.0
40132000,-0.000583555,0.00437199,-0.00116333,-0.000772303,-0.0110919,-0.0115662,0.0,0.0,0.0,-0.00396602,0.0,0.0,0.0,0.0,0.0,0.257441,0.257441,0.572419,0.269828,0.269828,4.04993,0.0,0.0,0.0,0.0902651,0.0,0.0,0.0,0.0,0.0,5.21934e-05,0.00128355,0.00271567,0.0,0.0,0.0,0.0,0.0,0.0
40324000,-0.00645996,0.00498436,-0.00494681,-0.00112383,0.00503072,-0.0545959,0.0,0.0,0.0,-0.00317214,0.0,0.0,0.0,0.0,0.0,0.25744,0.25744,0.572425,0.269826,0.269826,4.04999,0.0,0.0,0.0,0.0902635,0.0,0.0,0.0,0.0,0.0,2.8363e-05,0.00176076,0.0034275,0.0,0.0,0.0,0.0,0.0,0.0
40516000,-0.01101,0.00814878,-0.0058083,-0.0124607,-0.00231802,-0.0254517,0.0,0.0,0.0,-0.00168765,0.0,0.0,0.0,0.0,0.0,0.257437,0.257437,0.572431,0.269823,0.269823,4.04988,0.0,0.0,0.0,0.0902622,0.0,0.0,0.0,0.0,0.0,6.07253e-05,0.0029185,0.00610667,0.0,0.0,0.0,0.0,0.0,0.0
40708000,-0.0116605,0.009233,-0.00645256,0.00925196,0.00714502,0.0167847,0.0,0.0,0.0,-0.00300476,0.0,0.0,0.0,0.0,0.0,0.257434,0.257434,0.572438,0.269821,0.269821,4.04994,0.0,0.0,0.0,0.0902608,0.0,0.0,0.0,0.0,0.0,5.86523e-05,0.00264634,0.00575709,0.0,0.0,0.0,0.0,0.0,0.0
40900000,-0.0161615,0.0104106,-0.00512756,-0.00503362,0.0067099,-0.0802612,0.0,0.0,0.0,-0.00235958,0.0,0.0,0.0,0.0,0.0,0.25743,0.25743,0.572443,0.269818,0.269818,4.04999,0.0,0.0,0.0,0.0902595,0.0,0.0,0.0,0.0,0.0,6.32457e-05,0.00270647,0.00496203,0.0,0.0,0.0,0.0,0.0,0.0
41092000,-0.01721,0.0110219,-0.00347624,-0.00633642,-0.00913771,0.000976562,0.0,0.0,0.0,-0.00610115,0.0,0.0,0.0,0.0,0.0,0.257427,0.257427,0.572448,0.269815,0.269815,4.05036,0.0,0.0,0.0,0.0902583,0.0,0.0,0.0,0.0,0.0,7.82739e-05,0.00308765,0.00569478,0.0,0.0,0.0,0.0,0.0,0.0
41284000,-0.014836,0.0112857,-0.00335387,0.0140698,0.000919997,0.0391541,0.0,0.0,0.0,-0.00171285,0.0,0.0,0.0,0.0,0.0,0.257424,0.257424,0.572454,0.269813,0.269813,4.05041,0.0,0.0,0.0,0.090257,0.0,0.0,0.0,0.0,0.0,7.06797e-05,0.00225756,0.00406642,0.0,0.0,0.0,0.0,0.0,0.0
41476000,-0.0178982,0.0125422,-0.00344346,-0.0113565,0.00289855,-0.010437,0.0,0.0,0.0,-0.0103234,0.0,0.0,0.0,0.0,0.0,0.257421,0.257421,0.572391,0.26981,0.26981,4.0502,0.0,0.0,0.0,0.0902555,0.0,0.0,0.0,0.0,0.0,9.5978e-05,0.00271555,0.0048228,0.0,0.0,0.0,0.0,0.0,0.0
41668000,-0.0176054,0.0108711,-0.00271128,-0.000498514,-0.00411219,-0.00115967,0.0,0.0,0.0,-0.00174288,0.0,0.0,0.0,0.0,0.0,0.257441,0.257442,0.572448,0.269885,0.269885,4.05026,0.0,0.0,0.0,0.0902542,0.0,0.0,0.0,0.0,0.0,5.25902e-05,0.00198309,0.00373864,0.0,0.0,0.0,0.0,0.0,0.0
41860000,-0.0192809,0.0110464,-0.00494072,-0.00352891,-0.0090396,-0.0548096,0.0,0.0,0.0,0.00278266,0.0,0.0,0.0,0.0,0.0,0.25744,0.25744,0.572455,0.269883,0.269883,4.05014,0.0,0.0,0.0,0.090253,0.0,0.0,0.0,0.0,0.0,6.54634e-05,0.00191719,0.00383641,0.0,0.0,0.0,0.0,0.0,0.0
42052000,-0.0207422,0.0117518,-0.00280884,-0.0174399,0.0215639,-0.00900269,0.0,0.0,0.0,-0.000565186,0.0,0.0,0.0,0.0,0.0,0.257437,0.257437,0.572393,0.269881,0.269881,4.0502,0.0,0.0,0.0,0.0902518,0.0,0.0,0.0,0.0,0.0,8.29476e-05,0.00231983,0.00429006,0.0,0.0,0.0,0.0,0.0,0.0
42244000,-0.0189182,0.0141195,0.000354901,-0.0172394,-0.00886294,-0.0133057,0.0,0.0,0.0,-0.000966019,0.0,0.0,0.0,0.0,0.0,0.257433,0.257433,0.572399,0.269878,0.269878,4.04999,0.0,0.0,0.0,0.0902503,0.0,0.0,0.0,0.0,0.0,0.00010492,0.00263561,0.00507004,0.0,0.0,0.0,0.0,0.0,0.0
42436000,-0.0187009,0.0165156,0.000191711,-0.0170052,0.00821388,0.151642,0.0,0.0,0.0,-0.00421148,0.0,0.0,0.0,0.0,0.0,0.257431,0.257431,0.572406,0.269876,0.269876,4.05005,0.0,0.0,0.0,0.0902491,0.0,0.0,0.0,0.0,0.0,0.000116886,0.00294351,0.00597736,0.0,0.0,0.0,0.0,0.0,0.0
42628000,-0.0178852,0.0175131,0.00406703,-0.0167465,0.00859319,-0.107605,0.0,0.0,0.0,0.000158085,0.0,0.0,0.0,0.0,0.0,0.257426,0.257426,0.572412,0.269873,0.269873,4.04994,0.0,0.0,0.0,0.090248,0.0,0.0,0.0,0.0,0.0,0.000138248,0.00292189,0.00578598,0.0,0.0,0.0,0.0,0.0,0.0
42820000,-0.0195472,0.0191666,0.00536811,0.0149973,0.0106814,-0.0502014,0.0,0.0,0.0,-0.000936823,0.0,0.0,0.0,0.0,0.0,0.257424,0.257424,0.572419,0.269871,0.269871,4.05,0.0,0.0,0.0,0.0902468,0.0,0.0,0.0,0.0,0.0,8.77257e-05,0.00169795,0.00294356,0.0,0.0,0.0,0.0,0.0,0.0
43012000,-0.0224546,0.0192107,0.00644816,-0.0111432,0.00341943,0.0565186,0.0,0.0,0.0,0.00731753,0.0,0.0,0.0,0.0,0.0,0.257422,0.257422,0.572426,0.269868,0.269868,4.04979,0.0,0.0,0.0,0.0902454,0.0,0.0,0.0,0.0,0.0,9.72381e-05,0.00201381,0.00343842,0.0,0.0,0.0,0.0,0.0,0.0
43204000,-0.0222775,0.0206776,0.00783967,-0.0122305,-0.00156924,0.155914,0.0,0.0,0.0,0.000601407,0.0,0.0,0.0,0.0,0.0,0.257419,0.257419,0.572432,0.269866,0.269866,4.04994,0.0,0.0,0.0,0.0902445,0.0,0.0,0.0,0.0,0.0,0.000106141,0.00227995,0.00409558,0.0,0.0,0.0,0.0,0.0,0.0
43396000,-0.0218401,0.0189287,0.00737952,-0.0115032,0.0224805,-0.0143433,0.0,0.0,0.0,0.00291975,0.0,0.0,0.0,0.0,0.0,0.257417,0.257417,0.572437,0.269864,0.269864,4.04999,0.0,0.0,0.0,0.0902434,0.0,0.0,0.0,0.0,0.0,0.000143873,0.00313258,0.00578378,0.0,0.0,0.0,0.0,0.0,0.0
43588000,-0.0219868,0.0170491,0.00820409,-0.011778,0.00692699,0.115814,0.0,0.0,0.0,-0.00405304,0.0,0.0,0.0,0.0,0.0,0.257416,0.257416,0.572442,0.269862,0.269862,4.05027,0.0,0.0,0.0,0.090242,0.0,0.0,0.0,0.0,0.0,0.000152856,0.00311871,0.0058407,0.0,0.0,0.0,0.0,0.0,0.0
43780000,-0.0224119,0.0168081,0.00915143,-0.0119019,0.0155371,-0.000640869,0.0,0.0,0.0,-0.00204477,0.0,0.0,0.0,0.0,0.0,0.257413,0.257413,0.572448,0.26986,0.26986,4.05032,0.0,0.0,0.0,0.0902409,0.0,0.0,0.0,0.0,0.0,0.00015035,0.00311324,0.00582754,0.0,0.0,0.0,0.0,0.0,0.0
43972000,-0.0220887,0.0164392,0.00963075,-0.0234263,0.0229325,-0.0354919,0.0,0.0,0.0,0.00063599,0.0,0.0,0.0,0.0,0.0,0.25739,0.25739,0.572397,0.269783,0.269783,4.0502,0.0,0.0,0.0,0.0902399,0.0,0.0,0.0,0.0,0.0,0.000118846,0.00192826,0.00421899,0.0,0.0,0.0,0.0,0.0,0.0
44164000,-0.0213681,0.0135025,0.0150064,-0.0227445,0.00706968,0.154694,0.0,0.0,0.0,-0.0034172,0.0,0.0,0.0,0.0,0.0,0.257386,0.257386,0.572402,0.269781,0.269781,4.05025,0.0,0.0,0.0,0.0902388,0.0,0.0,0.0,0.0,0.0,0.000139178,0.00207643,0.00481295,0.0,0.0,0.0,0.0,0.0,0.0
44356000,-0.0193319,0.0161517,0.0135327,-0.0203877,-0.00606511,-0.00476074,0.0,0.0,0.0,0.00122173,0.0,0.0,0.0,0.0,0.0,0.257385,0.257385,0.572408,0.269779,0.269779,4.0503,0.0,0.0,0.0,0.0902377,0.0,0.0,0.0,0.0,0.0,0.000128829,0.00214283,0.00482859,0.0,0.0,0.0,0.0,0.0,0.0
44548000,-0.0196177,0.0136848,0.0137384,-0.0199449,0.0180869,-0.0276184,0.0,0.0,0.0,0.00614884,0.0,0.0,0.0,0.0,0.0,0.257384,0.257384,0.572413,0.269777,0.269777,4.05018,0.0,0.0,0.0,0.0902367,0.0,0.0,0.0,0.0,0.0,0.000154421,0.0015816,0.00331044,0.0,0.0,0.0,0.0,0.0,0.0
44740000,-0.019701,0.0105428,0.01446,-0.00914489,0.0100059,-0.0556335,0.0,0.0,0.0,0.00411279,0.0,0.0,0.0,0.0,0.0,0.257382,0.257382,0.572416,0.269775,0.269775,4.05022,0.0,0.0,0.0,0.0902356,0.0,0.0,0.0,0.0,0.0,0.000176686,0.00121903,0.00286521,0.0,0.0,0.0,0.0,0.0,0.0
44932000,-0.0182839,0.00497879,0.0106441,-0.0100454,0.0233234,-0.0102539,0.0,0.0,0.0,0.00266225,0.0,0.0,0.0,0.0,0.0,0.257382,0.257382,0.57242,0.269773,0.269773,4.05026,0.0,0.0,0.0,0.0902345,0.0,0.0,0.0,0.0,0.0,0.000164222,0.00134213,0.00361531,0.0,0.0,0.0,0.0,0.0,0.0
