timestamp,heartbeat_time,data_rate,rate_multiplier,rate_rx,rate_tx,rate_txerr,remote_system_id,remote_component_id,remote_type,remote_system_status,type,mode,flow_control,forwarding,mavlink_v2,ftp,streams
1000000,0,4e+06,1.0,0.0,0.0,0.0,0,0,0,0,0,2,0,0,0,1,43
2000000,0,4e+06,1.0,0.0,0.0,0.0,0,0,0,0,0,2,0,0,0,1,43
2000000,0,4e+06,1.0,0.0,0.0,0.0,0,0,0,0,0,0,0,0,0,1,37
3000000,0,4e+06,1.0,0.0,395.749,0.0,0,0,0,0,0,0,0,0,0,1,37
3000000,0,4e+06,1.0,0.0,606.944,0.0,0,0,0,0,0,2,0,0,0,1,43
4000000,0,4e+06,1.0,0.0,14.8865,0.0,0,0,0,0,0,2,0,0,0,1,43
4000000,0,4e+06,1.0,0.0,9.83068,0.0,0,0,0,0,0,0,0,0,0,1,37
5000000,0,4e+06,1.0,0.0,14.8845,0.0,0,0,0,0,0,2,0,0,0,1,43
5000000,0,4e+06,1.0,0.0,9.70119,0.0,0,0,0,0,0,0,0,0,0,1,37
6000000,0,4e+06,1.0,0.0,14.8825,0.0,0,0,0,0,0,2,0,0,0,1,43
6000000,0,4e+06,1.0,0.0,9.76593,0.0,0,0,0,0,0,0,0,0,0,1,37
7000000,0,4e+06,1.0,0.0,9.73008,0.0,0,0,0,0,0,0,0,0,0,1,37
7000000,0,4e+06,1.0,0.0,14.8765,0.0,0,0,0,0,0,2,0,0,0,1,43
8000000,0,4e+06,1.0,0.0,14.9522,0.0,0,0,0,0,0,2,0,0,0,1,43
8000000,0,4e+06,1.0,0.0,9.79283,0.0,0,0,0,0,0,0,0,0,0,1,37
9000000,0,4e+06,1.0,0.0,14.8865,0.0,0,0,0,0,0,2,0,0,0,1,43
9000000,0,4e+06,1.0,0.0,9.74104,0.0,0,0,0,0,0,0,0,0,0,1,37
10000000,0,4e+06,1.0,0.0,14.8466,0.0,0,0,0,0,0,2,0,0,0,1,43
10000000,0,4e+06,1.0,0.0,9.72112,0.0,0,0,0,0,0,0,0,0,0,1,37
11000000,0,4e+06,1.0,0.0,14.8825,0.0,0,0,0,0,0,2,0,0,0,1,43
11000000,0,4e+06,1.0,0.0,9.76793,0.0,0,0,0,0,0,0,0,0,0,1,37
12000000,0,4e+06,1.0,0.0,14.9123,0.0,0,0,0,0,0,2,0,0,0,1,43
12000000,0,4e+06,1.0,0.0,9.75,0.0,0,0,0,0,0,0,0,0,0,1,37
13000000,0,4e+06,1.0,0.0,14.997,0.0,0,0,0,0,0,2,0,0,0,1,43
13000000,0,4e+06,1.0,0.0,9.77291,0.0,0,0,0,0,0,0,0,0,0,1,37
14000000,0,4e+06,1.0,0.0,14.8865,0.0,0,0,0,0,0,2,0,0,0,1,43
14000000,0,4e+06,1.0,0.0,9.76095,0.0,0,0,0,0,0,0,0,0,0,1,37
15000000,0,4e+06,1.0,0.0,14.8466,0.0,0,0,0,0,0,2,0,0,0,1,43
15000000,0,4e+06,1.0,0.0,9.70119,0.0,0,0,0,0,0,0,0,0,0,1,37
16000000,0,4e+06,1.0,0.0,15.3127,0.0,0,0,0,0,0,2,0,0,0,1,43
16000000,0,4e+06,1.0,0.0,10.3396,0.0,0,0,0,0,0,0,0,0,0,1,37
17000000,0,4e+06,1.0,0.0,11.5588,0.0,0,0,0,0,0,0,0,0,0,1,37
17000000,0,4e+06,1.0,0.0,16.6693,0.0,0,0,0,0,0,2,0,0,0,1,43
18000000,0,4e+06,1.0,0.0,10.7629,0.0,0,0,0,0,0,0,0,0,0,1,37
18000000,0,4e+06,1.0,0.0,16.6843,0.0,0,0,0,0,0,2,0,0,0,1,43
19000000,0,4e+06,1.0,0.0,9.35159,0.0,0,0,0,0,0,0,0,0,0,1,37
19000000,0,4e+06,1.0,0.0,16.8187,0.0,0,0,0,0,0,2,0,0,0,1,43
20000000,0,4e+06,1.0,0.0,16.9143,0.0,0,0,0,0,0,2,0,0,0,1,43
20000000,0,4e+06,1.0,0.0,9.4502,0.0,0,0,0,0,0,0,0,0,0,1,37
21000000,0,4e+06,1.0,0.0,9.33366,0.0,0,0,0,0,0,0,0,0,0,1,37
21000000,0,4e+06,1.0,0.0,16.8506,0.0,0,0,0,0,0,2,0,0,0,1,43
22000000,0,4e+06,1.0,0.0,9.51494,0.0,0,0,0,0,0,0,0,0,0,1,37
22000000,0,4e+06,1.0,0.0,16.8685,0.0,0,0,0,0,0,2,0,0,0,1,43
23000000,0,4e+06,1.0,0.0,9.38347,0.0,0,0,0,0,0,0,0,0,0,1,37
23000000,0,4e+06,1.0,0.0,16.8845,0.0,0,0,0,0,0,2,0,0,0,1,43
24000000,0,4e+06,1.0,0.0,9.49004,0.0,0,0,0,0,0,0,0,0,0,1,37
24000000,0,4e+06,1.0,0.0,16.8785,0.0,0,0,0,0,0,2,0,0,0,1,43
25000000,0,4e+06,1.0,0.0,9.37052,0.0,0,0,0,0,0,0,0,0,0,1,37
25000000,0,4e+06,1.0,0.0,16.7789,0.0,0,0,0,0,0,2,0,0,0,1,43
26000000,0,4e+06,1.0,0.0,16.9104,0.0,0,0,0,0,0,2,0,0,0,1,43
26000000,0,4e+06,1.0,0.0,9.39143,0.0,0,0,0,0,0,0,0,0,0,1,37
27000000,0,4e+06,1.0,0.0,9.43526,0.0,0,0,0,0,0,0,0,0,0,1,37
27000000,0,4e+06,1.0,0.0,16.9482,0.0,0,0,0,0,0,2,0,0,0,1,43
28000000,0,4e+06,1.0,0.0,9.46315,0.0,0,0,0,0,0,0,0,0,0,1,37
28000000,0,4e+06,1.0,0.0,17.0289,0.0,0,0,0,0,0,2,0,0,0,1,43
29000000,0,4e+06,1.0,0.0,9.41036,0.0,0,0,0,0,0,0,0,0,0,1,37
29000000,0,4e+06,1.0,0.0,16.8187,0.0,0,0,0,0,0,2,0,0,0,1,43
30000000,0,4e+06,1.0,0.0,9.39143,0.0,0,0,0,0,0,0,0,0,0,1,37
30000000,0,4e+06,1.0,0.0,16.8765,0.0,0,0,0,0,0,2,0,0,0,1,43
31000000,0,4e+06,1.0,0.0,9.39243,0.0,0,0,0,0,0,0,0,0,0,1,37
31000000,0,4e+06,1.0,0.0,16.8506,0.0,0,0,0,0,0,2,0,0,0,1,43
32000000,0,4e+06,1.0,0.0,16.8685,0.0,0,0,0,0,0,2,0,0,0,1,43
32000000,0,4e+06,1.0,0.0,9.45617,0.0,0,0,0,0,0,0,0,0,0,1,37
33000000,0,4e+06,1.0,0.0,9.44223,0.0,0,0,0,0,0,0,0,0,0,1,37
33000000,0,4e+06,1.0,0.0,16.8845,0.0,0,0,0,0,0,2,0,0,0,1,43
33848000,33848000,4e+06,1.0,0.0438247,17.8426,0.0,190,191,6,0,0,2,0,0,1,1,43
34000000,0,4e+06,1.0,0.0,9.44223,0.0,0,0,0,0,0,0,0,0,0,1,37
34848000,34844000,4e+06,1.0,0.170319,25.8526,0.0,190,191,6,0,0,2,0,0,1,1,43
35000000,0,4e+06,1.0,0.0,9.38147,0.0,0,0,0,0,0,0,0,0,0,1,37
35848000,34844000,4e+06,1.0,0.143426,25.9691,0.0,190,191,6,0,0,2,0,0,1,1,43
36000000,0,4e+06,1.0,0.0,9.41335,0.0,0,0,0,0,0,0,0,0,0,1,37
36848000,35848000,4e+06,1.0,0.0209163,25.9472,0.0,190,191,6,0,0,2,0,0,1,1,43
36856000,36852000,4e+06,1.0,0.0209163,25.9472,0.0,190,191,6,0,0,2,0,0,1,1,43
37000000,0,4e+06,1.0,0.0,10.2978,0.0,0,0,0,0,0,0,0,0,0,1,37
37856000,37852000,4e+06,1.0,0.0209163,27.1594,0.0,190,191,6,0,0,2,0,0,1,1,43
38000000,0,4e+06,1.0,0.0,14.6424,0.0,0,0,0,0,0,0,0,0,0,1,37
38856000,37852000,4e+06,1.0,0.0209163,26.7809,0.0,190,191,6,0,0,2,0,0,1,1,43
39000000,0,4e+06,1.0,0.0,14.5896,0.0,0,0,0,0,0,0,0,0,0,1,37
39856000,38856000,4e+06,1.0,0.0209163,26.8048,0.0,190,191,6,0,0,2,0,0,1,1,43
39864000,39860000,4e+06,1.0,0.0209163,26.8048,0.0,190,191,6,0,0,2,0,0,1,1,43
40000000,0,4e+06,1.0,0.0,14.6155,0.0,0,0,0,0,0,0,0,0,0,1,37
40864000,39860000,4e+06,1.0,0.0209163,26.8157,0.0,190,191,6,0,0,2,0,0,1,1,43
41000000,0,4e+06,1.0,0.0,14.5717,0.0,0,0,0,0,0,0,0,0,0,1,37
41864000,40864000,4e+06,1.0,0.0209163,26.8386,0.0,190,191,6,0,0,2,0,0,1,1,43
41868000,41868000,4e+06,1.0,0.0209163,26.8386,0.0,190,191,6,0,0,2,0,0,1,1,43
42000000,0,4e+06,1.0,0.0,14.6942,0.0,0,0,0,0,0,0,0,0,0,1,37
42868000,41868000,4e+06,1.0,0.0209163,26.8506,0.0,190,191,6,0,0,2,0,0,1,1,43
43000000,0,4e+06,1.0,0.0,14.6215,0.0,0,0,0,0,0,0,0,0,0,1,37
43868000,42868000,4e+06,1.0,0.0209163,26.8486,0.0,190,191,6,0,0,2,0,0,1,1,43
43876000,43872000,4e+06,1.0,0.0209163,26.8486,0.0,190,191,6,0,0,2,0,0,1,1,43
44000000,0,4e+06,1.0,0.0,14.6106,0.0,0,0,0,0,0,0,0,0,0,1,37
44876000,44872000,4e+06,1.0,0.0209163,26.8645,0.0,190,191,6,0,0,2,0,0,1,1,43
45000000,0,4e+06,1.0,0.0,14.5946,0.0,0,0,0,0,0,0,0,0,0,1,37
45876000,44872000,4e+06,1.0,0.0209163,26.8835,0.0,190,191,6,0,0,2,0,0,1,1,43
46000000,0,4e+06,1.0,0.0,14.5707,0.0,0,0,0,0,0,0,0,0,0,1,37
46876000,45876000,4e+06,1.0,0.0209163,27.0747,0.0,190,191,6,0,0,2,0,0,1,1,43
47000000,0,4e+06,1.0,0.0,14.6733,0.0,0,0,0,0,0,0,0,0,0,1,37
47876000,46876000,4e+06,1.0,0.0209163,26.9183,0.0,190,191,6,0,0,2,0,0,1,1,43
47884000,47880000,4e+06,1.0,0.0209163,26.9183,0.0,190,191,6,0,0,2,0,0,1,1,43
48000000,0,4e+06,1.0,0.0,14.6424,0.0,0,0,0,0,0,0,0,0,0,1,37
48884000,48880000,4e+06,1.0,0.0209163,26.7809,0.0,190,191,6,0,0,2,0,0,1,1,43
49000000,0,4e+06,1.0,0.0,14.5896,0.0,0,0,0,0,0,0,0,0,0,1,37
49884000,49880000,4e+06,1.0,0.0209163,26.8048,0.0,190,191,6,0,0,2,0,0,1,1,43
50000000,0,4e+06,1.0,0.0,14.6155,0.0,0,0,0,0,0,0,0,0,0,1,37
50884000,49880000,4e+06,1.0,0.0209163,26.8157,0.0,190,191,6,0,0,2,0,0,1,1,43
51000000,0,4e+06,1.0,0.0,14.5717,0.0,0,0,0,0,0,0,0,0,0,1,37
51884000,50884000,4e+06,1.0,0.0209163,27.0757,0.0,190,191,6,0,0,2,0,0,1,1,43
51892000,51888000,4e+06,1.0,0.0209163,27.0757,0.0,190,191,6,0,0,2,0,0,1,1,43
52000000,0,4e+06,1.0,0.0,14.6942,0.0,0,0,0,0,0,0,0,0,0,1,37
52892000,51888000,4e+06,1.0,0.0209163,26.9422,0.0,190,191,6,0,0,2,0,0,1,1,43
53000000,0,4e+06,1.0,0.0,14.6215,0.0,0,0,0,0,0,0,0,0,0,1,37
53892000,52892000,4e+06,1.0,0.0209163,26.8486,0.0,190,191,6,0,0,2,0,0,1,1,43
54000000,0,4e+06,1.0,0.0,14.6106,0.0,0,0,0,0,0,0,0,0,0,1,37
54892000,53892000,4e+06,1.0,0.0209163,27.0329,0.0,190,191,6,0,0,2,0,0,1,1,43
54900000,54896000,4e+06,1.0,0.0209163,27.0329,0.0,190,191,6,0,0,2,0,0,1,1,43
55000000,0,4e+06,1.0,0.0,14.5946,0.0,0,0,0,0,0,0,0,0,0,1,37
55900000,54896000,4e+06,1.0,0.0209163,26.8835,0.0,190,191,6,0,0,2,0,0,1,1,43
56000000,0,4e+06,1.0,0.0,14.5707,0.0,0,0,0,0,0,0,0,0,0,1,37
56900000,55900000,4e+06,1.0,0.0209163,26.7709,0.0,190,191,6,0,0,2,0,0,1,1,43
57000000,0,4e+06,1.0,0.0,14.6733,0.0,0,0,0,0,0,0,0,0,0,1,37
57900000,56900000,4e+06,1.0,0.0209163,26.9183,0.0,190,191,6,0,0,2,0,0,1,1,43
57908000,57904000,4e+06,1.0,0.0209163,26.9183,0.0,190,191,6,0,0,2,0,0,1,1,43
58000000,0,4e+06,1.0,0.0,14.6424,0.0,0,0,0,0,0,0,0,0,0,1,37
58908000,57904000,4e+06,1.0,0.0209163,26.7809,0.0,190,191,6,0,0,2,0,0,1,1,43
59000000,0,4e+06,1.0,0.0,14.5896,0.0,0,0,0,0,0,0,0,0,0,1,37
59908000,58908000,4e+06,1.0,0.0209163,26.8048,0.0,190,191,6,0,0,2,0,0,1,1,43
59916000,59912000,4e+06,1.0,0.0209163,26.8048,0.0,190,191,6,0,0,2,0,0,1,1,43
60000000,0,4e+06,1.0,0.0,14.6155,0.0,0,0,0,0,0,0,0,0,0,1,37
60916000,60916000,4e+06,1.0,0.0209163,26.8157,0.0,190,191,6,0,0,2,0,0,1,1,43
61000000,0,4e+06,1.0,0.0,14.5717,0.0,0,0,0,0,0,0,0,0,0,1,37
61916000,60916000,4e+06,1.0,0.0209163,26.8785,0.0,190,191,6,0,0,2,0,0,1,1,43
62000000,0,4e+06,1.0,0.0,14.6942,0.0,0,0,0,0,0,0,0,0,0,1,37
62916000,61916000,4e+06,1.0,0.0209163,27.0916,0.0,190,191,6,0,0,2,0,0,1,1,43
62924000,62920000,4e+06,1.0,0.0209163,27.0916,0.0,190,191,6,0,0,2,0,0,1,1,43
63000000,0,4e+06,1.0,0.0,14.6215,0.0,0,0,0,0,0,0,0,0,0,1,37
63924000,62920000,4e+06,1.0,0.0209163,26.8486,0.0,190,191,6,0,0,2,0,0,1,1,43
64000000,0,4e+06,1.0,0.0,14.6106,0.0,0,0,0,0,0,0,0,0,0,1,37
64924000,63924000,4e+06,1.0,0.0209163,26.737,0.0,190,191,6,0,0,2,0,0,1,1,43
65000000,0,4e+06,1.0,0.0,14.6225,0.0,0,0,0,0,0,0,0,0,0,1,37
65924000,63924000,4e+06,1.0,0.108566,26.9054,0.0,190,191,6,0,0,2,0,0,1,1,43
66000000,0,4e+06,1.0,0.0,14.5817,0.0,0,0,0,0,0,0,0,0,0,1,37
66924000,63924000,4e+06,1.0,0.0,26.7719,0.0,190,191,6,0,0,2,0,0,1,1,43
67000000,0,4e+06,1.0,0.0,14.6733,0.0,0,0,0,0,0,0,0,0,0,1,37
67924000,63924000,4e+06,1.0,0.0,26.9193,0.0,190,191,6,0,0,2,0,0,1,1,43
68000000,0,4e+06,1.0,0.0,14.6424,0.0,0,0,0,0,0,0,0,0,0,1,37
68924000,63924000,4e+06,1.0,0.0,26.7819,0.0,190,191,6,0,0,2,0,0,1,1,43
69000000,0,4e+06,1.0,0.0,14.5896,0.0,0,0,0,0,0,0,0,0,0,1,37
69572000,69568000,4e+06,1.0,0.0438247,27.0269,0.0,190,191,6,0,0,2,0,0,1,1,43
70000000,0,4e+06,1.0,0.0,14.6265,0.0,0,0,0,0,0,0,0,0,0,1,37
70572000,70568000,4e+06,1.0,0.170319,26.9861,0.0,190,191,6,0,0,2,0,0,1,1,43
71000000,0,4e+06,1.0,0.0,14.5827,0.0,0,0,0,0,0,0,0,0,0,1,37
71572000,70568000,4e+06,1.0,0.0209163,27.1434,0.0,190,191,6,0,0,2,0,0,1,1,43
72000000,0,4e+06,1.0,0.0,14.6942,0.0,0,0,0,0,0,0,0,0,0,1,37
72572000,71572000,4e+06,1.0,1.1006,26.8735,0.0,190,191,6,0,0,2,0,0,1,1,43
73000000,0,4e+06,1.0,0.0,14.6325,0.0,0,0,0,0,0,0,0,0,0,1,37
73572000,72572000,4e+06,1.0,1.31574,26.8874,0.0,190,191,6,0,0,2,0,0,1,1,43
73580000,73576000,4e+06,1.0,1.31574,26.8874,0.0,190,191,6,0,0,2,0,0,1,1,43
74000000,0,4e+06,1.0,0.0,14.6106,0.0,0,0,0,0,0,0,0,0,0,1,37
74580000,74576000,4e+06,1.0,1.31574,26.745,0.0,190,191,6,0,0,2,0,0,1,1,43
75000000,0,4e+06,1.0,0.0,14.5498,0.0,0,0,0,0,0,0,0,0,0,1,37
75580000,75576000,4e+06,1.0,1.31574,26.8855,0.0,190,191,6,0,0,2,0,0,1,1,43
76000000,0,4e+06,1.0,0.0,14.6155,0.0,0,0,0,0,0,0,0,0,0,1,37
76580000,76576000,4e+06,1.0,1.31574,26.9353,0.0,190,191,6,0,0,2,0,0,1,1,43
77000000,0,4e+06,1.0,0.0,14.6733,0.0,0,0,0,0,0,0,0,0,0,1,37
77580000,77576000,4e+06,1.0,1.31574,27.0229,0.0,190,191,6,0,0,2,0,0,1,1,43
78000000,0,4e+06,1.0,0.0,14.6424,0.0,0,0,0,0,0,0,0,0,0,1,37
78580000,77576000,4e+06,1.0,1.31574,26.7619,0.0,190,191,6,0,0,2,0,0,1,1,43
79000000,0,4e+06,1.0,0.0,14.5896,0.0,0,0,0,0,0,0,0,0,0,1,37
79580000,78580000,4e+06,1.0,1.31574,27.1295,0.0,190,191,6,0,0,2,0,0,1,1,43
79588000,79584000,4e+06,1.0,1.31574,27.1295,0.0,190,191,6,0,0,2,0,0,1,1,43
80000000,0,4e+06,1.0,0.0,14.6155,0.0,0,0,0,0,0,0,0,0,0,1,37
80588000,80584000,4e+06,1.0,1.31574,26.7729,0.0,190,191,6,0,0,2,0,0,1,1,43
81000000,0,4e+06,1.0,0.0,14.5717,0.0,0,0,0,0,0,0,0,0,0,1,37
81588000,80584000,4e+06,1.0,1.38048,26.8287,0.0,190,191,6,0,0,2,0,0,1,1,43
82000000,0,4e+06,1.0,0.0,14.6942,0.0,0,0,0,0,0,0,0,0,0,1,37
82588000,81588000,4e+06,1.0,1.31574,26.8576,0.0,190,191,6,0,0,2,0,0,1,1,43
83000000,0,4e+06,1.0,0.0,14.6215,0.0,0,0,0,0,0,0,0,0,0,1,37
83588000,82588000,4e+06,1.0,1.31574,26.8098,0.0,190,191,6,0,0,2,0,0,1,1,43
83600000,83596000,4e+06,1.0,1.31574,26.8098,0.0,190,191,6,0,0,2,0,0,1,1,43
84000000,0,4e+06,1.0,0.0,14.6106,0.0,0,0,0,0,0,0,0,0,0,1,37
84600000,84596000,4e+06,1.0,1.31574,26.742,0.0,190,191,6,0,0,2,0,0,1,1,43
85000000,0,4e+06,1.0,0.0,14.5946,0.0,0,0,0,0,0,0,0,0,0,1,37
85600000,84596000,4e+06,1.0,1.31574,26.8576,0.0,190,191,6,0,0,2,0,0,1,1,43
86000000,0,4e+06,1.0,0.0,14.5707,0.0,0,0,0,0,0,0,0,0,0,1,37
86600000,85600000,4e+06,1.0,1.31574,26.753,0.0,190,191,6,0,0,2,0,0,1,1,43
87000000,0,4e+06,1.0,0.0,14.6733,0.0,0,0,0,0,0,0,0,0,0,1,37
87600000,86600000,4e+06,1.0,1.31574,27.1823,0.0,190,191,6,0,0,2,0,0,1,1,43
87612000,87608000,4e+06,1.0,1.31574,27.1823,0.0,190,191,6,0,0,2,0,0,1,1,43
88000000,0,4e+06,1.0,0.0,14.7122,0.0,0,0,0,0,0,0,0,0,0,1,37
88612000,87608000,4e+06,1.0,1.31574,26.8048,0.0,190,191,6,0,0,2,0,0,1,1,43
88624000,88620000,4e+06,1.0,1.31574,26.8048,0.0,190,191,6,0,0,2,0,0,1,1,43
89000000,0,4e+06,1.0,0.0,14.5199,0.0,0,0,0,0,0,0,0,0,0,1,37
89624000,89620000,4e+06,1.0,1.31574,26.8207,0.0,190,191,6,0,0,2,0,0,1,1,43
90000000,0,4e+06,1.0,0.0,14.6853,0.0,0,0,0,0,0,0,0,0,0,1,37
90624000,89620000,4e+06,1.0,1.31574,26.7908,0.0,190,191,6,0,0,2,0,0,1,1,43
90632000,90628000,4e+06,1.0,1.31574,26.7908,0.0,190,191,6,0,0,2,0,0,1,1,43
91000000,0,4e+06,1.0,0.0,14.502,0.0,0,0,0,0,0,0,0,0,0,1,37
91632000,90628000,4e+06,1.0,1.31574,26.8725,0.0,190,191,6,0,0,2,0,0,1,1,43
91640000,91636000,4e+06,1.0,1.31574,26.8725,0.0,190,191,6,0,0,2,0,0,1,1,43
92000000,0,4e+06,1.0,0.0,14.7639,0.0,0,0,0,0,0,0,0,0,0,1,37
92640000,91636000,4e+06,1.0,1.38048,26.8576,0.0,190,191,6,0,0,2,0,0,1,1,43
92652000,92648000,4e+06,1.0,1.38048,26.8576,0.0,190,191,6,0,0,2,0,0,1,1,43
93000000,0,4e+06,1.0,0.0,14.5518,0.0,0,0,0,0,0,0,0,0,0,1,37
93652000,92648000,4e+06,1.0,1.31574,26.8795,0.0,190,191,6,0,0,2,0,0,1,1,43
93660000,93656000,4e+06,1.0,1.31574,26.8795,0.0,190,191,6,0,0,2,0,0,1,1,43
94000000,0,4e+06,1.0,0.0,14.6803,0.0,0,0,0,0,0,0,0,0,0,1,37
94660000,93656000,4e+06,1.0,1.31574,26.8924,0.0,190,191,6,0,0,2,0,0,1,1,43
95000000,0,4e+06,1.0,0.0,14.5249,0.0,0,0,0,0,0,0,0,0,0,1,37
95660000,94660000,4e+06,1.0,1.31574,27.1125,0.0,190,191,6,0,0,2,0,0,1,1,43
95668000,95664000,4e+06,1.0,1.31574,27.1125,0.0,190,191,6,0,0,2,0,0,1,1,43
96000000,0,4e+06,1.0,0.0,14.6404,0.0,0,0,0,0,0,0,0,0,0,1,37
96668000,96664000,4e+06,1.0,1.31574,26.8347,0.0,190,191,6,0,0,2,0,0,1,1,43
97000000,0,4e+06,1.0,0.0,14.6036,0.0,0,0,0,0,0,0,0,0,0,1,37
97668000,96664000,4e+06,1.0,1.31574,26.9133,0.0,190,191,6,0,0,2,0,0,1,1,43
97676000,97672000,4e+06,1.0,1.31574,26.9133,0.0,190,191,6,0,0,2,0,0,1,1,43
98000000,0,4e+06,1.0,0.0,14.752,0.0,0,0,0,0,0,0,0,0,0,1,37
98676000,98672000,4e+06,1.0,1.31574,26.749,0.0,190,191,6,0,0,2,0,0,1,1,43
99000000,0,4e+06,1.0,0.0,14.5199,0.0,0,0,0,0,0,0,0,0,0,1,37
99676000,99672000,4e+06,1.0,1.31574,26.7888,0.0,190,191,6,0,0,2,0,0,1,1,43
100000000,0,4e+06,1.0,0.0,14.6853,0.0,0,0,0,0,0,0,0,0,0,1,37
100676000,100676000,4e+06,1.0,1.31574,26.8177,0.0,190,191,6,0,0,2,0,0,1,1,43
101000000,0,4e+06,1.0,0.0,14.502,0.0,0,0,0,0,0,0,0,0,0,1,37
101676000,100676000,4e+06,1.0,1.31574,27.0408,0.0,190,191,6,0,0,2,0,0,1,1,43
101684000,101680000,4e+06,1.0,1.31574,27.0408,0.0,190,191,6,0,0,2,0,0,1,1,43
102000000,0,4e+06,1.0,0.0,14.7639,0.0,0,0,0,0,0,0,0,0,0,1,37
102684000,101680000,4e+06,1.0,1.31574,26.9223,0.0,190,191,6,0,0,2,0,0,1,1,43
103000000,0,4e+06,1.0,0.0,14.5518,0.0,0,0,0,0,0,0,0,0,0,1,37
103684000,102684000,4e+06,1.0,1.38048,26.2849,0.0,190,191,6,0,0,2,0,0,1,1,43
104000000,0,4e+06,1.0,0.0,14.6215,0.0,0,0,0,0,0,0,0,0,0,1,37
104684000,103684000,4e+06,1.0,1.31574,26.4273,0.0,190,191,6,0,0,2,0,0,1,1,43
105000000,0,4e+06,1.0,0.0,14.4074,0.0,0,0,0,0,0,0,0,0,0,1,37
105684000,104684000,4e+06,1.0,1.31574,26.2649,0.0,190,191,6,0,0,2,0,0,1,1,43
105692000,105688000,4e+06,1.0,1.31574,26.2649,0.0,190,191,6,0,0,2,0,0,1,1,43
106000000,0,4e+06,1.0,0.0,14.5817,0.0,0,0,0,0,0,0,0,0,0,1,37
106692000,106688000,4e+06,1.0,1.31574,26.1922,0.0,190,191,6,0,0,2,0,0,1,1,43
107000000,0,4e+06,1.0,0.0,14.4861,0.0,0,0,0,0,0,0,0,0,0,1,37
107692000,107688000,4e+06,1.0,1.31574,26.3197,0.0,190,191,6,0,0,2,0,0,1,1,43
108000000,0,4e+06,1.0,0.0,14.6534,0.0,0,0,0,0,0,0,0,0,0,1,37
108688000,108688000,4e+06,1.0,1.31574,26.2042,0.0,190,191,6,0,0,2,0,0,1,1,43
109000000,0,4e+06,1.0,0.0,14.4024,0.0,0,0,0,0,0,0,0,0,0,1,37
109688000,108688000,4e+06,1.0,1.31574,26.2281,0.0,190,191,6,0,0,2,0,0,1,1,43
110000000,0,4e+06,1.0,0.0,14.6265,0.0,0,0,0,0,0,0,0,0,0,1,37
110688000,109688000,4e+06,1.0,1.38048,26.2799,0.0,190,191,6,0,0,2,0,0,1,1,43
111000000,0,4e+06,1.0,0.0,14.3845,0.0,0,0,0,0,0,0,0,0,0,1,37
111688000,110688000,4e+06,1.0,1.31574,26.2619,0.0,190,191,6,0,0,2,0,0,1,1,43
112000000,0,4e+06,1.0,0.0,14.7052,0.0,0,0,0,0,0,0,0,0,0,1,37
112688000,111688000,4e+06,1.0,1.31574,26.5149,0.0,190,191,6,0,0,2,0,0,1,1,43
113000000,0,4e+06,1.0,0.0,14.4343,0.0,0,0,0,0,0,0,0,0,0,1,37
113688000,112688000,4e+06,1.0,1.31574,26.2719,0.0,190,191,6,0,0,2,0,0,1,1,43
114000000,0,4e+06,1.0,0.0,14.6215,0.0,0,0,0,0,0,0,0,0,0,1,37
114688000,113688000,4e+06,1.0,1.31574,26.1604,0.0,190,191,6,0,0,2,0,0,1,1,43
114696000,114692000,4e+06,1.0,1.31574,26.1604,0.0,190,191,6,0,0,2,0,0,1,1,43
115000000,0,4e+06,1.0,0.0,14.4074,0.0,0,0,0,0,0,0,0,0,0,1,37
115696000,115692000,4e+06,1.0,1.31574,26.3078,0.0,190,191,6,0,0,2,0,0,1,1,43
116000000,0,4e+06,1.0,0.0,14.5817,0.0,0,0,0,0,0,0,0,0,0,1,37
116696000,116692000,4e+06,1.0,1.31574,26.1942,0.0,190,191,6,0,0,2,0,0,1,1,43
117000000,0,4e+06,1.0,0.0,14.4861,0.0,0,0,0,0,0,0,0,0,0,1,37
117696000,116692000,4e+06,1.0,1.31574,26.3416,0.0,190,191,6,0,0,2,0,0,1,1,43
118000000,0,4e+06,1.0,0.0,14.6534,0.0,0,0,0,0,0,0,0,0,0,1,37
118696000,117696000,4e+06,1.0,1.31574,26.2042,0.0,190,191,6,0,0,2,0,0,1,1,43
119000000,0,4e+06,1.0,0.0,14.4024,0.0,0,0,0,0,0,0,0,0,0,1,37
119696000,118696000,4e+06,1.0,1.31574,26.3556,0.0,190,191,6,0,0,2,0,0,1,1,43
120000000,0,4e+06,1.0,0.0,14.6265,0.0,0,0,0,0,0,0,0,0,0,1,37
120696000,119696000,4e+06,1.0,1.31574,26.4811,0.0,190,191,6,0,0,2,0,0,1,1,43
121000000,0,4e+06,1.0,0.0,14.3845,0.0,0,0,0,0,0,0,0,0,0,1,37
121696000,120696000,4e+06,1.0,1.31574,26.3247,0.0,190,191,6,0,0,2,0,0,1,1,43
122000000,0,4e+06,1.0,0.0,14.7052,0.0,0,0,0,0,0,0,0,0,0,1,37
122696000,121696000,4e+06,1.0,1.38048,26.2739,0.0,190,191,6,0,0,2,0,0,1,1,43
122700000,122700000,4e+06,1.0,1.38048,26.2739,0.0,190,191,6,0,0,2,0,0,1,1,43
123000000,0,4e+06,1.0,0.0,14.4343,0.0,0,0,0,0,0,0,0,0,0,1,37
123700000,122700000,4e+06,1.0,1.31574,26.2719,0.0,190,191,6,0,0,2,0,0,1,1,43
124000000,0,4e+06,1.0,0.0,14.6215,0.0,0,0,0,0,0,0,0,0,0,1,37
124700000,123700000,4e+06,1.0,1.31574,26.1604,0.0,190,191,6,0,0,2,0,0,1,1,43
125000000,0,4e+06,1.0,0.0,14.4074,0.0,0,0,0,0,0,0,0,0,0,1,37
125700000,124700000,4e+06,1.0,1.31574,26.3078,0.0,190,191,6,0,0,2,0,0,1,1,43
126000000,0,4e+06,1.0,0.0,14.5817,0.0,0,0,0,0,0,0,0,0,0,1,37
126700000,125700000,4e+06,1.0,1.31574,26.3187,0.0,190,191,6,0,0,2,0,0,1,1,43
126708000,126704000,4e+06,1.0,1.31574,26.3187,0.0,190,191,6,0,0,2,0,0,1,1,43
127000000,0,4e+06,1.0,0.0,14.5139,0.0,0,0,0,0,0,0,0,0,0,1,37
127708000,127704000,4e+06,1.0,1.31574,26.4333,0.0,190,191,6,0,0,2,0,0,1,1,43
128000000,0,4e+06,1.0,0.0,14.6534,0.0,0,0,0,0,0,0,0,0,0,1,37
128708000,128704000,4e+06,1.0,1.31574,26.2042,0.0,190,191,6,0,0,2,0,0,1,1,43
129000000,0,4e+06,1.0,0.0,14.4024,0.0,0,0,0,0,0,0,0,0,0,1,37
129708000,129704000,4e+06,1.0,1.31574,26.5239,0.0,190,191,6,0,0,2,0,0,1,1,43
130000000,0,4e+06,1.0,0.0,14.6265,0.0,0,0,0,0,0,0,0,0,0,1,37
130708000,129704000,4e+06,1.0,1.31574,26.24,0.0,190,191,6,0,0,2,0,0,1,1,43
131000000,0,4e+06,1.0,0.0,14.3845,0.0,0,0,0,0,0,0,0,0,0,1,37
131708000,130708000,4e+06,1.0,1.38048,26.2619,0.0,190,191,6,0,0,2,0,0,1,1,43
132000000,0,4e+06,1.0,0.0,14.7052,0.0,0,0,0,0,0,0,0,0,0,1,37
132708000,131708000,4e+06,1.0,1.31574,26.243,0.0,190,191,6,0,0,2,0,0,1,1,43
132716000,132712000,4e+06,1.0,1.31574,26.243,0.0,190,191,6,0,0,2,0,0,1,1,43
133000000,0,4e+06,1.0,0.0,14.4343,0.0,0,0,0,0,0,0,0,0,0,1,37
133716000,132712000,4e+06,1.0,887.62,26.245,0.0,190,191,6,0,0,2,0,0,1,1,43
134000000,0,4e+06,1.0,0.0,14.6215,0.0,0,0,0,0,0,0,0,0,0,1,37
134716000,133716000,4e+06,1.0,13042.7,26.1584,0.0,190,191,6,0,0,2,0,0,1,1,43
134728000,134724000,4e+06,1.0,13042.7,26.1584,0.0,190,191,6,0,0,2,0,0,1,1,43
135000000,0,4e+06,1.0,0.0,14.4074,0.0,0,0,0,0,0,0,0,0,0,1,37
135728000,134724000,4e+06,1.0,13336.6,26.3446,0.0,190,191,6,0,0,2,0,0,1,1,43
135736000,135736000,4e+06,1.0,13336.6,26.3446,0.0,190,191,6,0,0,2,0,0,1,1,43
136000000,0,4e+06,1.0,0.0,14.5817,0.0,0,0,0,0,0,0,0,0,0,1,37
136736000,135736000,4e+06,1.0,12748.2,26.1942,0.0,190,191,6,0,0,2,0,0,1,1,43
136748000,136744000,4e+06,1.0,12748.2,26.1942,0.0,190,191,6,0,0,2,0,0,1,1,43
137000000,0,4e+06,1.0,0.0,14.4861,0.0,0,0,0,0,0,0,0,0,0,1,37
137748000,136744000,4e+06,1.0,10800.6,26.5827,0.0,190,191,6,0,0,2,0,0,1,1,43
137756000,137752000,4e+06,1.0,10800.6,26.5827,0.0,190,191,6,0,0,2,0,0,1,1,43
138000000,0,4e+06,1.0,0.0,14.6534,0.0,0,0,0,0,0,0,0,0,0,1,37
138756000,137752000,4e+06,1.0,11180.0,26.2042,0.0,190,191,6,0,0,2,0,0,1,1,43
138768000,138764000,4e+06,1.0,11180.0,26.2042,0.0,190,191,6,0,0,2,0,0,1,1,43
139000000,0,4e+06,1.0,0.0,14.4024,0.0,0,0,0,0,0,0,0,0,0,1,37
139768000,139764000,4e+06,1.0,10805.8,26.2281,0.0,190,191,6,0,0,2,0,0,1,1,43
140000000,0,4e+06,1.0,0.0,14.6265,0.0,0,0,0,0,0,0,0,0,0,1,37
140768000,139764000,4e+06,1.0,12308.5,26.24,0.0,190,191,6,0,0,2,0,0,1,1,43
140776000,140772000,4e+06,1.0,12308.5,26.24,0.0,190,191,6,0,0,2,0,0,1,1,43
141000000,0,4e+06,1.0,0.0,14.3845,0.0,0,0,0,0,0,0,0,0,0,1,37
141776000,140772000,4e+06,1.0,12102.7,26.2619,0.0,190,191,6,0,0,2,0,0,1,1,43
141784000,141780000,4e+06,1.0,12102.7,26.2619,0.0,190,191,6,0,0,2,0,0,1,1,43
142000000,0,4e+06,1.0,0.0,14.7052,0.0,0,0,0,0,0,0,0,0,0,1,37
142784000,141780000,4e+06,1.0,11721.7,26.2739,0.0,190,191,6,0,0,2,0,0,1,1,43
142792000,142788000,4e+06,1.0,11721.7,26.2739,0.0,190,191,6,0,0,2,0,0,1,1,43
143000000,0,4e+06,1.0,0.0,14.4343,0.0,0,0,0,0,0,0,0,0,0,1,37
143792000,142788000,4e+06,1.0,11414.0,26.2719,0.0,190,191,6,0,0,2,0,0,1,1,43
143804000,143800000,4e+06,1.0,11414.0,26.2719,0.0,190,191,6,0,0,2,0,0,1,1,43
144000000,0,4e+06,1.0,0.0,14.6215,0.0,0,0,0,0,0,0,0,0,0,1,37
144804000,143800000,4e+06,1.0,12288.8,26.2878,0.0,190,191,6,0,0,2,0,0,1,1,43
144812000,144808000,4e+06,1.0,12288.8,26.2878,0.0,190,191,6,0,0,2,0,0,1,1,43
145000000,0,4e+06,1.0,0.0,14.3625,0.0,0,0,0,0,0,0,0,0,0,1,37
145812000,144808000,4e+06,1.0,12284.1,26.5488,0.0,190,191,6,0,0,2,0,0,1,1,43
145820000,145820000,4e+06,1.0,12284.1,26.5488,0.0,190,191,6,0,0,2,0,0,1,1,43
146000000,0,4e+06,1.0,0.0,14.6265,0.0,0,0,0,0,0,0,0,0,0,1,37
146820000,145820000,4e+06,1.0,12131.2,26.257,0.0,190,191,6,0,0,2,0,0,1,1,43
146832000,146828000,4e+06,1.0,12131.2,26.257,0.0,190,191,6,0,0,2,0,0,1,1,43
147000000,0,4e+06,1.0,0.0,14.4861,0.0,0,0,0,0,0,0,0,0,0,1,37
147832000,146828000,4e+06,1.0,1744.79,26.3416,0.0,190,191,6,0,0,2,0,0,1,1,43
148000000,0,4e+06,1.0,0.0,14.6534,0.0,0,0,0,0,0,0,0,0,0,1,37
148832000,147832000,4e+06,1.0,1.31574,26.01,0.0,190,191,6,0,0,2,0,0,1,1,43
148840000,148836000,4e+06,1.0,1.31574,26.01,0.0,190,191,6,0,0,2,0,0,1,1,43
149000000,0,4e+06,1.0,0.0,14.4024,0.0,0,0,0,0,0,0,0,0,0,1,37
149840000,148836000,4e+06,1.0,10800.2,26.2201,0.0,190,191,6,0,0,2,0,0,1,1,43
149848000,149844000,4e+06,1.0,10800.2,26.2201,0.0,190,191,6,0,0,2,0,0,1,1,43
150000000,0,4e+06,1.0,0.0,14.6265,0.0,0,0,0,0,0,0,0,0,0,1,37
150848000,149844000,4e+06,1.0,13472.0,26.24,0.0,190,191,6,0,0,2,0,0,1,1,43
151000000,0,4e+06,1.0,0.0,14.3845,0.0,0,0,0,0,0,0,0,0,0,1,37
151848000,150848000,4e+06,1.0,13544.9,26.4363,0.0,190,191,6,0,0,2,0,0,1,1,43
151860000,151856000,4e+06,1.0,13544.9,26.4363,0.0,190,191,6,0,0,2,0,0,1,1,43
152000000,0,4e+06,1.0,0.0,14.7052,0.0,0,0,0,0,0,0,0,0,0,1,37
152860000,151856000,4e+06,1.0,12029.8,26.3655,0.0,190,191,6,0,0,2,0,0,1,1,43
152872000,152868000,4e+06,1.0,12029.8,26.3655,0.0,190,191,6,0,0,2,0,0,1,1,43
153000000,0,4e+06,1.0,0.0,14.4343,0.0,0,0,0,0,0,0,0,0,0,1,37
153872000,152868000,4e+06,1.0,11733.0,26.2719,0.0,190,191,6,0,0,2,0,0,1,1,43
153880000,153876000,4e+06,1.0,11733.0,26.2719,0.0,190,191,6,0,0,2,0,0,1,1,43
154000000,0,4e+06,1.0,0.0,14.6215,0.0,0,0,0,0,0,0,0,0,0,1,37
154880000,153876000,4e+06,1.0,12086.7,26.4562,0.0,190,191,6,0,0,2,0,0,1,1,43
154892000,154888000,4e+06,1.0,12086.7,26.4562,0.0,190,191,6,0,0,2,0,0,1,1,43
155000000,0,4e+06,1.0,0.0,14.4074,0.0,0,0,0,0,0,0,0,0,0,1,37
155892000,155888000,4e+06,1.0,12014.0,26.3078,0.0,190,191,6,0,0,2,0,0,1,1,43
156000000,0,4e+06,1.0,0.0,14.5817,0.0,0,0,0,0,0,0,0,0,0,1,37
156892000,155888000,4e+06,1.0,12092.9,26.2619,0.0,190,191,6,0,0,2,0,0,1,1,43
156900000,156896000,4e+06,1.0,12092.9,26.2619,0.0,190,191,6,0,0,2,0,0,1,1,43
157000000,0,4e+06,1.0,0.0,14.5458,0.0,0,0,0,0,0,0,0,0,0,1,37
157900000,156896000,4e+06,1.0,11649.5,26.2739,0.0,190,191,6,0,0,2,0,0,1,1,43
157908000,157904000,4e+06,1.0,11649.5,26.2739,0.0,190,191,6,0,0,2,0,0,1,1,43
158000000,0,4e+06,1.0,0.0,14.5936,0.0,0,0,0,0,0,0,0,0,0,1,37
158908000,157904000,4e+06,1.0,11548.5,26.2719,0.0,190,191,6,0,0,2,0,0,1,1,43
158916000,158916000,4e+06,1.0,11548.5,26.2719,0.0,190,191,6,0,0,2,0,0,1,1,43
159000000,0,4e+06,1.0,0.0,14.4622,0.0,0,0,0,0,0,0,0,0,0,1,37
159916000,158916000,4e+06,1.0,11625.2,26.1604,0.0,190,191,6,0,0,2,0,0,1,1,43
159928000,159924000,4e+06,1.0,11625.2,26.1604,0.0,190,191,6,0,0,2,0,0,1,1,43
160000000,0,4e+06,1.0,0.0,14.5667,0.0,0,0,0,0,0,0,0,0,0,1,37
160928000,159924000,4e+06,1.0,11215.2,26.3476,0.0,190,191,6,0,0,2,0,0,1,1,43
160936000,160932000,4e+06,1.0,11215.2,26.3476,0.0,190,191,6,0,0,2,0,0,1,1,43
161000000,0,4e+06,1.0,0.0,14.4442,0.0,0,0,0,0,0,0,0,0,0,1,37
161936000,160932000,4e+06,1.0,11837.6,26.1942,0.0,190,191,6,0,0,2,0,0,1,1,43
161944000,161940000,4e+06,1.0,11837.6,26.1942,0.0,190,191,6,0,0,2,0,0,1,1,43
162000000,0,4e+06,1.0,0.0,14.6454,0.0,0,0,0,0,0,0,0,0,0,1,37
162944000,161940000,4e+06,1.0,11936.8,26.5827,0.0,190,191,6,0,0,2,0,0,1,1,43
162956000,162952000,4e+06,1.0,11936.8,26.5827,0.0,190,191,6,0,0,2,0,0,1,1,43
163000000,0,4e+06,1.0,0.0,14.494,0.0,0,0,0,0,0,0,0,0,0,1,37
163956000,162952000,4e+06,1.0,11395.0,26.2042,0.0,190,191,6,0,0,2,0,0,1,1,43
163964000,163960000,4e+06,1.0,11395.0,26.2042,0.0,190,191,6,0,0,2,0,0,1,1,43
164000000,0,4e+06,1.0,0.0,14.5618,0.0,0,0,0,0,0,0,0,0,0,1,37
164964000,163960000,4e+06,1.0,11911.3,26.2191,0.0,190,191,6,0,0,2,0,0,1,1,43
165000000,0,4e+06,1.0,0.0,14.4671,0.0,0,0,0,0,0,0,0,0,0,1,37
165964000,164964000,4e+06,1.0,11619.7,26.1713,0.0,190,191,6,0,0,2,0,0,1,1,43
165976000,165972000,4e+06,1.0,11619.7,26.1713,0.0,190,191,6,0,0,2,0,0,1,1,43
166000000,0,4e+06,1.0,0.0,14.5219,0.0,0,0,0,0,0,0,0,0,0,1,37
166976000,165972000,4e+06,1.0,11942.3,26.2141,0.0,190,191,6,0,0,2,0,0,1,1,43
166984000,166980000,4e+06,1.0,11942.3,26.2141,0.0,190,191,6,0,0,2,0,0,1,1,43
167000000,0,4e+06,1.0,0.0,14.5458,0.0,0,0,0,0,0,0,0,0,0,1,37
167984000,166980000,4e+06,1.0,11402.0,26.2679,0.0,190,191,6,0,0,2,0,0,1,1,43
167996000,167992000,4e+06,1.0,11402.0,26.2679,0.0,190,191,6,0,0,2,0,0,1,1,43
168000000,0,4e+06,1.0,0.0,14.5936,0.0,0,0,0,0,0,0,0,0,0,1,37
168996000,167992000,4e+06,1.0,11687.1,26.2719,0.0,190,191,6,0,0,2,0,0,1,1,43
169000000,0,4e+06,1.0,0.0,14.4622,0.0,0,0,0,0,0,0,0,0,0,1,37
169004000,169000000,4e+06,1.0,11687.1,26.2719,0.0,190,191,6,0,0,2,0,0,1,1,43
170000000,0,4e+06,1.0,0.0,14.5667,0.0,0,0,0,0,0,0,0,0,0,1,37
170004000,169000000,4e+06,1.0,11505.8,26.2878,0.0,190,191,6,0,0,2,0,0,1,1,43
170012000,170008000,4e+06,1.0,11505.8,26.2878,0.0,190,191,6,0,0,2,0,0,1,1,43
171000000,0,4e+06,1.0,0.0,14.5139,0.0,0,0,0,0,0,0,0,0,0,1,37
171012000,170008000,4e+06,1.0,11464.4,26.5488,0.0,190,191,6,0,0,2,0,0,1,1,43
171020000,171016000,4e+06,1.0,11464.4,26.5488,0.0,190,191,6,0,0,2,0,0,1,1,43
172000000,0,4e+06,1.0,0.0,14.5757,0.0,0,0,0,0,0,0,0,0,0,1,37
172020000,171016000,4e+06,1.0,11607.9,26.257,0.0,190,191,6,0,0,2,0,0,1,1,43
172032000,172028000,4e+06,1.0,11607.9,26.257,0.0,190,191,6,0,0,2,0,0,1,1,43
173000000,0,4e+06,1.0,0.0,14.5637,0.0,0,0,0,0,0,0,0,0,0,1,37
173032000,172028000,4e+06,1.0,11583.4,26.3416,0.0,190,191,6,0,0,2,0,0,1,1,43
173040000,173036000,4e+06,1.0,11583.4,26.3416,0.0,190,191,6,0,0,2,0,0,1,1,43
174000000,0,4e+06,1.0,0.0,14.492,0.0,0,0,0,0,0,0,0,0,0,1,37
174040000,173036000,4e+06,1.0,11199.4,26.2042,0.0,190,191,6,0,0,2,0,0,1,1,43
174048000,174044000,4e+06,1.0,11199.4,26.2042,0.0,190,191,6,0,0,2,0,0,1,1,43
175000000,0,4e+06,1.0,0.0,14.5369,0.0,0,0,0,0,0,0,0,0,0,1,37
175048000,174044000,4e+06,1.0,11333.7,26.2281,0.0,190,191,6,0,0,2,0,0,1,1,43
175060000,175056000,4e+06,1.0,11333.7,26.2281,0.0,190,191,6,0,0,2,0,0,1,1,43
176000000,0,4e+06,1.0,0.0,14.4522,0.0,0,0,0,0,0,0,0,0,0,1,37
176060000,175056000,4e+06,1.0,11599.5,26.24,0.0,190,191,6,0,0,2,0,0,1,1,43
176068000,176064000,4e+06,1.0,11599.5,26.24,0.0,190,191,6,0,0,2,0,0,1,1,43
177000000,0,4e+06,1.0,0.0,14.6155,0.0,0,0,0,0,0,0,0,0,0,1,37
177068000,176064000,4e+06,1.0,11607.4,26.3456,0.0,190,191,6,0,0,2,0,0,1,1,43
177076000,177072000,4e+06,1.0,11607.4,26.3456,0.0,190,191,6,0,0,2,0,0,1,1,43
178000000,0,4e+06,1.0,0.0,14.5239,0.0,0,0,0,0,0,0,0,0,0,1,37
178076000,177072000,4e+06,1.0,23050.6,26.3655,0.0,190,191,6,0,0,2,0,0,1,1,43
178084000,178080000,4e+06,1.0,23050.6,26.3655,0.0,190,191,6,0,0,2,0,0,1,1,43
179000000,0,4e+06,1.0,0.0,14.5319,0.0,0,0,0,0,0,0,0,0,0,1,37
179084000,178080000,4e+06,1.0,11574.0,26.2719,0.0,190,191,6,0,0,2,0,0,1,1,43
179092000,179092000,4e+06,1.0,11574.0,26.2719,0.0,190,191,6,0,0,2,0,0,1,1,43
180000000,0,4e+06,1.0,0.0,14.497,0.0,0,0,0,0,0,0,0,0,0,1,37
180092000,179092000,4e+06,1.0,11416.2,26.4562,0.0,190,191,6,0,0,2,0,0,1,1,43
180104000,180100000,4e+06,1.0,11416.2,26.4562,0.0,190,191,6,0,0,2,0,0,1,1,43
181000000,0,4e+06,1.0,0.0,14.5139,0.0,0,0,0,0,0,0,0,0,0,1,37
181104000,181100000,4e+06,1.0,11482.7,26.3078,0.0,190,191,6,0,0,2,0,0,1,1,43
182000000,0,4e+06,1.0,0.0,14.5757,0.0,0,0,0,0,0,0,0,0,0,1,37
182104000,181100000,4e+06,1.0,2039.49,26.1823,0.0,190,191,6,0,0,2,0,0,1,1,43
183000000,0,4e+06,1.0,0.0,14.5637,0.0,0,0,0,0,0,0,0,0,0,1,37
183104000,182104000,4e+06,1.0,1.31574,26.2649,0.0,190,191,6,0,0,2,0,0,1,1,43
183112000,183108000,4e+06,1.0,1.31574,26.2649,0.0,190,191,6,0,0,2,0,0,1,1,43
184000000,0,4e+06,1.0,0.0,14.6096,0.0,0,0,0,0,0,0,0,0,0,1,37
184112000,184112000,4e+06,1.0,1.31574,26.6384,0.0,190,191,6,0,0,2,0,0,1,1,43
185000000,0,4e+06,1.0,0.0,14.5956,0.0,0,0,0,0,0,0,0,0,0,1,37
185112000,184112000,4e+06,1.0,1.31574,26.8456,0.0,190,191,6,0,0,2,0,0,1,1,43
186000000,0,4e+06,1.0,0.0,14.5697,0.0,0,0,0,0,0,0,0,0,0,1,37
186112000,185112000,4e+06,1.0,1.31574,26.8974,0.0,190,191,6,0,0,2,0,0,1,1,43
187000000,0,4e+06,1.0,0.0,14.6743,0.0,0,0,0,0,0,0,0,0,0,1,37
187112000,186112000,4e+06,1.0,1.38048,26.8446,0.0,190,191,6,0,0,2,0,0,1,1,43
188000000,0,4e+06,1.0,0.0,14.6414,0.0,0,0,0,0,0,0,0,0,0,1,37
188112000,187112000,4e+06,1.0,1.31574,27.1285,0.0,190,191,6,0,0,2,0,0,1,1,43
189000000,0,4e+06,1.0,0.0,14.5906,0.0,0,0,0,0,0,0,0,0,0,1,37
189112000,188112000,4e+06,1.0,1.31574,26.9243,0.0,190,191,6,0,0,2,0,0,1,1,43
190000000,0,4e+06,1.0,0.0,14.6424,0.0,0,0,0,0,0,0,0,0,0,1,37
190112000,189112000,4e+06,1.0,1.31574,26.7799,0.0,190,191,6,0,0,2,0,0,1,1,43
190120000,190116000,4e+06,1.0,1.31574,26.7799,0.0,190,191,6,0,0,2,0,0,1,1,43
191000000,0,4e+06,1.0,0.0,14.5727,0.0,0,0,0,0,0,0,0,0,0,1,37
191116000,191112000,4e+06,1.0,1.31574,26.8974,0.0,190,191,6,0,0,2,0,0,1,1,43
192000000,0,4e+06,1.0,0.0,14.6932,0.0,0,0,0,0,0,0,0,0,0,1,37
192116000,192112000,4e+06,1.0,1.31574,26.7918,0.0,190,191,6,0,0,2,0,0,1,1,43
193000000,0,4e+06,1.0,0.0,14.6225,0.0,0,0,0,0,0,0,0,0,0,1,37
193116000,192112000,4e+06,1.0,1.31574,26.9522,0.0,190,191,6,0,0,2,0,0,1,1,43
193124000,193120000,4e+06,1.0,1.31574,26.9522,0.0,190,191,6,0,0,2,0,0,1,1,43
194000000,0,4e+06,1.0,0.0,14.6096,0.0,0,0,0,0,0,0,0,0,0,1,37
194124000,194124000,4e+06,1.0,1.31574,26.8018,0.0,190,191,6,0,0,2,0,0,1,1,43
195000000,0,4e+06,1.0,0.0,14.5956,0.0,0,0,0,0,0,0,0,0,0,1,37
195124000,194124000,4e+06,1.0,1.31574,26.9751,0.0,190,191,6,0,0,2,0,0,1,1,43
196000000,0,4e+06,1.0,0.0,14.511,0.0,0,0,0,0,0,0,0,0,0,1,37
196124000,195124000,4e+06,1.0,1.44522,26.9831,0.0,190,191,6,0,0,2,0,0,1,1,43
196132000,196128000,4e+06,1.0,1.44522,26.9831,0.0,190,191,6,0,0,2,0,0,1,1,43
197000000,0,4e+06,1.0,0.0,14.6155,0.0,0,0,0,0,0,0,0,0,0,1,37
197132000,196128000,4e+06,1.0,1.31574,26.3247,0.0,190,191,6,0,0,2,0,0,1,1,43
198000000,0,4e+06,1.0,0.0,14.5827,0.0,0,0,0,0,0,0,0,0,0,1,37
198132000,197132000,4e+06,1.0,1.31574,26.3994,0.0,190,191,6,0,0,2,0,0,1,1,43
198140000,198136000,4e+06,1.0,1.31574,26.3994,0.0,190,191,6,0,0,2,0,0,1,1,43
199000000,0,4e+06,1.0,0.0,14.5906,0.0,0,0,0,0,0,0,0,0,0,1,37
199140000,199136000,4e+06,1.0,1.31574,26.8964,0.0,190,191,6,0,0,2,0,0,1,1,43
200000000,0,4e+06,1.0,0.0,14.6145,0.0,0,0,0,0,0,0,0,0,0,1,37
200140000,200136000,4e+06,1.0,1.31574,26.752,0.0,190,191,6,0,0,2,0,0,1,1,43
201000000,0,4e+06,1.0,0.0,14.5727,0.0,0,0,0,0,0,0,0,0,0,1,37
201140000,200136000,4e+06,1.0,1.31574,26.8944,0.0,190,191,6,0,0,2,0,0,1,1,43
202000000,0,4e+06,1.0,0.0,14.6932,0.0,0,0,0,0,0,0,0,0,0,1,37
202140000,201140000,4e+06,1.0,1.31574,26.99,0.0,190,191,6,0,0,2,0,0,1,1,43
203000000,0,4e+06,1.0,0.0,14.7122,0.0,0,0,0,0,0,0,0,0,0,1,37
203140000,202140000,4e+06,1.0,1.31574,27.1056,0.0,190,191,6,0,0,2,0,0,1,1,43
204000000,0,4e+06,1.0,0.0,14.5199,0.0,0,0,0,0,0,0,0,0,0,1,37
204140000,203140000,4e+06,1.0,1.38048,26.7769,0.0,190,191,6,0,0,2,0,0,1,1,43
205000000,0,4e+06,1.0,0.0,14.6853,0.0,0,0,0,0,0,0,0,0,0,1,37
205140000,204140000,4e+06,1.0,1.31574,27.1843,0.0,190,191,6,0,0,2,0,0,1,1,43
206000000,0,4e+06,1.0,0.0,14.4801,0.0,0,0,0,0,0,0,0,0,0,1,37
206140000,205140000,4e+06,1.0,1.31574,26.8058,0.0,190,191,6,0,0,2,0,0,1,1,43
206148000,206144000,4e+06,1.0,1.31574,26.8058,0.0,190,191,6,0,0,2,0,0,1,1,43
207000000,0,4e+06,1.0,0.0,14.7639,0.0,0,0,0,0,0,0,0,0,0,1,37
207148000,207144000,4e+06,1.0,1.31574,26.8685,0.0,190,191,6,0,0,2,0,0,1,1,43
208000000,0,4e+06,1.0,0.0,14.5518,0.0,0,0,0,0,0,0,0,0,0,1,37
208148000,208144000,4e+06,1.0,1.31574,26.8416,0.0,190,191,6,0,0,2,0,0,1,1,43
209000000,0,4e+06,1.0,0.0,14.6803,0.0,0,0,0,0,0,0,0,0,0,1,37
209148000,209144000,4e+06,1.0,1.31574,26.8765,0.0,190,191,6,0,0,2,0,0,1,1,43
210000000,0,4e+06,1.0,0.0,14.4801,0.0,0,0,0,0,0,0,0,0,0,1,37
210148000,210144000,4e+06,1.0,1.31574,26.7689,0.0,190,191,6,0,0,2,0,0,1,1,43
211000000,0,4e+06,1.0,0.0,14.7072,0.0,0,0,0,0,0,0,0,0,0,1,37
211148000,211144000,4e+06,1.0,1.31574,26.9542,0.0,190,191,6,0,0,2,0,0,1,1,43
212000000,0,4e+06,1.0,0.0,14.6036,0.0,0,0,0,0,0,0,0,0,0,1,37
212148000,212144000,4e+06,1.0,1.31574,26.8217,0.0,190,191,6,0,0,2,0,0,1,1,43
213000000,0,4e+06,1.0,0.0,14.7122,0.0,0,0,0,0,0,0,0,0,0,1,37
213148000,212144000,4e+06,1.0,1.31574,27.2072,0.0,190,191,6,0,0,2,0,0,1,1,43
213160000,213156000,4e+06,1.0,1.31574,27.2072,0.0,190,191,6,0,0,2,0,0,1,1,43
214000000,0,4e+06,1.0,0.0,14.5199,0.0,0,0,0,0,0,0,0,0,0,1,37
214160000,214156000,4e+06,1.0,1.31574,26.8028,0.0,190,191,6,0,0,2,0,0,1,1,43
215000000,0,4e+06,1.0,0.0,14.6853,0.0,0,0,0,0,0,0,0,0,0,1,37
215160000,215156000,4e+06,1.0,1.31574,26.8217,0.0,190,191,6,0,0,2,0,0,1,1,43
216000000,0,4e+06,1.0,0.0,14.4801,0.0,0,0,0,0,0,0,0,0,0,1,37
216160000,215156000,4e+06,1.0,1.31574,26.8426,0.0,190,191,6,0,0,2,0,0,1,1,43
217000000,0,4e+06,1.0,0.0,14.7639,0.0,0,0,0,0,0,0,0,0,0,1,37
217160000,216160000,4e+06,1.0,1.31574,26.8655,0.0,190,191,6,0,0,2,0,0,1,1,43
218000000,0,4e+06,1.0,0.0,14.5518,0.0,0,0,0,0,0,0,0,0,0,1,37
218160000,217160000,4e+06,1.0,1.38048,26.8625,0.0,190,191,6,0,0,2,0,0,1,1,43
219000000,0,4e+06,1.0,0.0,14.6803,0.0,0,0,0,0,0,0,0,0,0,1,37
219160000,218160000,4e+06,1.0,1.31574,26.8855,0.0,190,191,6,0,0,2,0,0,1,1,43
220000000,0,4e+06,1.0,0.0,14.5249,0.0,0,0,0,0,0,0,0,0,0,1,37
220160000,219160000,4e+06,1.0,1.31574,26.8566,0.0,190,191,6,0,0,2,0,0,1,1,43
220176000,220172000,4e+06,1.0,1.31574,26.8566,0.0,190,191,6,0,0,2,0,0,1,1,43
221000000,0,4e+06,1.0,0.0,14.6623,0.0,0,0,0,0,0,0,0,0,0,1,37
221176000,221172000,4e+06,1.0,1.31574,27.1106,0.0,190,191,6,0,0,2,0,0,1,1,43
222000000,0,4e+06,1.0,0.0,14.6036,0.0,0,0,0,0,0,0,0,0,0,1,37
222176000,222172000,4e+06,1.0,1.31574,26.8635,0.0,190,191,6,0,0,2,0,0,1,1,43
223000000,0,4e+06,1.0,0.0,14.7122,0.0,0,0,0,0,0,0,0,0,0,1,37
223176000,223172000,4e+06,1.0,1.31574,26.9273,0.0,190,191,6,0,0,2,0,0,1,1,43
224000000,0,4e+06,1.0,0.0,14.5199,0.0,0,0,0,0,0,0,0,0,0,1,37
224176000,224172000,4e+06,1.0,1.31574,26.8068,0.0,190,191,6,0,0,2,0,0,1,1,43
225000000,0,4e+06,1.0,0.0,14.6853,0.0,0,0,0,0,0,0,0,0,0,1,37
225176000,224172000,4e+06,1.0,1.31574,26.7898,0.0,190,191,6,0,0,2,0,0,1,1,43
226000000,0,4e+06,1.0,0.0,14.4801,0.0,0,0,0,0,0,0,0,0,0,1,37
226176000,225176000,4e+06,1.0,1.31574,26.8327,0.0,190,191,6,0,0,2,0,0,1,1,43
227000000,0,4e+06,1.0,0.0,14.7639,0.0,0,0,0,0,0,0,0,0,0,1,37
227176000,226176000,4e+06,1.0,1.31574,26.8865,0.0,190,191,6,0,0,2,0,0,1,1,43
227184000,227180000,4e+06,1.0,1.31574,26.8865,0.0,190,191,6,0,0,2,0,0,1,1,43
228000000,0,4e+06,1.0,0.0,14.5518,0.0,0,0,0,0,0,0,0,0,0,1,37
228184000,228180000,4e+06,1.0,1.31574,26.9412,0.0,190,191,6,0,0,2,0,0,1,1,43
229000000,0,4e+06,1.0,0.0,14.6215,0.0,0,0,0,0,0,0,0,0,0,1,37
229184000,228180000,4e+06,1.0,1.38048,26.6434,0.0,190,191,6,0,0,2,0,0,1,1,43
230000000,0,4e+06,1.0,0.0,14.4074,0.0,0,0,0,0,0,0,0,0,0,1,37
230184000,229184000,4e+06,1.0,1.31574,26.1514,0.0,190,191,6,0,0,2,0,0,1,1,43
231000000,0,4e+06,1.0,0.0,14.6036,0.0,0,0,0,0,0,0,0,0,0,1,37
231184000,230184000,4e+06,1.0,1.31574,26.257,0.0,190,191,6,0,0,2,0,0,1,1,43
232000000,0,4e+06,1.0,0.0,14.4861,0.0,0,0,0,0,0,0,0,0,0,1,37
232184000,231184000,4e+06,1.0,1.31574,26.1444,0.0,190,191,6,0,0,2,0,0,1,1,43
233000000,0,4e+06,1.0,0.0,14.6534,0.0,0,0,0,0,0,0,0,0,0,1,37
233184000,232184000,4e+06,1.0,1.31574,26.2918,0.0,190,191,6,0,0,2,0,0,1,1,43
233200000,233196000,4e+06,1.0,1.31574,26.2918,0.0,190,191,6,0,0,2,0,0,1,1,43
234000000,0,4e+06,1.0,0.0,14.4024,0.0,0,0,0,0,0,0,0,0,0,1,37
234200000,234196000,4e+06,1.0,1.31574,26.1544,0.0,190,191,6,0,0,2,0,0,1,1,43
235000000,0,4e+06,1.0,0.0,14.6265,0.0,0,0,0,0,0,0,0,0,0,1,37
235200000,235196000,4e+06,1.0,1.31574,26.1783,0.0,190,191,6,0,0,2,0,0,1,1,43
236000000,0,4e+06,1.0,0.0,14.3625,0.0,0,0,0,0,0,0,0,0,0,1,37
236200000,236196000,4e+06,1.0,1.31574,26.2291,0.0,190,191,6,0,0,2,0,0,1,1,43
237000000,0,4e+06,1.0,0.0,14.7052,0.0,0,0,0,0,0,0,0,0,0,1,37
237200000,236196000,4e+06,1.0,1.31574,26.2121,0.0,190,191,6,0,0,2,0,0,1,1,43
237212000,237208000,4e+06,1.0,1.31574,26.2121,0.0,190,191,6,0,0,2,0,0,1,1,43
238000000,0,4e+06,1.0,0.0,14.4343,0.0,0,0,0,0,0,0,0,0,0,1,37
238212000,238208000,4e+06,1.0,1.31574,26.4651,0.0,190,191,6,0,0,2,0,0,1,1,43
239000000,0,4e+06,1.0,0.0,14.6215,0.0,0,0,0,0,0,0,0,0,0,1,37
239212000,239208000,4e+06,1.0,1.31574,26.2221,0.0,190,191,6,0,0,2,0,0,1,1,43
240000000,0,4e+06,1.0,0.0,14.4074,0.0,0,0,0,0,0,0,0,0,0,1,37
240212000,240208000,4e+06,1.0,1.31574,26.1106,0.0,190,191,6,0,0,2,0,0,1,1,43
241000000,0,4e+06,1.0,0.0,14.6036,0.0,0,0,0,0,0,0,0,0,0,1,37
241212000,241208000,4e+06,1.0,1.38048,26.257,0.0,190,191,6,0,0,2,0,0,1,1,43
242000000,0,4e+06,1.0,0.0,14.4861,0.0,0,0,0,0,0,0,0,0,0,1,37
242212000,242208000,4e+06,1.0,1.31574,26.1444,0.0,190,191,6,0,0,2,0,0,1,1,43
243000000,0,4e+06,1.0,0.0,14.6534,0.0,0,0,0,0,0,0,0,0,0,1,37
243212000,243208000,4e+06,1.0,1.31574,26.2918,0.0,190,191,6,0,0,2,0,0,1,1,43
244000000,0,4e+06,1.0,0.0,14.4024,0.0,0,0,0,0,0,0,0,0,0,1,37
244212000,244208000,4e+06,1.0,1.31574,26.1942,0.0,190,191,6,0,0,2,0,0,1,1,43
245000000,0,4e+06,1.0,0.0,14.6265,0.0,0,0,0,0,0,0,0,0,0,1,37
245212000,244208000,4e+06,1.0,1.31574,26.2659,0.0,190,191,6,0,0,2,0,0,1,1,43
246000000,0,4e+06,1.0,0.0,14.3625,0.0,0,0,0,0,0,0,0,0,0,1,37
246212000,245212000,4e+06,1.0,1.31574,26.4303,0.0,190,191,6,0,0,2,0,0,1,1,43
247000000,0,4e+06,1.0,0.0,14.7052,0.0,0,0,0,0,0,0,0,0,0,1,37
247212000,246212000,4e+06,1.0,1.31574,26.2749,0.0,190,191,6,0,0,2,0,0,1,1,43
248000000,0,4e+06,1.0,0.0,14.4343,0.0,0,0,0,0,0,0,0,0,0,1,37
248212000,247212000,4e+06,1.0,1.31574,26.2241,0.0,190,191,6,0,0,2,0,0,1,1,43
248216000,248216000,4e+06,1.0,1.31574,26.2241,0.0,190,191,6,0,0,2,0,0,1,1,43
249000000,0,4e+06,1.0,0.0,14.6215,0.0,0,0,0,0,0,0,0,0,0,1,37
249216000,248216000,4e+06,1.0,1.31574,26.2221,0.0,190,191,6,0,0,2,0,0,1,1,43
250000000,0,4e+06,1.0,0.0,14.4074,0.0,0,0,0,0,0,0,0,0,0,1,37
250216000,249216000,4e+06,1.0,1.31574,26.1106,0.0,190,191,6,0,0,2,0,0,1,1,43
251000000,0,4e+06,1.0,0.0,14.6036,0.0,0,0,0,0,0,0,0,0,0,1,37
251216000,250216000,4e+06,1.0,1.31574,26.257,0.0,190,191,6,0,0,2,0,0,1,1,43
252000000,0,4e+06,1.0,0.0,14.6036,0.0,0,0,0,0,0,0,0,0,0,1,37
252216000,251216000,4e+06,1.0,1.31574,26.507,0.0,190,191,6,0,0,2,0,0,1,1,43
253000000,0,4e+06,1.0,0.0,14.6614,0.0,0,0,0,0,0,0,0,0,0,1,37
253216000,252216000,4e+06,1.0,1.38048,26.3835,0.0,190,191,6,0,0,2,0,0,1,1,43
254000000,0,4e+06,1.0,0.0,14.6534,0.0,0,0,0,0,0,0,0,0,0,1,37
254216000,253216000,4e+06,1.0,1.31574,26.3954,0.0,190,191,6,0,0,2,0,0,1,1,43
254224000,254220000,4e+06,1.0,1.31574,26.3954,0.0,190,191,6,0,0,2,0,0,1,1,43
255000000,0,4e+06,1.0,0.0,14.4721,0.0,0,0,0,0,0,0,0,0,0,1,37
255224000,255220000,4e+06,1.0,1.31574,26.2331,0.0,190,191,6,0,0,2,0,0,1,1,43
256000000,0,4e+06,1.0,0.0,14.5568,0.0,0,0,0,0,0,0,0,0,0,1,37
256224000,256220000,4e+06,1.0,1.31574,26.1892,0.0,190,191,6,0,0,2,0,0,1,1,43
257000000,0,4e+06,1.0,0.0,14.4323,0.0,0,0,0,0,0,0,0,0,0,1,37
257224000,257220000,4e+06,1.0,1.31574,26.2121,0.0,190,191,6,0,0,2,0,0,1,1,43
258000000,0,4e+06,1.0,0.0,14.6355,0.0,0,0,0,0,0,0,0,0,0,1,37
258224000,257220000,4e+06,1.0,1.31574,26.2082,0.0,190,191,6,0,0,2,0,0,1,1,43
259000000,0,4e+06,1.0,0.0,14.504,0.0,0,0,0,0,0,0,0,0,0,1,37
259224000,258224000,4e+06,1.0,1.31574,26.254,0.0,190,191,6,0,0,2,0,0,1,1,43
259232000,259228000,4e+06,1.0,1.31574,26.254,0.0,190,191,6,0,0,2,0,0,1,1,43
260000000,0,4e+06,1.0,0.0,14.5518,0.0,0,0,0,0,0,0,0,0,0,1,37
260232000,259228000,4e+06,1.0,12238.0,26.1175,0.0,190,191,6,0,0,2,0,0,1,1,43
260244000,260240000,4e+06,1.0,12238.0,26.1175,0.0,190,191,6,0,0,2,0,0,1,1,43
261000000,0,4e+06,1.0,0.0,14.499,0.0,0,0,0,0,0,0,0,0,0,1,37
261244000,260240000,4e+06,1.0,13118.9,26.2829,0.0,190,191,6,0,0,2,0,0,1,1,43
261252000,261248000,4e+06,1.0,13118.9,26.2829,0.0,190,191,6,0,0,2,0,0,1,1,43
262000000,0,4e+06,1.0,0.0,14.512,0.0,0,0,0,0,0,0,0,0,0,1,37
262252000,261248000,4e+06,1.0,13418.1,26.1295,0.0,190,191,6,0,0,2,0,0,1,1,43
262260000,262256000,4e+06,1.0,13418.1,26.1295,0.0,190,191,6,0,0,2,0,0,1,1,43
263000000,0,4e+06,1.0,0.0,14.5558,0.0,0,0,0,0,0,0,0,0,0,1,37
263260000,262256000,4e+06,1.0,12130.6,26.5269,0.0,190,191,6,0,0,2,0,0,1,1,43
263272000,263268000,4e+06,1.0,12130.6,26.5269,0.0,190,191,6,0,0,2,0,0,1,1,43
264000000,0,4e+06,1.0,0.0,14.5837,0.0,0,0,0,0,0,0,0,0,0,1,37
264272000,263268000,4e+06,1.0,11960.3,26.1524,0.0,190,191,6,0,0,2,0,0,1,1,43
265000000,0,4e+06,1.0,0.0,14.4721,0.0,0,0,0,0,0,0,0,0,0,1,37
265272000,264272000,4e+06,1.0,12042.4,26.1783,0.0,190,191,6,0,0,2,0,0,1,1,43
265284000,265280000,4e+06,1.0,12042.4,26.1783,0.0,190,191,6,0,0,2,0,0,1,1,43
266000000,0,4e+06,1.0,0.0,14.5568,0.0,0,0,0,0,0,0,0,0,0,1,37
266284000,265280000,4e+06,1.0,11247.7,26.1892,0.0,190,191,6,0,0,2,0,0,1,1,43
266296000,266292000,4e+06,1.0,11247.7,26.1892,0.0,190,191,6,0,0,2,0,0,1,1,43
267000000,0,4e+06,1.0,0.0,14.4323,0.0,0,0,0,0,0,0,0,0,0,1,37
267296000,266292000,4e+06,1.0,12217.6,26.2121,0.0,190,191,6,0,0,2,0,0,1,1,43
267304000,267300000,4e+06,1.0,12217.6,26.2121,0.0,190,191,6,0,0,2,0,0,1,1,43
268000000,0,4e+06,1.0,0.0,14.6355,0.0,0,0,0,0,0,0,0,0,0,1,37
268304000,267300000,4e+06,1.0,11507.7,26.2241,0.0,190,191,6,0,0,2,0,0,1,1,43
268312000,268308000,4e+06,1.0,11507.7,26.2241,0.0,190,191,6,0,0,2,0,0,1,1,43
269000000,0,4e+06,1.0,0.0,14.504,0.0,0,0,0,0,0,0,0,0,0,1,37
269312000,269308000,4e+06,1.0,11745.7,26.2619,0.0,190,191,6,0,0,2,0,0,1,1,43
270000000,0,4e+06,1.0,0.0,14.5518,0.0,0,0,0,0,0,0,0,0,0,1,37
270312000,269308000,4e+06,1.0,11330.2,26.1982,0.0,190,191,6,0,0,2,0,0,1,1,43
270324000,270320000,4e+06,1.0,11330.2,26.1982,0.0,190,191,6,0,0,2,0,0,1,1,43
271000000,0,4e+06,1.0,0.0,14.499,0.0,0,0,0,0,0,0,0,0,0,1,37
271324000,270320000,4e+06,1.0,11262.0,26.498,0.0,190,191,6,0,0,2,0,0,1,1,43
271332000,271328000,4e+06,1.0,11262.0,26.498,0.0,190,191,6,0,0,2,0,0,1,1,43
272000000,0,4e+06,1.0,0.0,14.512,0.0,0,0,0,0,0,0,0,0,0,1,37
272332000,271328000,4e+06,1.0,11602.8,26.2072,0.0,190,191,6,0,0,2,0,0,1,1,43
272340000,272336000,4e+06,1.0,11602.8,26.2072,0.0,190,191,6,0,0,2,0,0,1,1,43
273000000,0,4e+06,1.0,0.0,14.5558,0.0,0,0,0,0,0,0,0,0,0,1,37
273340000,272336000,4e+06,1.0,8754.69,26.2918,0.0,190,191,6,0,0,2,0,0,1,1,43
274000000,0,4e+06,1.0,0.0,14.5837,0.0,0,0,0,0,0,0,0,0,0,1,37
274340000,273340000,4e+06,1.0,1.38048,26.1643,0.0,190,191,6,0,0,2,0,0,1,1,43
274348000,274344000,4e+06,1.0,1.38048,26.1643,0.0,190,191,6,0,0,2,0,0,1,1,43
275000000,0,4e+06,1.0,0.0,14.4721,0.0,0,0,0,0,0,0,0,0,0,1,37
275348000,275344000,4e+06,1.0,3236.43,26.1793,0.0,190,191,6,0,0,2,0,0,1,1,43
276000000,0,4e+06,1.0,0.0,14.5568,0.0,0,0,0,0,0,0,0,0,0,1,37
276348000,275344000,4e+06,1.0,13053.0,26.1733,0.0,190,191,6,0,0,2,0,0,1,1,43
277000000,0,4e+06,1.0,0.0,14.4323,0.0,0,0,0,0,0,0,0,0,0,1,37
277348000,276348000,4e+06,1.0,13618.0,26.2958,0.0,190,191,6,0,0,2,0,0,1,1,43
277360000,277360000,4e+06,1.0,13618.0,26.2958,0.0,190,191,6,0,0,2,0,0,1,1,43
278000000,0,4e+06,1.0,0.0,14.6355,0.0,0,0,0,0,0,0,0,0,0,1,37
278360000,277360000,4e+06,1.0,11805.7,26.2759,0.0,190,191,6,0,0,2,0,0,1,1,43
278372000,278368000,4e+06,1.0,11805.7,26.2759,0.0,190,191,6,0,0,2,0,0,1,1,43
279000000,0,4e+06,1.0,0.0,14.504,0.0,0,0,0,0,0,0,0,0,0,1,37
279372000,278368000,4e+06,1.0,11988.9,26.4572,0.0,190,191,6,0,0,2,0,0,1,1,43
279380000,279376000,4e+06,1.0,11988.9,26.4572,0.0,190,191,6,0,0,2,0,0,1,1,43
280000000,0,4e+06,1.0,0.0,14.5518,0.0,0,0,0,0,0,0,0,0,0,1,37
280380000,279376000,4e+06,1.0,11719.6,26.1633,0.0,190,191,6,0,0,2,0,0,1,1,43
280388000,280384000,4e+06,1.0,11719.6,26.1633,0.0,190,191,6,0,0,2,0,0,1,1,43
281000000,0,4e+06,1.0,0.0,14.499,0.0,0,0,0,0,0,0,0,0,0,1,37
281388000,280384000,4e+06,1.0,12260.9,26.257,0.0,190,191,6,0,0,2,0,0,1,1,43
281400000,281396000,4e+06,1.0,12260.9,26.257,0.0,190,191,6,0,0,2,0,0,1,1,43
282000000,0,4e+06,1.0,0.0,14.512,0.0,0,0,0,0,0,0,0,0,0,1,37
282400000,281396000,4e+06,1.0,11960.2,26.1444,0.0,190,191,6,0,0,2,0,0,1,1,43
282408000,282404000,4e+06,1.0,11960.2,26.1444,0.0,190,191,6,0,0,2,0,0,1,1,43
283000000,0,4e+06,1.0,0.0,14.5558,0.0,0,0,0,0,0,0,0,0,0,1,37
283408000,282404000,4e+06,1.0,12138.7,26.2918,0.0,190,191,6,0,0,2,0,0,1,1,43
283416000,283412000,4e+06,1.0,12138.7,26.2918,0.0,190,191,6,0,0,2,0,0,1,1,43
284000000,0,4e+06,1.0,0.0,14.5837,0.0,0,0,0,0,0,0,0,0,0,1,37
284416000,283412000,4e+06,1.0,12141.4,26.1544,0.0,190,191,6,0,0,2,0,0,1,1,43
284428000,284424000,4e+06,1.0,12141.4,26.1544,0.0,190,191,6,0,0,2,0,0,1,1,43
285000000,0,4e+06,1.0,0.0,14.4721,0.0,0,0,0,0,0,0,0,0,0,1,37
285428000,284424000,4e+06,1.0,11606.7,26.1783,0.0,190,191,6,0,0,2,0,0,1,1,43
285436000,285432000,4e+06,1.0,11606.7,26.1783,0.0,190,191,6,0,0,2,0,0,1,1,43
286000000,0,4e+06,1.0,0.0,14.5568,0.0,0,0,0,0,0,0,0,0,0,1,37
286436000,285432000,4e+06,1.0,11881.3,26.2291,0.0,190,191,6,0,0,2,0,0,1,1,43
286444000,286440000,4e+06,1.0,11881.3,26.2291,0.0,190,191,6,0,0,2,0,0,1,1,43
287000000,0,4e+06,1.0,0.0,14.4323,0.0,0,0,0,0,0,0,0,0,0,1,37
287444000,286440000,4e+06,1.0,11624.3,26.2121,0.0,190,191,6,0,0,2,0,0,1,1,43
287456000,287452000,4e+06,1.0,11624.3,26.2121,0.0,190,191,6,0,0,2,0,0,1,1,43
288000000,0,4e+06,1.0,0.0,14.6355,0.0,0,0,0,0,0,0,0,0,0,1,37
288456000,287452000,4e+06,1.0,11679.8,26.4651,0.0,190,191,6,0,0,2,0,0,1,1,43
288464000,288460000,4e+06,1.0,11679.8,26.4651,0.0,190,191,6,0,0,2,0,0,1,1,43
289000000,0,4e+06,1.0,0.0,14.504,0.0,0,0,0,0,0,0,0,0,0,1,37
289464000,288460000,4e+06,1.0,11673.7,26.2221,0.0,190,191,6,0,0,2,0,0,1,1,43
289472000,289468000,4e+06,1.0,11673.7,26.2221,0.0,190,191,6,0,0,2,0,0,1,1,43
290000000,0,4e+06,1.0,0.0,14.5518,0.0,0,0,0,0,0,0,0,0,0,1,37
290472000,289468000,4e+06,1.0,11730.8,26.1106,0.0,190,191,6,0,0,2,0,0,1,1,43
290480000,290480000,4e+06,1.0,11730.8,26.1106,0.0,190,191,6,0,0,2,0,0,1,1,43
291000000,0,4e+06,1.0,0.0,14.499,0.0,0,0,0,0,0,0,0,0,0,1,37
291480000,290480000,4e+06,1.0,11232.7,26.257,0.0,190,191,6,0,0,2,0,0,1,1,43
291492000,291488000,4e+06,1.0,11232.7,26.257,0.0,190,191,6,0,0,2,0,0,1,1,43
292000000,0,4e+06,1.0,0.0,14.512,0.0,0,0,0,0,0,0,0,0,0,1,37
292492000,291488000,4e+06,1.0,12015.2,26.1444,0.0,190,191,6,0,0,2,0,0,1,1,43
292500000,292496000,4e+06,1.0,12015.2,26.1444,0.0,190,191,6,0,0,2,0,0,1,1,43
293000000,0,4e+06,1.0,0.0,14.5558,0.0,0,0,0,0,0,0,0,0,0,1,37
293500000,292496000,4e+06,1.0,11738.9,26.2918,0.0,190,191,6,0,0,2,0,0,1,1,43
293508000,293508000,4e+06,1.0,11738.9,26.2918,0.0,190,191,6,0,0,2,0,0,1,1,43
294000000,0,4e+06,1.0,0.0,14.5837,0.0,0,0,0,0,0,0,0,0,0,1,37
294508000,293508000,4e+06,1.0,11772.3,26.1942,0.0,190,191,6,0,0,2,0,0,1,1,43
294520000,294516000,4e+06,1.0,11772.3,26.1942,0.0,190,191,6,0,0,2,0,0,1,1,43
295000000,0,4e+06,1.0,0.0,14.4721,0.0,0,0,0,0,0,0,0,0,0,1,37
295520000,294516000,4e+06,1.0,11449.1,26.2659,0.0,190,191,6,0,0,2,0,0,1,1,43
295528000,295528000,4e+06,1.0,11449.1,26.2659,0.0,190,191,6,0,0,2,0,0,1,1,43
296000000,0,4e+06,1.0,0.0,14.5568,0.0,0,0,0,0,0,0,0,0,0,1,37
296528000,295528000,4e+06,1.0,11261.1,26.4303,0.0,190,191,6,0,0,2,0,0,1,1,43
296540000,296536000,4e+06,1.0,11261.1,26.4303,0.0,190,191,6,0,0,2,0,0,1,1,43
297000000,0,4e+06,1.0,0.0,14.4323,0.0,0,0,0,0,0,0,0,0,0,1,37
297540000,296536000,4e+06,1.0,11616.1,26.2749,0.0,190,191,6,0,0,2,0,0,1,1,43
297548000,297544000,4e+06,1.0,11616.1,26.2749,0.0,190,191,6,0,0,2,0,0,1,1,43
298000000,0,4e+06,1.0,0.0,14.6355,0.0,0,0,0,0,0,0,0,0,0,1,37
298548000,297544000,4e+06,1.0,11704.0,26.2241,0.0,190,191,6,0,0,2,0,0,1,1,43
298560000,298556000,4e+06,1.0,11704.0,26.2241,0.0,190,191,6,0,0,2,0,0,1,1,43
299000000,0,4e+06,1.0,0.0,14.504,0.0,0,0,0,0,0,0,0,0,0,1,37
299560000,298556000,4e+06,1.0,11784.2,26.2221,0.0,190,191,6,0,0,2,0,0,1,1,43
299568000,299564000,4e+06,1.0,11784.2,26.2221,0.0,190,191,6,0,0,2,0,0,1,1,43
300000000,0,4e+06,1.0,0.0,14.5518,0.0,0,0,0,0,0,0,0,0,0,1,37
300568000,299564000,4e+06,1.0,11813.1,26.1106,0.0,190,191,6,0,0,2,0,0,1,1,43
300576000,300572000,4e+06,1.0,11813.1,26.1106,0.0,190,191,6,0,0,2,0,0,1,1,43
301000000,0,4e+06,1.0,0.0,14.499,0.0,0,0,0,0,0,0,0,0,0,1,37
301576000,300572000,4e+06,1.0,11718.3,26.255,0.0,190,191,6,0,0,2,0,0,1,1,43
301584000,301584000,4e+06,1.0,11718.3,26.255,0.0,190,191,6,0,0,2,0,0,1,1,43
302000000,0,4e+06,1.0,0.0,14.512,0.0,0,0,0,0,0,0,0,0,0,1,37
302584000,301584000,4e+06,1.0,12021.5,26.3108,0.0,190,191,6,0,0,2,0,0,1,1,43
302596000,302592000,4e+06,1.0,12021.5,26.3108,0.0,190,191,6,0,0,2,0,0,1,1,43
303000000,0,4e+06,1.0,0.0,14.5558,0.0,0,0,0,0,0,0,0,0,0,1,37
303596000,302592000,4e+06,1.0,11652.0,26.3835,0.0,190,191,6,0,0,2,0,0,1,1,43
303604000,303600000,4e+06,1.0,11652.0,26.3835,0.0,190,191,6,0,0,2,0,0,1,1,43
304000000,0,4e+06,1.0,0.0,14.5837,0.0,0,0,0,0,0,0,0,0,0,1,37
304604000,303600000,4e+06,1.0,11969.8,26.3954,0.0,190,191,6,0,0,2,0,0,1,1,43
304612000,304608000,4e+06,1.0,11969.8,26.3954,0.0,190,191,6,0,0,2,0,0,1,1,43
305000000,0,4e+06,1.0,0.0,14.4721,0.0,0,0,0,0,0,0,0,0,0,1,37
305612000,304608000,4e+06,1.0,11708.6,26.2131,0.0,190,191,6,0,0,2,0,0,1,1,43
305624000,305620000,4e+06,1.0,11708.6,26.2131,0.0,190,191,6,0,0,2,0,0,1,1,43
306000000,0,4e+06,1.0,0.0,14.5568,0.0,0,0,0,0,0,0,0,0,0,1,37
306624000,305620000,4e+06,1.0,11907.1,26.1892,0.0,190,191,6,0,0,2,0,0,1,1,43
306632000,306628000,4e+06,1.0,11907.1,26.1892,0.0,190,191,6,0,0,2,0,0,1,1,43
307000000,0,4e+06,1.0,0.0,14.4323,0.0,0,0,0,0,0,0,0,0,0,1,37
307632000,307628000,4e+06,1.0,11296.6,26.1982,0.0,190,191,6,0,0,2,0,0,1,1,43
308000000,0,4e+06,1.0,0.0,14.6355,0.0,0,0,0,0,0,0,0,0,0,1,37
308632000,307628000,4e+06,1.0,1.31574,26.1663,0.0,190,191,6,0,0,2,0,0,1,1,43
309000000,0,4e+06,1.0,0.0,14.504,0.0,0,0,0,0,0,0,0,0,0,1,37
309632000,308632000,4e+06,1.0,1.31574,26.3038,0.0,190,191,6,0,0,2,0,0,1,1,43
309640000,309636000,4e+06,1.0,1.31574,26.3038,0.0,190,191,6,0,0,2,0,0,1,1,43
310000000,0,4e+06,1.0,0.0,14.6106,0.0,0,0,0,0,0,0,0,0,0,1,37
310636000,310632000,4e+06,1.0,1.31574,26.737,0.0,190,191,6,0,0,2,0,0,1,1,43
311000000,0,4e+06,1.0,0.0,14.5578,0.0,0,0,0,0,0,0,0,0,0,1,37
311636000,311632000,4e+06,1.0,1.31574,26.9432,0.0,190,191,6,0,0,2,0,0,1,1,43
312000000,0,4e+06,1.0,0.0,14.6295,0.0,0,0,0,0,0,0,0,0,0,1,37
312636000,312632000,4e+06,1.0,1.31574,26.7679,0.0,190,191,6,0,0,2,0,0,1,1,43
313000000,0,4e+06,1.0,0.0,14.6145,0.0,0,0,0,0,0,0,0,0,0,1,37
313636000,312632000,4e+06,1.0,1.31574,27.1813,0.0,190,191,6,0,0,2,0,0,1,1,43
313648000,313644000,4e+06,1.0,1.31574,27.1813,0.0,190,191,6,0,0,2,0,0,1,1,43
314000000,0,4e+06,1.0,0.0,14.7012,0.0,0,0,0,0,0,0,0,0,0,1,37
314648000,314644000,4e+06,1.0,1.31574,26.7739,0.0,190,191,6,0,0,2,0,0,1,1,43
315000000,0,4e+06,1.0,0.0,14.5309,0.0,0,0,0,0,0,0,0,0,0,1,37
315648000,314644000,4e+06,1.0,1.31574,26.8416,0.0,190,191,6,0,0,2,0,0,1,1,43
315656000,315652000,4e+06,1.0,1.31574,26.8416,0.0,190,191,6,0,0,2,0,0,1,1,43
316000000,0,4e+06,1.0,0.0,14.7022,0.0,0,0,0,0,0,0,0,0,0,1,37
316656000,315652000,4e+06,1.0,1.31574,26.8167,0.0,190,191,6,0,0,2,0,0,1,1,43
316664000,316660000,4e+06,1.0,1.31574,26.8167,0.0,190,191,6,0,0,2,0,0,1,1,43
317000000,0,4e+06,1.0,0.0,14.491,0.0,0,0,0,0,0,0,0,0,0,1,37
317664000,316660000,4e+06,1.0,1.38048,26.8386,0.0,190,191,6,0,0,2,0,0,1,1,43
318000000,0,4e+06,1.0,0.0,14.753,0.0,0,0,0,0,0,0,0,0,0,1,37
318664000,317664000,4e+06,1.0,1.31574,26.8586,0.0,190,191,6,0,0,2,0,0,1,1,43
319000000,0,4e+06,1.0,0.0,14.5627,0.0,0,0,0,0,0,0,0,0,0,1,37
319664000,318664000,4e+06,1.0,1.31574,26.8805,0.0,190,191,6,0,0,2,0,0,1,1,43
320000000,0,4e+06,1.0,0.0,14.6693,0.0,0,0,0,0,0,0,0,0,0,1,37
320664000,319664000,4e+06,1.0,1.31574,26.8596,0.0,190,191,6,0,0,2,0,0,1,1,43
320672000,320668000,4e+06,1.0,1.31574,26.8596,0.0,190,191,6,0,0,2,0,0,1,1,43
321000000,0,4e+06,1.0,0.0,14.5578,0.0,0,0,0,0,0,0,0,0,0,1,37
321672000,321668000,4e+06,1.0,1.31574,27.1763,0.0,190,191,6,0,0,2,0,0,1,1,43
322000000,0,4e+06,1.0,0.0,14.6295,0.0,0,0,0,0,0,0,0,0,0,1,37
322672000,322668000,4e+06,1.0,1.31574,26.8845,0.0,190,191,6,0,0,2,0,0,1,1,43
323000000,0,4e+06,1.0,0.0,14.6145,0.0,0,0,0,0,0,0,0,0,0,1,37
323672000,322668000,4e+06,1.0,11611.3,26.3924,0.0,190,191,6,0,0,2,0,0,1,1,43
323684000,323680000,4e+06,1.0,11611.3,26.3924,0.0,190,191,6,0,0,2,0,0,1,1,43
324000000,0,4e+06,1.0,0.0,14.5837,0.0,0,0,0,0,0,0,0,0,0,1,37
324684000,323680000,4e+06,1.0,12051.6,26.2042,0.0,190,191,6,0,0,2,0,0,1,1,43
324692000,324688000,4e+06,1.0,12051.6,26.2042,0.0,190,191,6,0,0,2,0,0,1,1,43
325000000,0,4e+06,1.0,0.0,14.4721,0.0,0,0,0,0,0,0,0,0,0,1,37
325692000,324688000,4e+06,1.0,11365.7,26.2281,0.0,190,191,6,0,0,2,0,0,1,1,43
325700000,325696000,4e+06,1.0,11365.7,26.2281,0.0,190,191,6,0,0,2,0,0,1,1,43
326000000,0,4e+06,1.0,0.0,14.512,0.0,0,0,0,0,0,0,0,0,0,1,37
326700000,325696000,4e+06,1.0,11531.5,26.24,0.0,190,191,6,0,0,2,0,0,1,1,43
326708000,326704000,4e+06,1.0,11531.5,26.24,0.0,190,191,6,0,0,2,0,0,1,1,43
327000000,0,4e+06,1.0,0.0,14.4771,0.0,0,0,0,0,0,0,0,0,0,1,37
327708000,326704000,4e+06,1.0,11771.2,26.3456,0.0,190,191,6,0,0,2,0,0,1,1,43
327720000,327716000,4e+06,1.0,11771.2,26.3456,0.0,190,191,6,0,0,2,0,0,1,1,43
328000000,0,4e+06,1.0,0.0,14.6355,0.0,0,0,0,0,0,0,0,0,0,1,37
328720000,327716000,4e+06,1.0,11464.8,26.3655,0.0,190,191,6,0,0,2,0,0,1,1,43
328728000,328724000,4e+06,1.0,11464.8,26.3655,0.0,190,191,6,0,0,2,0,0,1,1,43
329000000,0,4e+06,1.0,0.0,14.504,0.0,0,0,0,0,0,0,0,0,0,1,37
329728000,328724000,4e+06,1.0,11730.6,26.5129,0.0,190,191,6,0,0,2,0,0,1,1,43
329736000,329732000,4e+06,1.0,11730.6,26.5129,0.0,190,191,6,0,0,2,0,0,1,1,43
330000000,0,4e+06,1.0,0.0,14.5518,0.0,0,0,0,0,0,0,0,0,0,1,37
330736000,329732000,4e+06,1.0,11516.3,26.2151,0.0,190,191,6,0,0,2,0,0,1,1,43
330748000,330744000,4e+06,1.0,11516.3,26.2151,0.0,190,191,6,0,0,2,0,0,1,1,43
331000000,0,4e+06,1.0,0.0,14.499,0.0,0,0,0,0,0,0,0,0,0,1,37
331748000,330744000,4e+06,1.0,11546.7,26.3078,0.0,190,191,6,0,0,2,0,0,1,1,43
331756000,331752000,4e+06,1.0,11546.7,26.3078,0.0,190,191,6,0,0,2,0,0,1,1,43
332000000,0,4e+06,1.0,0.0,14.512,0.0,0,0,0,0,0,0,0,0,0,1,37
332752000,332748000,4e+06,1.0,11650.0,26.1942,0.0,190,191,6,0,0,2,0,0,1,1,43
333000000,0,4e+06,1.0,0.0,14.5558,0.0,0,0,0,0,0,0,0,0,0,1,37
333752000,332748000,4e+06,1.0,11296.2,26.3416,0.0,190,191,6,0,0,2,0,0,1,1,43
333760000,333756000,4e+06,1.0,11296.2,26.3416,0.0,190,191,6,0,0,2,0,0,1,1,43
334000000,0,4e+06,1.0,0.0,14.5837,0.0,0,0,0,0,0,0,0,0,0,1,37
334760000,333756000,4e+06,1.0,11065.4,26.2042,0.0,190,191,6,0,0,2,0,0,1,1,43
334772000,334768000,4e+06,1.0,11065.4,26.2042,0.0,190,191,6,0,0,2,0,0,1,1,43
335000000,0,4e+06,1.0,0.0,14.4721,0.0,0,0,0,0,0,0,0,0,0,1,37
335772000,334768000,4e+06,1.0,11133.3,26.2281,0.0,190,191,6,0,0,2,0,0,1,1,43
335780000,335776000,4e+06,1.0,11133.3,26.2281,0.0,190,191,6,0,0,2,0,0,1,1,43
336000000,0,4e+06,1.0,0.0,14.5568,0.0,0,0,0,0,0,0,0,0,0,1,37
336780000,335776000,4e+06,1.0,10969.9,26.2799,0.0,190,191,6,0,0,2,0,0,1,1,43
336788000,336784000,4e+06,1.0,10969.9,26.2799,0.0,190,191,6,0,0,2,0,0,1,1,43
337000000,0,4e+06,1.0,0.0,14.4323,0.0,0,0,0,0,0,0,0,0,0,1,37
337788000,336784000,4e+06,1.0,11343.5,26.2619,0.0,190,191,6,0,0,2,0,0,1,1,43
337796000,337792000,4e+06,1.0,11343.5,26.2619,0.0,190,191,6,0,0,2,0,0,1,1,43
338000000,0,4e+06,1.0,0.0,14.6355,0.0,0,0,0,0,0,0,0,0,0,1,37
338796000,337792000,4e+06,1.0,10918.3,26.5149,0.0,190,191,6,0,0,2,0,0,1,1,43
338808000,338804000,4e+06,1.0,10918.3,26.5149,0.0,190,191,6,0,0,2,0,0,1,1,43
339000000,0,4e+06,1.0,0.0,14.504,0.0,0,0,0,0,0,0,0,0,0,1,37
339808000,338804000,4e+06,1.0,11322.5,26.2719,0.0,190,191,6,0,0,2,0,0,1,1,43
339816000,339812000,4e+06,1.0,11322.5,26.2719,0.0,190,191,6,0,0,2,0,0,1,1,43
340000000,0,4e+06,1.0,0.0,14.6215,0.0,0,0,0,0,0,0,0,0,0,1,37
340816000,339812000,4e+06,1.0,11245.6,26.1604,0.0,190,191,6,0,0,2,0,0,1,1,43
340824000,340820000,4e+06,1.0,11245.6,26.1604,0.0,190,191,6,0,0,2,0,0,1,1,43
341000000,0,4e+06,1.0,0.0,14.4293,0.0,0,0,0,0,0,0,0,0,0,1,37
341824000,340820000,4e+06,1.0,11293.1,26.3078,0.0,190,191,6,0,0,2,0,0,1,1,43
341832000,341828000,4e+06,1.0,11293.1,26.3078,0.0,190,191,6,0,0,2,0,0,1,1,43
342000000,0,4e+06,1.0,0.0,14.5817,0.0,0,0,0,0,0,0,0,0,0,1,37
342832000,342828000,4e+06,1.0,10934.4,26.1942,0.0,190,191,6,0,0,2,0,0,1,1,43
343000000,0,4e+06,1.0,0.0,14.4861,0.0,0,0,0,0,0,0,0,0,0,1,37
343832000,342828000,4e+06,1.0,11480.4,26.3416,0.0,190,191,6,0,0,2,0,0,1,1,43
343840000,343836000,4e+06,1.0,11480.4,26.3416,0.0,190,191,6,0,0,2,0,0,1,1,43
344000000,0,4e+06,1.0,0.0,14.6534,0.0,0,0,0,0,0,0,0,0,0,1,37
344840000,343836000,4e+06,1.0,11308.6,26.244,0.0,190,191,6,0,0,2,0,0,1,1,43
344848000,344844000,4e+06,1.0,11308.6,26.244,0.0,190,191,6,0,0,2,0,0,1,1,43
345000000,0,4e+06,1.0,0.0,14.4024,0.0,0,0,0,0,0,0,0,0,0,1,37
345848000,344844000,4e+06,1.0,11108.4,26.3157,0.0,190,191,6,0,0,2,0,0,1,1,43
345856000,345852000,4e+06,1.0,11108.4,26.3157,0.0,190,191,6,0,0,2,0,0,1,1,43
346000000,0,4e+06,1.0,0.0,14.6265,0.0,0,0,0,0,0,0,0,0,0,1,37
346856000,345852000,4e+06,1.0,11359.9,26.4811,0.0,190,191,6,0,0,2,0,0,1,1,43
346864000,346860000,4e+06,1.0,11359.9,26.4811,0.0,190,191,6,0,0,2,0,0,1,1,43
347000000,0,4e+06,1.0,0.0,14.3625,0.0,0,0,0,0,0,0,0,0,0,1,37
347864000,346860000,4e+06,1.0,10935.8,26.3247,0.0,190,191,6,0,0,2,0,0,1,1,43
347872000,347872000,4e+06,1.0,10935.8,26.3247,0.0,190,191,6,0,0,2,0,0,1,1,43
348000000,0,4e+06,1.0,0.0,14.7052,0.0,0,0,0,0,0,0,0,0,0,1,37
348872000,347872000,4e+06,1.0,11351.2,26.2739,0.0,190,191,6,0,0,2,0,0,1,1,43
348880000,348876000,4e+06,1.0,11351.2,26.2739,0.0,190,191,6,0,0,2,0,0,1,1,43
349000000,0,4e+06,1.0,0.0,14.4741,0.0,0,0,0,0,0,0,0,0,0,1,37
349880000,348876000,4e+06,1.0,11142.6,26.2719,0.0,190,191,6,0,0,2,0,0,1,1,43
349888000,349884000,4e+06,1.0,11142.6,26.2719,0.0,190,191,6,0,0,2,0,0,1,1,43
350000000,0,4e+06,1.0,0.0,14.6215,0.0,0,0,0,0,0,0,0,0,0,1,37
350888000,349884000,4e+06,1.0,11355.5,26.1604,0.0,190,191,6,0,0,2,0,0,1,1,43
350896000,350892000,4e+06,1.0,11355.5,26.1604,0.0,190,191,6,0,0,2,0,0,1,1,43
351000000,0,4e+06,1.0,0.0,14.4293,0.0,0,0,0,0,0,0,0,0,0,1,37
351896000,350892000,4e+06,1.0,10999.3,26.3078,0.0,190,191,6,0,0,2,0,0,1,1,43
351908000,351904000,4e+06,1.0,10999.3,26.3078,0.0,190,191,6,0,0,2,0,0,1,1,43
352000000,0,4e+06,1.0,0.0,14.5817,0.0,0,0,0,0,0,0,0,0,0,1,37
352908000,351904000,4e+06,1.0,11304.2,26.3685,0.0,190,191,6,0,0,2,0,0,1,1,43
352916000,352912000,4e+06,1.0,11304.2,26.3685,0.0,190,191,6,0,0,2,0,0,1,1,43
353000000,0,4e+06,1.0,0.0,14.4861,0.0,0,0,0,0,0,0,0,0,0,1,37
