timestamp,rollspeed,pitchspeed,yawspeed,q[0],q[1],q[2],q[3],delta_q_reset[0],delta_q_reset[1],delta_q_reset[2],delta_q_reset[3],quat_reset_counter
1312000,0.0065,0.00250002,0.00550232,0.999994,4.45047e-05,0.000476086,0.00353101,0.999994,-2.36809e-06,-1.16761e-06,0.00345395,1
1340000,0.001,0.000500006,0.0105025,0.999994,3.76372e-05,0.000465419,0.00353771,0.999994,-2.36809e-06,-1.16761e-06,0.00345395,1
1368000,-0.00749999,-0.00249999,-0.000497781,0.999994,0.000104223,0.00050403,0.00355986,0.999994,-2.36809e-06,-1.16761e-06,0.00345395,1
1396000,0.00200001,-0.0015,-0.00199819,0.999994,7.73196e-05,0.000570349,0.00346097,0.999994,-2.36809e-06,-1.16761e-06,0.00345395,1
1424000,-0.00299998,-0.00299999,-0.00299784,0.999994,3.24193e-05,0.000560641,0.00343276,0.999994,-2.36809e-06,-1.16761e-06,0.00345395,1
1452000,0.011,0.0105,-0.00799857,0.999994,7.6204e-05,0.000564282,0.00337721,0.999994,-2.36809e-06,-1.16761e-06,0.00345395,1
1480000,-0.00299999,-0.00400003,0.00949976,0.999994,0.000119745,0.000580968,0.00337891,0.999994,-2.36809e-06,-1.16761e-06,0.00345395,1
1508000,0.001,-0.000999998,-0.000999171,0.999994,0.000130018,0.000619597,0.00338297,0.999994,-2.36809e-06,-1.16761e-06,0.00345395,1
1536000,0.00549998,0.00300003,0.00900236,0.999994,0.000107133,0.000668157,0.00345736,0.999994,-2.36809e-06,-1.16761e-06,0.00345395,1
1568000,0.00849998,-0.00699999,-0.00999691,0.999994,0.000186467,0.000598092,0.00343951,0.999994,-2.36809e-06,-1.16761e-06,0.00345395,1
1596000,-0.00250005,-0.00350003,0.00400237,0.999994,0.000112655,0.000544577,0.00348892,0.999994,-2.36809e-06,-1.16761e-06,0.00345395,1
1624000,-0.00300011,0.00299992,-0.00249476,0.999994,8.36301e-05,0.000519266,0.00348445,0.999994,-2.36809e-06,-1.16761e-06,0.00345395,1
1652000,-0.00850013,0.00199986,0.00450631,0.999994,5.9362e-05,0.000549007,0.00351282,0.999994,-2.36809e-06,-1.16761e-06,0.00345395,1
1680000,0.00499981,-0.00150019,-0.0079935,0.999994,-3.19524e-05,0.000575543,0.00352754,0.999994,-2.36809e-06,-1.16761e-06,0.00345395,1
1712000,0.000999713,0.00399972,-0.00348877,0.999994,5.20013e-07,0.000635523,0.00351404,0.999994,-2.36809e-06,-1.16761e-06,0.00345395,1
1740000,-0.00100032,0.000999631,0.00401324,0.999994,3.42313e-05,0.000625538,0.00347327,0.999994,-2.36809e-06,-1.16761e-06,0.00345395,1
1768000,0.00699962,0.0104996,0.00701439,0.999993,2.68747e-05,0.000655419,0.00357244,0.999994,-2.36809e-06,-1.16761e-06,0.00345395,1
1800000,-5.20325e-07,0.00449935,0.00901516,0.999993,-3.51708e-05,0.000582087,0.003647,0.999994,-2.36809e-06,-1.16761e-06,0.00345395,1
1832000,0.00149943,0.00799919,-0.0104846,0.999993,2.12727e-05,0.000626175,0.00358678,0.999994,-2.36809e-06,-1.16761e-06,0.00345395,1
1860000,-0.00300067,0.011499,-0.000984575,0.999994,-2.79773e-05,0.000603885,0.00355547,0.999994,-2.36809e-06,-1.16761e-06,0.00345395,1
1888000,0.00199913,0.00949863,0.00551457,0.999994,-0.000112368,0.000624451,0.0035328,0.999994,-2.36809e-06,-1.16761e-06,0.00345395,1
1916000,0.00949902,-0.0100016,-0.00848489,0.999994,-0.00013368,0.000620205,0.00349561,0.999994,-2.36809e-06,-1.16761e-06,0.00345395,1
1944000,0.00149888,0.00749812,0.0110133,0.999993,-0.000112097,0.000674095,0.00358995,0.999994,-2.36809e-06,-1.16761e-06,0.00345395,1
1976000,0.00899866,-2.50833e-06,-0.00598752,0.999993,-0.00010547,0.000688833,0.00359688,0.999994,-2.36809e-06,-1.16761e-06,0.00345395,1
2004000,-0.00350148,-0.0180029,0.00751561,0.999993,-0.00019564,0.00065121,0.00357031,0.999994,-2.36809e-06,-1.16761e-06,0.00345395,1
2032000,0.00349837,-0.00450329,0.00351422,0.999993,-0.000190871,0.000651895,0.00365043,0.999994,-2.36809e-06,-1.16761e-06,0.00345395,1
2060000,-0.010002,-0.0100042,1.56095e-05,0.999993,-0.000219858,0.000570363,0.0036578,0.999994,-2.36809e-06,-1.16761e-06,0.00345395,1
2088000,-0.0110023,0.00399519,-0.00448162,0.999993,-0.000228347,0.000622836,0.00367309,0.999994,-2.36809e-06,-1.16761e-06,0.00345395,1
2116000,0.0129975,0.000994531,1.70344e-05,0.999994,-0.000186043,0.000705381,0.00354869,0.999994,-2.36809e-06,-1.16761e-06,0.00345395,1
2144000,-0.00250304,-0.00450678,0.0140187,0.999993,-0.00016124,0.000670808,0.00356989,0.999994,-2.36809e-06,-1.16761e-06,0.00345395,1
2176000,-0.00150335,-0.00200754,-0.0134789,0.999993,-0.000244581,0.00065162,0.00358458,0.999994,-2.36809e-06,-1.16761e-06,0.00345395,1
2204000,-0.00700368,0.00649168,-0.0039776,0.999994,-0.000348409,0.000758357,0.003512,0.999994,-2.36809e-06,-1.16761e-06,0.00345395,1
2232000,0.00249557,0.00198985,0.00252471,0.999994,-0.000286805,0.000751589,0.00352898,0.999994,-2.36809e-06,-1.16761e-06,0.00345395,1
2260000,0.0129952,-0.00801114,0.0115237,0.999993,-0.000296308,0.000766439,0.00356687,0.999994,-2.36809e-06,-1.16761e-06,0.00345395,1
2288000,0.00349478,0.00948777,-0.00847361,0.999993,-0.000246973,0.000813383,0.00359131,0.999994,-2.36809e-06,-1.16761e-06,0.00345395,1
2316000,-0.0115056,-0.00301329,0.00202277,0.999993,-0.000317562,0.000826742,0.00362097,0.999994,-2.36809e-06,-1.16761e-06,0.00345395,1
2344000,0.0039935,0.000484314,-0.00497799,0.999993,-0.000299084,0.000803278,0.00362727,0.999994,-2.36809e-06,-1.16761e-06,0.00345395,1
2376000,0.000493048,-1.70494e-05,0.0130175,0.999993,-0.000249859,0.000828567,0.00369947,0.999994,-2.36809e-06,-1.16761e-06,0.00345395,1
2404000,-0.00250737,-0.0155184,-0.00148466,0.999993,-0.000322627,0.000841435,0.00367404,0.999994,-2.36809e-06,-1.16761e-06,0.00345395,1
2436000,-0.00700811,0.00797869,0.0110137,0.999993,-0.000374501,0.000824887,0.00356028,0.999994,-2.36809e-06,-1.16761e-06,0.00345395,1
2468000,-0.00150847,0.00447702,-0.000986482,0.999993,-0.000400365,0.000853338,0.0036733,0.999994,-2.36809e-06,-1.16761e-06,0.00345395,1
2496000,-0.00750905,0.00247359,0.00751655,0.999992,-0.000440277,0.000918799,0.00378922,0.999994,-2.36809e-06,-1.16761e-06,0.00345395,1
2524000,-0.0010093,-0.00302831,2.18244e-05,0.999992,-0.000412011,0.000920325,0.00384481,0.999994,-2.36809e-06,-1.16761e-06,0.00345395,1
2552000,-0.00600958,-0.00403036,-0.0129764,0.999992,-0.000420994,0.000964492,0.00380443,0.999994,-2.36809e-06,-1.16761e-06,0.00345395,1
2580000,-0.00700969,0.00846756,-0.00147741,0.999993,-0.000435742,0.000937357,0.00371624,0.999994,-2.36809e-06,-1.16761e-06,0.00345395,1
2608000,0.000990039,0.00196293,-0.00947435,0.999993,-0.000384379,0.000905253,0.0036999,0.999994,-2.36809e-06,-1.16761e-06,0.00345395,1
2636000,0.01449,-0.00853962,0.00252446,0.999993,-0.000355041,0.000897866,0.0037201,0.999994,-2.36809e-06,-1.16761e-06,0.00345395,1
2664000,0.00498993,0.00395779,-0.00548303,0.999993,-0.000420732,0.000893782,0.00367074,0.999994,-2.36809e-06,-1.16761e-06,0.00345395,1
2692000,0.00498992,0.000455099,-0.00898778,0.999993,-0.00046043,0.000900544,0.00359267,0.999994,-2.36809e-06,-1.16761e-06,0.00345395,1
2720000,0.00599016,-0.00405081,0.0080172,0.999993,-0.000427766,0.000845296,0.00359963,0.999994,-2.36809e-06,-1.16761e-06,0.00345395,1
2748000,0.00149031,0.00294624,0.015016,0.999993,-0.000486304,0.00088338,0.00367039,0.999994,-2.36809e-06,-1.16761e-06,0.00345395,1
2776000,0.0179906,0.0114431,0.00751652,0.999993,-0.000380956,0.00095276,0.00363973,0.999994,-2.36809e-06,-1.16761e-06,0.00345395,1
2808000,0.000991319,-0.00606353,0.00152236,0.999993,-0.00031384,0.000831792,0.00360217,0.999994,-2.36809e-06,-1.16761e-06,0.00345395,1
2836000,-0.00150818,-0.00156694,-0.0119779,0.999993,-0.00029381,0.000780102,0.00356482,0.999994,-2.36809e-06,-1.16761e-06,0.00345395,1
2864000,-0.00850756,-0.0035705,-0.00197651,0.999993,-0.000356567,0.000708856,0.00355206,0.999994,-2.36809e-06,-1.16761e-06,0.00345395,1
2892000,-0.00600621,0.00692205,-0.0169779,0.999994,-0.000394851,0.000826248,0.00351113,0.999994,-2.36809e-06,-1.16761e-06,0.00345395,1
2920000,-0.00250525,-0.0110818,-0.0109825,0.999994,-0.00035215,0.00072661,0.00351973,0.999994,-2.36809e-06,-1.16761e-06,0.00345395,1
2948000,0.00549568,0.00741411,0.0100191,0.999994,-0.000276869,0.00079178,0.00352342,0.999994,-2.36809e-06,-1.16761e-06,0.00345395,1
2976000,0.00349797,-0.00259435,0.0030162,0.999993,-0.000360958,0.000752015,0.00359181,0.999994,-2.36809e-06,-1.16761e-06,0.00345395,1
3004000,-0.00700067,-9.87676e-05,-0.000987984,0.999994,-0.000429989,0.000725784,0.00348236,0.999994,-2.36809e-06,-1.16761e-06,0.00345395,1
3036000,0.000500949,0.0183966,-0.00648806,0.999994,-0.000414704,0.000740366,0.00343728,0.999994,-2.36809e-06,-1.16761e-06,0.00345395,1
3068000,0.00350419,-0.00711274,0.00201353,0.999994,-0.000420582,0.000645157,0.00343763,0.999994,-2.36809e-06,-1.16761e-06,0.00345395,1
3100000,-0.00399389,0.00988226,-0.00599301,0.999994,-0.000462694,0.000721467,0.00349229,0.999994,-2.36809e-06,-1.16761e-06,0.00345395,1
3128000,0.00951008,-0.00162769,-0.000493424,0.999994,-0.00052037,0.000701384,0.00348374,0.999994,-2.36809e-06,-1.16761e-06,0.00345395,1
3160000,0.0105122,0.00286708,-0.00898678,0.999994,-0.000429593,0.000735991,0.00344823,0.999994,-2.36809e-06,-1.16761e-06,0.00345395,1
3188000,0.00251455,-0.0131383,1.70233e-05,0.999994,-0.000468506,0.000664274,0.00342097,0.999994,-2.36809e-06,-1.16761e-06,0.00345395,1
3216000,-0.00448073,-0.00714888,0.00751593,0.999994,-0.000476155,0.000654081,0.00347018,0.999994,-2.36809e-06,-1.16761e-06,0.00345395,1
3244000,-0.000478291,-0.0136543,-0.00848572,0.999994,-0.000519065,0.000496427,0.00343421,0.999994,-2.36809e-06,-1.16761e-06,0.00345395,1
3272000,0.0145243,0.00334014,0.014011,0.999994,-0.000493359,0.000533739,0.00341975,0.999994,-2.36809e-06,-1.16761e-06,0.00345395,1
3304000,-0.000970684,-0.00117067,0.0060122,0.999994,-0.000480523,0.000542725,0.00345717,0.999994,-2.36809e-06,-1.16761e-06,0.00345395,1
3332000,0.00803192,-0.000176124,0.0060055,0.999994,-0.000440917,0.000531291,0.00353836,0.999994,-2.36809e-06,-1.16761e-06,0.00345395,1
3360000,0.00453451,-0.0131816,-0.00848737,0.999994,-0.000462958,0.000470386,0.00351647,0.999994,-2.36809e-06,-1.16761e-06,0.00345395,1
3388000,-0.0059628,-0.00868698,0.00400433,0.999993,-0.000576866,0.000440994,0.00355746,0.999994,-2.36809e-06,-1.16761e-06,0.00345395,1
3416000,-0.0114576,0.00280264,-0.00300254,0.999993,-0.000557396,0.000400623,0.00358252,0.999994,-2.36809e-06,-1.16761e-06,0.00345395,1
3448000,0.00954503,0.0117975,-0.00701111,0.999994,-0.000457468,0.000495462,0.00355252,0.999994,-2.36809e-06,-1.16761e-06,0.00345395,1
3480000,-0.00244983,-0.0112123,-0.00251475,0.999994,-0.000397876,0.00049985,0.00357315,0.999994,-2.36809e-06,-1.16761e-06,0.00345395,1
3512000,-0.00144725,-0.00571726,-0.0140152,0.999993,-0.000476868,0.000432659,0.00355854,0.999994,-2.36809e-06,-1.16761e-06,0.00345395,1
3540000,-0.000944584,-0.0037221,0.000962858,0.999994,-0.000472726,0.000399761,0.00353051,0.999994,-2.36809e-06,-1.16761e-06,0.00345395,1
3568000,0.00406061,-0.00673133,0.00196074,0.999993,-0.000425438,0.000405814,0.00358342,0.999994,-2.36809e-06,-1.16761e-06,0.00345395,1
3596000,-0.0104368,-0.00273588,-0.0080372,0.999993,-0.000381005,0.000387917,0.00361693,0.999994,-2.36809e-06,-1.16761e-06,0.00345395,1
3628000,-0.0184342,0.00125962,0.0159543,0.999993,-0.000513378,0.000310514,0.00366295,0.999994,-2.36809e-06,-1.16761e-06,0.00345395,1
3660000,-0.00242894,0.017251,-0.00404896,0.999993,-0.000537075,0.000392328,0.00369823,0.999994,-2.36809e-06,-1.16761e-06,0.00345395,1
3692000,-0.00592625,-0.00525322,-0.000565812,0.999993,-0.000593549,0.000414238,0.00368345,0.999994,-2.36809e-06,-1.16761e-06,0.00345395,1
3724000,-0.013421,-0.00226125,-0.00307793,0.999993,-0.00068563,0.000389894,0.00361826,0.999994,-2.36809e-06,-1.16761e-06,0.00345395,1
3752000,0.00458165,-0.00476512,0.00490852,0.999993,-0.000629541,0.000330375,0.00361166,0.999994,-2.36809e-06,-1.16761e-06,0.00345395,1
3780000,8.43451e-05,-0.00576898,0.00140655,0.999993,-0.000635193,0.000214841,0.00365922,0.999994,-2.36809e-06,-1.16761e-06,0.00345395,1
3812000,-0.00441045,0.00472376,-0.00210211,0.999993,-0.000510051,0.000209803,0.00366741,0.999994,-2.36809e-06,-1.16761e-06,0.00345395,1
3840000,-0.0034078,-0.00377971,0.0138857,0.999993,-0.000568989,0.000224367,0.00375539,0.999994,-2.36809e-06,-1.16761e-06,0.00345395,1
3868000,-0.00690521,-0.014783,0.0133892,0.999993,-0.000592622,0.000181063,0.00368958,0.999994,-2.36809e-06,-1.16761e-06,0.00345395,1
3900000,0.00259999,0.00471048,-0.00262492,0.999993,-0.000595302,0.000186263,0.00375162,0.999994,-2.36809e-06,-1.16761e-06,0.00345395,1
3932000,-0.0058974,-0.000292678,-0.00512478,0.999993,-0.000616833,0.000141717,0.00375153,0.999994,-2.36809e-06,-1.16761e-06,0.00345395,1
3960000,0.00660757,0.00370151,0.000371657,0.999993,-0.000465526,0.000169709,0.00374102,0.999994,-2.36809e-06,-1.16761e-06,0.00345395,1
3988000,-0.00138999,0.00219874,-0.00262771,0.999993,-0.000442896,0.000101452,0.00365805,0.999994,-2.36809e-06,-1.16761e-06,0.00345395,1
4016000,0.00911243,-0.00180395,0.00985948,0.999993,-0.000384175,-3.36755e-07,0.00369014,0.999994,-2.36809e-06,-1.16761e-06,0.00345395,1
4044000,0.00361471,-0.00080645,0.00736608,0.999993,-0.000388524,-6.52029e-05,0.00371442,0.999994,-2.36809e-06,-1.16761e-06,0.00345395,1
4072000,0.000119142,-0.00081118,0.00486159,0.999993,-0.000425153,-5.99594e-05,0.00367337,0.999994,-2.36809e-06,-1.16761e-06,0.00345395,1
4100000,-0.00437873,-0.00881334,-0.0186402,0.999994,-0.000460794,-7.04649e-05,0.00355745,0.999994,-2.36809e-06,-1.16761e-06,0.00345395,1
4128000,0.00362329,0.00568454,0.00485871,0.999994,-0.000430285,-0.00012747,0.00353609,0.999994,-2.36809e-06,-1.16761e-06,0.00345395,1
4156000,0.0106252,-0.00131742,-0.00515209,0.999994,-0.000495884,-0.000183514,0.00353605,0.999994,-2.36809e-06,-1.16761e-06,0.00345395,1
4184000,0.00462904,-0.00282093,-0.00165735,0.999994,-0.00050382,-0.000167073,0.00352773,0.999994,-2.36809e-06,-1.16761e-06,0.00345395,1
4216000,0.00113081,0.00717752,-0.00615057,0.999994,-0.000552959,-0.000105002,0.00346448,0.999994,-2.36809e-06,-1.16761e-06,0.00345395,1
4244000,-0.000867389,-0.00832389,-0.0066527,0.999994,-0.000524717,-0.000197803,0.00348211,0.999994,-2.36809e-06,-1.16761e-06,0.00345395,1
4276000,0.000136106,0.00317373,-0.00415346,0.999994,-0.000461797,-0.000230533,0.00345925,0.999994,-2.36809e-06,-1.16761e-06,0.00345395,1
4304000,0.00163776,-0.0123272,0.00335311,0.999994,-0.000471125,-0.000208791,0.00344212,0.999994,-2.36809e-06,-1.16761e-06,0.00345395,1
4332000,0.00663946,0.000671924,-0.00515754,0.999994,-0.000437415,-0.000231559,0.0034032,0.999994,-2.36809e-06,-1.16761e-06,0.00345395,1
4364000,0.00364266,-0.00482946,0.00234653,0.999994,-0.000411813,-0.000245227,0.00334663,0.999994,-2.36809e-06,-1.16761e-06,0.00345395,1
4396000,0.00814423,0.00317009,0.00334702,0.999994,-0.000400513,-0.000235375,0.00344799,0.999994,-2.36809e-06,-1.16761e-06,0.00345395,1
4428000,-0.00485258,0.00516944,0.00735196,0.999994,-0.000404878,-0.000332176,0.00335594,0.999994,-2.36809e-06,-1.16761e-06,0.00345395,1
4456000,-0.00335103,0.00816923,0.00985154,0.999994,-0.000403531,-0.000346404,0.00342993,0.999994,-2.36809e-06,-1.16761e-06,0.00345395,1
4488000,-0.00884794,-0.0053306,-0.00414847,0.999994,-0.000409174,-0.000403288,0.00336899,0.999994,-2.36809e-06,-1.16761e-06,0.00345395,1
4516000,-0.0108464,-0.00783038,-0.00513233,0.999994,-0.000496111,-0.000362057,0.00331516,0.999994,-2.36809e-06,-1.16761e-06,0.00345395,1
4548000,-0.00384478,-0.00632999,0.00486975,0.999994,-0.000488716,-0.000487937,0.00330922,0.999994,-2.36809e-06,-1.16761e-06,0.00345395,1
4576000,-0.00184166,0.0146712,-0.00312489,0.999994,-0.000560755,-0.000432741,0.00334157,0.999994,-2.36809e-06,-1.16761e-06,0.00345395,1
4604000,-0.00883996,0.0131721,0.00837256,0.999994,-0.000574714,-0.000408946,0.00338304,0.999994,-2.36809e-06,-1.16761e-06,0.00345395,1
4632000,-0.00133815,-0.00832692,0.000369016,0.999994,-0.000643544,-0.000418953,0.00335985,0.999994,-2.36809e-06,-1.16761e-06,0.00345395,1
4660000,0.00316363,0.00517419,0.0133755,0.999994,-0.000655213,-0.000453266,0.00340657,0.999994,-2.36809e-06,-1.16761e-06,0.00345395,1
4688000,-0.00133265,0.00867677,-0.00113037,0.999994,-0.000617113,-0.000394956,0.00344792,0.999994,-2.36809e-06,-1.16761e-06,0.00345395,1
4720000,-0.0103307,0.0056783,-0.00613869,0.999994,-0.000566739,-0.000419642,0.00347587,0.999994,-2.36809e-06,-1.16761e-06,0.00345395,1
4748000,-0.00082872,0.000679898,-0.00364163,0.999994,-0.000581111,-0.000431589,0.0034242,0.999994,-2.36809e-06,-1.16761e-06,0.00345395,1
4780000,0.00017544,-0.000316422,0.0103605,0.999994,-0.000578435,-0.000426255,0.00343308,0.999994,-2.36809e-06,-1.16761e-06,0.00345395,1
4812000,-0.0113223,0.00268565,0.00235661,0.999994,-0.000643803,-0.000361614,0.00340899,0.999994,-2.36809e-06,-1.16761e-06,0.00345395,1
4840000,0.0131822,0.00219006,0.00984529,0.999994,-0.000556603,-0.000366564,0.00338967,0.999994,-2.36809e-06,-1.16761e-06,0.00345395,1
4868000,-0.00231552,-0.0158075,0.0143481,0.999994,-0.000471983,-0.000449069,0.00339693,0.999994,-2.36809e-06,-1.16761e-06,0.00345395,1
4900000,-0.00131293,-0.00380496,-0.00465418,0.999994,-0.000435309,-0.000469309,0.00341713,0.999994,-2.36809e-06,-1.16761e-06,0.00345395,1
4932000,0.00769224,0.00870025,0.00184743,0.999994,-0.000377175,-0.000479696,0.00342437,0.999994,-2.36809e-06,-1.16761e-06,0.00345395,1
4964000,-0.0108049,0.00170305,0.00784542,0.999994,-0.000319925,-0.000441586,0.00339597,0.999994,-2.36809e-06,-1.16761e-06,0.00345395,1
4992000,0.0117009,-0.00129093,-0.00615838,0.999994,-0.000305286,-0.000464204,0.00336644,0.999994,-2.36809e-06,-1.16761e-06,0.00345395,1
5020000,0.00370398,-0.00778771,-0.00816379,0.999994,-0.000194334,-0.000455927,0.00333439,0.999994,-2.36809e-06,-1.16761e-06,0.00345395,1
5052000,0.000207186,-0.00328444,-0.00165546,0.999994,-0.000209489,-0.000527301,0.00328663,0.999994,-2.36809e-06,-1.16761e-06,0.00345395,1
5080000,-0.00228619,0.00122236,-0.00216266,0.999995,-0.000165862,-0.000508282,0.00325733,0.999994,-2.36809e-06,-1.16761e-06,0.00345395,1
5108000,0.00621728,0.00772586,-0.000665543,0.999995,-0.000155996,-0.000410811,0.0032092,0.999994,-2.36809e-06,-1.16761e-06,0.00345395,1
5136000,-0.00777913,-0.00527047,-0.000659308,0.999995,-0.000142501,-0.000404954,0.0031155,0.999994,-2.36809e-06,-1.16761e-06,0.00345395,1
5168000,-0.0107717,0.000236924,0.00134875,0.999995,-0.000125863,-0.000444977,0.00307534,0.999994,-2.36809e-06,-1.16761e-06,0.00345395,1
5200000,-0.000767872,-0.00675933,-0.0111487,0.999995,-0.000230669,-0.000441665,0.0030217,0.999994,-2.36809e-06,-1.16761e-06,0.00345395,1
5228000,-0.006264,0.0052446,-0.00214859,0.999995,-0.000272776,-0.000441502,0.00299934,0.999994,-2.36809e-06,-1.16761e-06,0.00345395,1
5260000,-0.00975614,0.00575256,0.00484492,0.999995,-0.000408745,-0.000396251,0.00301911,0.999994,-2.36809e-06,-1.16761e-06,0.00345395,1
5292000,0.0102478,0.00275669,-0.00965595,0.999995,-0.000294959,-0.000416678,0.00303372,0.999994,-2.36809e-06,-1.16761e-06,0.00345395,1
5320000,0.00175191,-0.000739184,0.0138442,0.999995,-0.000276633,-0.000457978,0.00304107,0.999994,-2.36809e-06,-1.16761e-06,0.00345395,1
5348000,-0.0162399,-0.00523083,0.0158534,0.999995,-0.00029487,-0.000471818,0.00311874,0.999994,-2.36809e-06,-1.16761e-06,0.00345395,1
5376000,0.000264258,-0.000726585,-0.00715128,0.999995,-0.00025571,-0.000481157,0.00307609,0.999994,-2.36809e-06,-1.16761e-06,0.00345395,1
5404000,-0.00223152,-0.000722265,-0.000149281,0.999995,-0.000212195,-0.0005192,0.00306116,0.999994,-2.36809e-06,-1.16761e-06,0.00345395,1
5432000,-0.002223,0.000286389,-0.00214394,0.999995,-0.000277265,-0.000568212,0.00303485,0.999994,-2.36809e-06,-1.16761e-06,0.00345395,1
5464000,0.00028127,0.0112907,-0.0121403,0.999995,-0.000211824,-0.000566116,0.00298983,0.999994,-2.36809e-06,-1.16761e-06,0.00345395,1
5496000,-0.00921437,0.00879515,-0.0086358,0.999995,-0.000242482,-0.000461081,0.00298011,0.999994,-2.36809e-06,-1.16761e-06,0.00345395,1
5524000,0.0017943,0.00630393,-0.00312147,0.999995,-0.000264575,-0.000448798,0.00298985,0.999994,-2.36809e-06,-1.16761e-06,0.00345395,1
5552000,-0.0127014,0.0023083,-0.00261448,0.999995,-0.00029537,-0.000454282,0.00303696,0.999994,-2.36809e-06,-1.16761e-06,0.00345395,1
5580000,0.000303028,-0.00418726,-0.0151032,0.999996,-0.000231052,-0.000417356,0.00293335,0.999994,-2.36809e-06,-1.16761e-06,0.00345395,1
5612000,-0.0066883,0.000321535,-0.0110988,0.999996,-0.000239025,-0.000377866,0.00287743,0.999994,-2.36809e-06,-1.16761e-06,0.00345395,1
5644000,-0.00468393,-0.000174063,0.00589619,0.999996,-0.000252615,-0.000359072,0.00283323,0.999994,-2.36809e-06,-1.16761e-06,0.00345395,1
5672000,-0.00517954,0.00783041,0.00289752,0.999996,-0.000208623,-0.00031748,0.00286809,0.999994,-2.36809e-06,-1.16761e-06,0.00345395,1
5700000,-0.00467078,-0.0096606,-0.0101037,0.999996,-0.000245127,-0.000303744,0.0027907,0.999994,-2.36809e-06,-1.16761e-06,0.00345395,1
5732000,0.0048337,-0.00815609,0.0103972,0.999996,-0.000221819,-0.000345056,0.00284153,0.999994,-2.36809e-06,-1.16761e-06,0.00345395,1
5760000,0.00283806,-0.00465156,-0.00960489,0.999996,-0.00022305,-0.000353947,0.00283318,0.999994,-2.36809e-06,-1.16761e-06,0.00345395,1
5788000,0.00434679,0.0128576,-0.00110176,0.999996,-0.000147414,-0.000195213,0.00287466,0.999994,-2.36809e-06,-1.16761e-06,0.00345395,1
5820000,-0.000648849,0.00186215,-9.95858e-05,0.999996,-0.000222794,-0.000119081,0.00283598,0.999994,-2.36809e-06,-1.16761e-06,0.00345395,1
5848000,-0.000144452,0.0158668,-0.00810079,0.999996,-0.000145584,-0.000110094,0.00289464,0.999994,-2.36809e-06,-1.16761e-06,0.00345395,1
5876000,0.00786408,0.00787613,0.00590912,0.999996,-0.000108275,-2.48221e-05,0.00292752,0.999994,-2.36809e-06,-1.16761e-06,0.00345395,1
5904000,0.00636833,-0.00811919,0.00841493,0.999996,-7.36805e-05,-9.37298e-06,0.00299322,0.999994,-2.36809e-06,-1.16761e-06,0.00345395,1
5932000,0.0148726,0.00238556,0.0059221,0.999996,8.65216e-06,9.53278e-05,0.00296586,0.999994,-2.36809e-06,-1.16761e-06,0.00345395,1
5964000,0.00338095,0.00239533,-0.00407782,0.999995,4.30499e-05,0.000130058,0.00300624,0.999994,-2.36809e-06,-1.16761e-06,0.00345395,1
5992000,-0.00311497,-0.0125998,0.000424546,0.999996,6.39751e-05,0.000124228,0.00297448,0.999994,-2.36809e-06,-1.16761e-06,0.00345395,1
6020000,-0.00511085,-0.000594806,0.00792629,0.999996,6.60921e-05,4.44865e-05,0.00295374,0.999994,-2.36809e-06,-1.16761e-06,0.00345395,1
6052000,0.00239716,-0.00758492,0.00394178,0.999996,0.000170925,-6.4141e-07,0.00295505,0.999994,-2.36809e-06,-1.16761e-06,0.00345395,1
6080000,0.000901061,-0.00257997,0.00194062,0.999996,0.000149023,-2.2771e-05,0.00295672,0.999994,-2.36809e-06,-1.16761e-06,0.00345395,1
6108000,-0.00809506,0.00242501,-0.000554,0.999995,0.000127014,-3.67683e-05,0.00302035,0.999994,-2.36809e-06,-1.16761e-06,0.00345395,1
6136000,-0.00758748,0.00793478,-0.00103996,0.999996,8.10023e-05,-4.95606e-05,0.00298035,0.999994,-2.36809e-06,-1.16761e-06,0.00345395,1
6164000,0.00541625,0.00243957,-3.45603e-05,0.999995,0.000178974,-2.35482e-05,0.00303878,0.999994,-2.36809e-06,-1.16761e-06,0.00345395,1
6192000,0.00741999,-0.00555561,-0.00253057,0.999995,0.000192674,4.0257e-05,0.00301086,0.999994,-2.36809e-06,-1.16761e-06,0.00345395,1
6220000,-0.00657635,-0.00155087,0.00447534,0.999995,0.000210483,3.01303e-05,0.0030736,0.999994,-2.36809e-06,-1.16761e-06,0.00345395,1
6248000,-0.00206946,-0.0130418,-0.00501491,0.999996,0.000222429,2.04374e-05,0.00293627,0.999994,-2.36809e-06,-1.16761e-06,0.00345395,1
6276000,0.00843408,0.00896261,0.00349207,0.999996,0.000233106,4.56725e-05,0.00292071,0.999994,-2.36809e-06,-1.16761e-06,0.00345395,1
6308000,0.00143735,0.00546696,0.0129963,0.999995,0.000302283,4.60842e-05,0.00307306,0.999994,-2.36809e-06,-1.16761e-06,0.00345395,1
6340000,-0.0205563,-0.00252483,-0.000986541,0.999995,0.000292623,1.95615e-05,0.00313278,0.999994,-2.36809e-06,-1.16761e-06,0.00345395,1
6372000,0.00844681,0.00447915,0.00952576,0.999995,0.000307209,0.000114811,0.00312223,0.999994,-2.36809e-06,-1.16761e-06,0.00345395,1
6400000,0.000952652,-1.32131e-05,0.00103794,0.999995,0.000382131,0.000168952,0.00315983,0.999994,-2.36809e-06,-1.16761e-06,0.00345395,1
6432000,-0.0145445,0.00249046,0.00304177,0.999995,0.000382573,0.000199954,0.00314372,0.999994,-2.36809e-06,-1.16761e-06,0.00345395,1
6464000,0.00395824,-0.00950595,-0.000954224,0.999995,0.000377894,0.000141466,0.00318534,0.999994,-2.36809e-06,-1.16761e-06,0.00345395,1
6492000,0.0134636,-0.00899891,-0.00393638,0.999995,0.000488462,0.000122226,0.00317553,0.999994,-2.36809e-06,-1.16761e-06,0.00345395,1
6520000,-0.00453385,-0.00199546,0.00706348,0.999995,0.000488533,0.000185355,0.00320599,0.999994,-2.36809e-06,-1.16761e-06,0.00345395,1
6552000,-0.0025313,7.93469e-06,-0.00943105,0.999995,0.000545193,9.62672e-05,0.0032497,0.999994,-2.36809e-06,-1.16761e-06,0.00345395,1
6584000,0.00597346,0.00251465,-0.00441,0.999995,0.00060012,0.000177085,0.0032606,0.999994,-2.36809e-06,-1.16761e-06,0.00345395,1
6612000,-0.00902433,0.0100179,0.00959266,0.999994,0.000619341,0.000264526,0.00332641,0.999994,-2.36809e-06,-1.16761e-06,0.00345395,1
6640000,0.0094778,0.00302112,0.00559471,0.999994,0.000570615,0.000232399,0.00339709,0.999994,-2.36809e-06,-1.16761e-06,0.00345395,1
6668000,0.00148162,-0.00347265,0.00160706,0.999994,0.000596437,0.000273498,0.00343486,0.999994,-2.36809e-06,-1.16761e-06,0.00345395,1
6696000,0.00198333,0.00553041,0.00111567,0.999994,0.000613053,0.000275323,0.00348789,0.999994,-2.36809e-06,-1.16761e-06,0.00345395,1
6724000,-0.00201503,-0.00896656,-0.00538609,0.999994,0.000688412,0.000240126,0.00349009,0.999994,-2.36809e-06,-1.16761e-06,0.00345395,1
6756000,-0.00301214,0.00403929,-0.0118775,0.999994,0.000657519,0.000202212,0.00344998,0.999994,-2.36809e-06,-1.16761e-06,0.00345395,1
6784000,-0.00201092,-0.0044579,-0.00837162,0.999994,0.000666158,0.000143472,0.0034367,0.999994,-2.36809e-06,-1.16761e-06,0.00345395,1
6812000,-0.00400987,-0.0129552,0.00463436,0.999994,0.000695312,0.00010145,0.00355322,0.999994,-2.36809e-06,-1.16761e-06,0.00345395,1
6840000,-0.00300818,0.00305005,-0.00285327,0.999993,0.000671536,0.000181117,0.00356986,0.999994,-2.36809e-06,-1.16761e-06,0.00345395,1
6868000,0.00549248,-0.00844741,-0.0038486,0.999993,0.000693483,0.000211863,0.0035757,0.999994,-2.36809e-06,-1.16761e-06,0.00345395,1
6896000,-0.00350706,-0.00344495,0.000155423,0.999994,0.000653148,0.000162112,0.0035409,0.999994,-2.36809e-06,-1.16761e-06,0.00345395,1
6924000,-0.00200671,-0.0084425,0.00316328,0.999994,0.000685074,0.000170346,0.00354513,0.999994,-2.36809e-06,-1.16761e-06,0.00345395,1
6952000,0.0019937,0.00256218,0.0111674,0.999993,0.000709255,0.000233472,0.00360363,0.999994,-2.36809e-06,-1.16761e-06,0.00345395,1
6980000,-0.00300635,-0.00393547,-0.00632897,0.999993,0.000687148,0.000214214,0.00362173,0.999994,-2.36809e-06,-1.16761e-06,0.00345395,1
7008000,-0.0110065,0.00656684,0.0046839,0.999993,0.000721384,0.000206916,0.00361718,0.999994,-2.36809e-06,-1.16761e-06,0.00345395,1
7036000,-0.0050068,-0.00393087,0.00419296,0.999993,0.000788823,0.000250695,0.00360569,0.999994,-2.36809e-06,-1.16761e-06,0.00345395,1
7064000,0.0214923,7.36391e-05,0.00622062,0.999993,0.000834786,0.000256187,0.00368337,0.999994,-2.36809e-06,-1.16761e-06,0.00345395,1
7096000,0.00249157,-0.00392403,-0.00627574,0.999993,0.000828232,0.000268815,0.00369054,0.999994,-2.36809e-06,-1.16761e-06,0.00345395,1
7124000,0.000990776,-0.00142179,0.00624415,0.999992,0.000873138,0.000191059,0.00379003,0.999994,-2.36809e-06,-1.16761e-06,0.00345395,1
7156000,-0.000511208,0.00858262,-0.00574121,0.999992,0.0008709,0.000218541,0.00382353,0.999994,-2.36809e-06,-1.16761e-06,0.00345395,1
7184000,0.0159876,-0.00291527,0.0147624,0.999992,0.000901533,0.000114473,0.0039166,0.999994,-2.36809e-06,-1.16761e-06,0.00345395,1
7216000,0.00848491,-0.011411,0.00828178,0.999992,0.000960877,8.6001e-05,0.0039967,0.999994,-2.36809e-06,-1.16761e-06,0.00345395,1
7244000,-1.66331e-05,0.00709105,-0.00521749,0.999991,0.000993556,0.000105946,0.00402182,0.999994,-2.36809e-06,-1.16761e-06,0.00345395,1
7276000,0.00148172,-0.00590687,-0.00121278,0.999991,0.000959258,0.000102855,0.00406413,0.999994,-2.36809e-06,-1.16761e-06,0.00345395,1
7308000,0.000978197,0.00209716,0.00980385,0.999991,0.000991708,0.000161125,0.00414626,0.999994,-2.36809e-06,-1.16761e-06,0.00345395,1
7336000,-0.00102374,0.00909912,0.00330719,0.999991,0.000956328,0.000158634,0.00413549,0.999994,-2.36809e-06,-1.16761e-06,0.00345395,1
7368000,-0.00252781,-0.00539699,0.00133891,0.999991,0.0010396,0.000149841,0.00423416,0.999994,-2.36809e-06,-1.16761e-06,0.00345395,1
7400000,0.00447008,0.000604904,0.00384292,0.99999,0.00105425,7.78606e-05,0.0042728,0.999994,-2.36809e-06,-1.16761e-06,0.00345395,1
7428000,0.00196789,-0.00889317,-0.00764367,0.99999,0.00108184,8.75131e-05,0.00423961,0.999994,-2.36809e-06,-1.16761e-06,0.00345395,1
7456000,-3.65387e-05,0.00461051,-0.00363455,0.999991,0.00106897,7.19326e-05,0.00422516,0.999994,-2.36809e-06,-1.16761e-06,0.00345395,1
7488000,0.00396116,0.00361233,0.00637399,0.99999,0.00112715,0.000113973,0.00426063,0.999994,-2.36809e-06,-1.16761e-06,0.00345395,1
7516000,-0.00554123,0.0126141,0.00538895,0.99999,0.00115403,0.0001394,0.00429419,0.999994,-2.36809e-06,-1.16761e-06,0.00345395,1
7548000,0.0114539,0.00361751,0.00289089,0.99999,0.00122005,0.000184298,0.00433455,0.999994,-2.36809e-06,-1.16761e-06,0.00345395,1
7580000,-0.000548584,-0.00138081,0.00438766,0.99999,0.00122537,0.000253893,0.00434029,0.999994,-2.36809e-06,-1.16761e-06,0.00345395,1
7608000,-0.00355115,-0.00087915,-0.0161061,0.99999,0.00115672,0.000305663,0.00436853,0.999994,-2.36809e-06,-1.16761e-06,0.00345395,1
7636000,0.00144372,-0.00387604,0.00539268,0.99999,0.00115981,0.00029282,0.00434012,0.999994,-2.36809e-06,-1.16761e-06,0.00345395,1
7664000,-0.00905894,0.0101255,-0.0106015,0.99999,0.00110238,0.000320539,0.00436121,0.999994,-2.36809e-06,-1.16761e-06,0.00345395,1
7692000,0.00843843,-0.000872999,0.00840042,0.99999,0.00109382,0.000321291,0.00442693,0.999994,-2.36809e-06,-1.16761e-06,0.00345395,1
7720000,0.015433,0.000129919,0.00541952,0.999989,0.00122176,0.000353583,0.00445504,0.999994,-2.36809e-06,-1.16761e-06,0.00345395,1
7748000,0.00393017,-0.00186873,0.00792526,0.999989,0.00116762,0.000305015,0.00449514,0.999994,-2.36809e-06,-1.16761e-06,0.00345395,1
7776000,0.00542729,0.0036326,0.00192675,0.999989,0.00117695,0.000330512,0.00456132,0.999994,-2.36809e-06,-1.16761e-06,0.00345395,1
7804000,0.00442433,-0.0103661,-0.00456722,0.999989,0.00121392,0.000376043,0.00456663,0.999994,-2.36809e-06,-1.16761e-06,0.00345395,1
7832000,-0.00208147,0.00563645,0.0114313,0.999989,0.00115452,0.000387115,0.00456143,0.999994,-2.36809e-06,-1.16761e-06,0.00345395,1
7860000,0.00241547,0.00313767,-0.00757683,0.999989,0.00110585,0.000409053,0.00456299,0.999994,-2.36809e-06,-1.16761e-06,0.00345395,1
7892000,0.0034123,-0.00836112,-0.0010745,0.999989,0.00100019,0.000429562,0.00466418,0.999994,-2.36809e-06,-1.16761e-06,0.00345395,1
7920000,0.00140599,0.00164125,0.00392189,0.999989,0.000954852,0.000423283,0.00465857,0.999994,-2.36809e-06,-1.16761e-06,0.00345395,1
7948000,-0.00709731,-0.00185762,0.00592964,0.999988,0.000883621,0.000355607,0.004768,0.999994,-2.36809e-06,-1.16761e-06,0.00345395,1
7976000,0.00289931,0.00364348,0.0169341,0.999988,0.000928698,0.000381382,0.00479881,0.999994,-2.36809e-06,-1.16761e-06,0.00345395,1
8004000,0.0123961,0.0141446,-0.00706677,0.999988,0.000988391,0.000378215,0.00477672,0.999994,-2.36809e-06,-1.16761e-06,0.00345395,1
8032000,0.00388917,-0.00335333,0.00193625,0.999988,0.00104861,0.000402899,0.00477767,0.999994,-2.36809e-06,-1.16761e-06,0.00345395,1
8060000,-0.000114395,0.00314766,-0.0180609,0.999988,0.00107262,0.000420222,0.00481537,0.999994,-2.36809e-06,-1.16761e-06,0.00345395,1
8092000,-0.00661788,-0.00035129,0.0014454,0.999988,0.000990099,0.000403036,0.00479076,0.999994,-2.36809e-06,-1.16761e-06,0.00345395,1
8120000,0.00337488,-0.00634933,0.0094517,0.999988,0.0009506,0.000338913,0.00478185,0.999994,-2.36809e-06,-1.16761e-06,0.00345395,1
8148000,-0.00212877,-0.00184832,-4.16285e-05,0.999988,0.000931574,0.000332779,0.00476865,0.999994,-2.36809e-06,-1.16761e-06,0.00345395,1
8176000,0.000367642,-0.00684739,-0.00803157,0.999988,0.000953279,0.00027779,0.00475283,0.999994,-2.36809e-06,-1.16761e-06,0.00345395,1
8208000,0.0148602,0.00865436,0.00498574,0.999988,0.00104163,0.000359984,0.00472837,0.999994,-2.36809e-06,-1.16761e-06,0.00345395,1
8236000,0.00685643,0.00965532,0.0109909,0.999988,0.00106832,0.000401715,0.00480217,0.999994,-2.36809e-06,-1.16761e-06,0.00345395,1
8268000,-0.00964722,0.00365626,-0.00550325,0.999988,0.00103007,0.000427183,0.00472375,0.999994,-2.36809e-06,-1.16761e-06,0.00345395,1
8296000,0.0113454,0.00365789,-0.00850033,0.999988,0.00102775,0.000447742,0.00476869,0.999994,-2.36809e-06,-1.16761e-06,0.00345395,1
8324000,0.00384169,0.00115869,-0.00599842,0.999988,0.00106863,0.000393454,0.00475815,0.999994,-2.36809e-06,-1.16761e-06,0.00345395,1
8352000,-0.00616203,0.0156595,0.00349986,0.999988,0.00100406,0.000419516,0.00477806,0.999994,-2.36809e-06,-1.16761e-06,0.00345395,1
8380000,0.00383052,0.00416099,0.0155044,0.999988,0.00101071,0.000518824,0.00486007,0.999994,-2.36809e-06,-1.16761e-06,0.00345395,1
8408000,0.000326842,-0.00033833,0.0149891,0.999988,0.00106351,0.000533372,0.00483299,0.999994,-2.36809e-06,-1.16761e-06,0.00345395,1
8440000,0.00482303,0.00266244,0.0119996,0.999987,0.00100885,0.000496016,0.00494495,0.999994,-2.36809e-06,-1.16761e-06,0.00345395,1
8472000,0.000315419,-0.00333619,-0.0144807,0.999987,0.00103897,0.000591106,0.00495853,0.999994,-2.36809e-06,-1.16761e-06,0.00345395,1
8500000,-0.0151883,0.0051644,0.00202797,0.999987,0.000874346,0.00056131,0.00492298,0.999994,-2.36809e-06,-1.16761e-06,0.00345395,1
8532000,0.0028079,0.010165,0.00753126,0.999987,0.000835858,0.000561719,0.00498846,0.999994,-2.36809e-06,-1.16761e-06,0.00345395,1
8564000,0.00230035,-0.00533391,0.00154649,0.999987,0.000825603,0.000583244,0.00498566,0.999994,-2.36809e-06,-1.16761e-06,0.00345395,1
8592000,-0.00370337,-0.00483339,0.00354349,0.999987,0.000891551,0.000565089,0.00508846,0.999994,-2.36809e-06,-1.16761e-06,0.00345395,1
8620000,0.00529285,-0.00183286,0.00503871,0.999987,0.000885552,0.000521545,0.00508196,0.999994,-2.36809e-06,-1.16761e-06,0.00345395,1
8648000,0.00728534,0.0116681,0.0125368,0.999986,0.00090804,0.000497975,0.00519229,0.999994,-2.36809e-06,-1.16761e-06,0.00345395,1
8676000,-0.00971842,0.00266859,0.00753947,0.999986,0.000872716,0.000439015,0.0052534,0.999994,-2.36809e-06,-1.16761e-06,0.00345395,1
8704000,-0.00522215,0.0081691,0.00303398,0.999986,0.000808905,0.000476853,0.00523084,0.999994,-2.36809e-06,-1.16761e-06,0.00345395,1
8732000,-0.00672967,-0.00432996,-0.00996141,0.999986,0.000813583,0.000547971,0.00523577,0.999994,-2.36809e-06,-1.16761e-06,0.00345395,1
8764000,-0.00523339,0.00417054,0.00553982,0.999985,0.000681599,0.000548934,0.00531889,0.999994,-2.36809e-06,-1.16761e-06,0.00345395,1
8796000,-0.00623715,-0.010329,0.00804338,0.999985,0.000724685,0.000556742,0.00534128,0.999994,-2.36809e-06,-1.16761e-06,0.00345395,1
8828000,-0.00324457,0.00317191,0.00353633,0.999986,0.000731235,0.000555375,0.00530536,0.999994,-2.36809e-06,-1.16761e-06,0.00345395,1
8856000,-0.0027483,0.00817237,-0.00546347,0.999986,0.00066895,0.000555848,0.00529568,0.999994,-2.36809e-06,-1.16761e-06,0.00345395,1
8888000,0.00924786,0.00467283,0.00204225,0.999986,0.000702874,0.000594405,0.00527968,0.999994,-2.36809e-06,-1.16761e-06,0.00345395,1
8916000,-0.000759773,0.00817382,0.00555147,0.999986,0.000711597,0.00060015,0.0052849,0.999994,-2.36809e-06,-1.16761e-06,0.00345395,1
8944000,0.00173653,0.0101743,0.00304785,0.999986,0.000730929,0.000656979,0.00522955,0.999994,-2.36809e-06,-1.16761e-06,0.00345395,1
8972000,0.00623275,0.0146748,0.00405139,0.999986,0.000763015,0.000775789,0.00527763,0.999994,-2.36809e-06,-1.16761e-06,0.00345395,1
9000000,-0.0227746,0.00617599,-0.0084407,0.999986,0.000798214,0.000835729,0.00521025,0.999994,-2.36809e-06,-1.16761e-06,0.00345395,1
9032000,-0.00127827,-0.00232351,0.00855791,0.999986,0.000816579,0.000800276,0.00519455,0.999994,-2.36809e-06,-1.16761e-06,0.00345395,1
9064000,0.000218086,-0.00882295,-0.006933,0.999986,0.000699956,0.000783187,0.00513714,0.999994,-2.36809e-06,-1.16761e-06,0.00345395,1
9092000,-0.00328904,0.00517828,0.00706956,0.999986,0.000600062,0.000783577,0.00514572,0.999994,-2.36809e-06,-1.16761e-06,0.00345395,1
9124000,-0.00879253,0.0011789,0.00556397,0.999986,0.000614987,0.000797311,0.0052033,0.999994,-2.36809e-06,-1.16761e-06,0.00345395,1
9156000,-0.00929602,0.00367955,0.00556507,0.999986,0.000542052,0.000819664,0.00524089,0.999994,-2.36809e-06,-1.16761e-06,0.00345395,1
9184000,0.000697104,0.00368075,-0.000933189,0.999985,0.000513772,0.000860655,0.00533128,0.999994,-2.36809e-06,-1.16761e-06,0.00345395,1
9212000,0.000693737,0.00968137,0.00856593,0.999985,0.000498825,0.000857787,0.00538443,0.999994,-2.36809e-06,-1.16761e-06,0.00345395,1
9244000,0.00519038,0.00418198,-0.008447,0.999985,0.000428006,0.000843443,0.00537467,0.999994,-2.36809e-06,-1.16761e-06,0.00345395,1
9276000,-0.0028162,0.0126832,0.00154606,0.999985,0.000417083,0.00096659,0.00535617,0.999994,-2.36809e-06,-1.16761e-06,0.00345395,1
9308000,0.00268055,0.00318375,-0.00594944,0.999985,0.000410917,0.00100978,0.00534068,0.999994,-2.36809e-06,-1.16761e-06,0.00345395,1
9340000,-0.00682592,0.0026849,0.00553635,0.999985,0.000446799,0.00104525,0.00533836,0.999994,-2.36809e-06,-1.16761e-06,0.00345395,1
9372000,-0.00382907,-0.00331456,0.0005279,0.999985,0.000414112,0.0010064,0.00534136,0.999994,-2.36809e-06,-1.16761e-06,0.00345395,1
9400000,-0.00533534,0.0106865,-0.00598984,0.999985,0.000428167,0.00103704,0.00529494,0.999994,-2.36809e-06,-1.16761e-06,0.00345395,1
9432000,0.000661458,-0.00231304,-0.0054928,0.999986,0.000379476,0.0010451,0.00527447,0.999994,-2.36809e-06,-1.16761e-06,0.00345395,1
9464000,0.00315529,0.00868793,-0.00551151,0.999986,0.000478365,0.00109599,0.00517905,0.999994,-2.36809e-06,-1.16761e-06,0.00345395,1
9496000,-0.00684776,-0.00831163,0.00947578,0.999986,0.000399736,0.00110984,0.00517751,0.999994,-2.36809e-06,-1.16761e-06,0.00345395,1
9528000,0.00264623,0.0146891,-0.0135293,0.999986,0.000459681,0.00122437,0.00511316,0.999994,-2.36809e-06,-1.16761e-06,0.00345395,1
9560000,-0.00135669,-0.0048105,-0.00602904,0.999987,0.000408868,0.00126128,0.00498953,0.999994,-2.36809e-06,-1.16761e-06,0.00345395,1
9592000,-0.000859584,-0.00981018,0.00546671,0.999987,0.000327168,0.00117684,0.00499303,0.999994,-2.36809e-06,-1.16761e-06,0.00345395,1
9624000,-0.00536529,0.00219037,0.00545461,0.999987,0.000318228,0.00112364,0.00499191,0.999994,-2.36809e-06,-1.16761e-06,0.00345395,1
9656000,0.000131968,-0.00380937,0.0009549,0.999987,0.000343271,0.00112144,0.00497238,0.999994,-2.36809e-06,-1.16761e-06,0.00345395,1
9684000,0.0116292,-0.00180923,0.00646483,0.999987,0.000341842,0.00105824,0.00495258,0.999994,-2.36809e-06,-1.16761e-06,0.00345395,1
9716000,0.00812387,0.00469113,0.00396926,0.999987,0.000371922,0.00107971,0.00495373,0.999994,-2.36809e-06,-1.16761e-06,0.00345395,1
9744000,0.000621332,-0.0118088,0.00696692,0.999987,0.000378572,0.0010512,0.00497329,0.999994,-2.36809e-06,-1.16761e-06,0.00345395,1
9772000,-0.0183813,0.00319135,-0.0065248,0.999987,0.00030361,0.000980129,0.00493866,0.999994,-2.36809e-06,-1.16761e-06,0.00345395,1
9804000,-0.00488631,-0.00330857,-0.0100296,0.999987,0.000243373,0.000994483,0.0050323,0.999994,-2.36809e-06,-1.16761e-06,0.00345395,1
9836000,0.00761125,0.00419145,-0.00503248,0.999987,0.000230888,0.000924868,0.00500814,0.999994,-2.36809e-06,-1.16761e-06,0.00345395,1
9868000,-0.00739357,0.0066914,0.00845824,0.999987,0.000173184,0.000921809,0.0049233,0.999994,-2.36809e-06,-1.16761e-06,0.00345395,1
9900000,-0.0143959,0.000191308,0.00595563,0.999987,2.18673e-05,0.000908018,0.00499831,0.999994,-2.36809e-06,-1.16761e-06,0.00345395,1
9928000,0.00109954,0.00669119,0.00545175,0.999987,-1.97084e-07,0.00102618,0.00498662,0.999994,-2.36809e-06,-1.16761e-06,0.00345395,1
9956000,-0.00540275,0.000191093,0.00245162,0.999987,-4.61666e-05,0.000983048,0.00500645,0.999994,-2.36809e-06,-1.16761e-06,0.00345395,1
9988000,-0.00340495,0.00269096,0.00545396,0.999987,-8.16653e-05,0.00111319,0.00496467,0.999994,-2.36809e-06,-1.16761e-06,0.00345395,1
10016000,0.00709077,0.0131907,0.00394869,0.999987,-6.66003e-05,0.001126,0.0049891,0.999994,-2.36809e-06,-1.16761e-06,0.00345395,1
10044000,-0.000911313,-0.00830949,-0.0175522,0.999987,-0.000140065,0.00109821,0.0050201,0.999994,-2.36809e-06,-1.16761e-06,0.00345395,1
10072000,0.00158658,-0.00530958,-0.00355578,0.999987,-0.000160438,0.00103652,0.00490274,0.999994,-2.36809e-06,-1.16761e-06,0.00345395,1
10100000,-0.000915452,-0.00480977,-0.0115578,0.999987,-0.000178495,0.000996739,0.00494114,0.999994,-2.36809e-06,-1.16761e-06,0.00345395,1
10128000,-0.00991942,-0.00681008,-0.00155956,0.999987,-0.000173648,0.00100196,0.00492326,0.999994,-2.36809e-06,-1.16761e-06,0.00345395,1
10156000,0.00307867,-0.00531024,0.00394493,0.999988,-0.000260515,0.000956595,0.00489395,0.999994,-2.36809e-06,-1.16761e-06,0.00345395,1
10184000,0.00507677,-0.00681043,-0.00505799,0.999988,-0.000277212,0.000942489,0.00488091,0.999994,-2.36809e-06,-1.16761e-06,0.00345395,1
10212000,-0.00342505,-0.000310607,0.00792413,0.999988,-0.000292844,0.000968313,0.0048664,0.999994,-2.36809e-06,-1.16761e-06,0.00345395,1
10240000,0.00157135,-0.010311,0.00142033,0.999997,-0.000272534,0.00092021,0.00237573,0.999997,5.09111e-06,1.39864e-06,-0.00242572,2
10268000,6.9602e-05,0.00118878,0.00492033,0.999997,-0.000325648,0.000891868,0.00237252,0.999997,5.09111e-06,1.39864e-06,-0.00242572,2
10300000,-0.000432092,-0.00231147,0.00792027,0.999997,-0.000348859,0.000893881,0.00235171,0.999997,5.09111e-06,1.39864e-06,-0.00242572,2
10332000,6.46047e-05,0.00368806,0.0119203,0.999997,-0.000364738,0.000897007,0.00239884,0.999997,5.09111e-06,1.39864e-06,-0.00242572,2
10360000,0.00656301,-0.00381217,0.00192033,0.999997,-0.000388589,0.000880883,0.0023683,0.999997,5.09111e-06,1.39864e-06,-0.00242572,2
10392000,-0.000440126,-0.000812764,0.00842038,0.999997,-0.000312089,0.000853332,0.0023448,0.999997,5.09111e-06,1.39864e-06,-0.00242572,2
10424000,-0.00094155,-0.00731305,-0.00407965,0.999997,-0.000354691,0.000802475,0.00237343,0.999997,5.09111e-06,1.39864e-06,-0.00242572,2
10456000,-0.00144439,0.00118636,0.00692047,0.999997,-0.000400296,0.000763668,0.00241271,0.999997,5.09111e-06,1.39864e-06,-0.00242572,2
10484000,0.00605427,-0.00281397,0.00142045,0.999997,-0.000398737,0.00074373,0.00244698,0.999997,5.09111e-06,1.39864e-06,-0.00242572,2
10512000,0.00555296,-0.00631432,0.0079203,0.999997,-0.000395476,0.000701854,0.00251683,0.999997,5.09111e-06,1.39864e-06,-0.00242572,2
10544000,5.04998e-05,-0.00281496,0.00142034,0.999996,-0.000390934,0.000684299,0.00257092,0.999997,5.09111e-06,1.39864e-06,-0.00242572,2
10572000,4.93052e-05,-0.00881531,0.00142033,0.999996,-0.000375835,0.000678462,0.00255428,0.999997,5.09111e-06,1.39864e-06,-0.00242572,2
10600000,-0.00795182,-0.00981563,0.00492033,0.999997,-0.000394252,0.000613548,0.00253876,0.999997,5.09111e-06,1.39864e-06,-0.00242572,2
10632000,-0.00995394,0.0126837,-0.00357949,0.999996,-0.000403723,0.000664968,0.00253258,0.999997,5.09111e-06,1.39864e-06,-0.00242572,2
10664000,0.00254501,-0.00131666,0.00892072,0.999996,-0.000334859,0.000691588,0.00255872,0.999997,5.09111e-06,1.39864e-06,-0.00242572,2
10692000,0.00354403,0.00818304,-0.00157903,0.999996,-0.000296879,0.000711798,0.00258511,0.999997,5.09111e-06,1.39864e-06,-0.00242572,2
10720000,-0.00895779,-0.00181763,-0.00407872,0.999996,-0.000272742,0.000692944,0.00262894,0.999997,5.09111e-06,1.39864e-06,-0.00242572,2
10748000,-0.00345869,-0.000317992,-0.00957841,0.999996,-0.000330779,0.000726824,0.00260849,0.999997,5.09111e-06,1.39864e-06,-0.00242572,2
10776000,0.00504047,-0.00881824,0.0134211,0.999996,-0.000357682,0.000692745,0.00261827,0.999997,5.09111e-06,1.39864e-06,-0.00242572,2
10804000,-0.00746035,0.0056814,0.000421313,0.999996,-0.000387792,0.000715611,0.00262778,0.999997,5.09111e-06,1.39864e-06,-0.00242572,2
10836000,-0.00246195,-0.0133192,0.0114211,0.999996,-0.000424804,0.000653675,0.00267456,0.999997,5.09111e-06,1.39864e-06,-0.00242572,2
10868000,0.0175374,0.0111804,0.0159214,0.999996,-0.000427153,0.000646746,0.00273775,0.999997,5.09111e-06,1.39864e-06,-0.00242572,2
10896000,-0.013464,-0.00082016,-0.00357835,0.999996,-0.000456856,0.000720392,0.00278875,0.999997,5.09111e-06,1.39864e-06,-0.00242572,2
10928000,-0.00296463,-0.00182045,-0.00707805,0.999996,-0.000563634,0.000713955,0.0027889,0.999997,5.09111e-06,1.39864e-06,-0.00242572,2
10956000,-0.00396522,-0.000820784,0.0119216,0.999995,-0.000571347,0.000705584,0.00295885,0.999997,5.09111e-06,1.39864e-06,-0.00242572,2
10984000,-0.00596642,-0.0028213,0.00742162,0.999995,-0.000582299,0.00068303,0.00300683,0.999997,5.09111e-06,1.39864e-06,-0.00242572,2
11012000,-0.00196705,-0.00532156,0.0144221,0.999995,-0.000578139,0.000565449,0.00312587,0.999997,5.09111e-06,1.39864e-06,-0.00242572,2
11040000,0.00403252,-0.0103218,-0.00207857,0.999995,-0.000597339,0.000495648,0.00314265,0.999997,5.09111e-06,1.39864e-06,-0.00242572,2
11072000,-0.00196843,0.000177654,0.00742212,0.999995,-0.000563864,0.00040511,0.00321434,0.999997,5.09111e-06,1.39864e-06,-0.00242572,2
11104000,-0.00896883,-0.00682255,0.00942217,0.999994,-0.000648905,0.000392037,0.00329764,0.999997,5.09111e-06,1.39864e-06,-0.00242572,2
11132000,0.0170307,-0.00332276,-0.00607797,0.999994,-0.000584849,0.000382197,0.00331979,0.999997,5.09111e-06,1.39864e-06,-0.00242572,2
11160000,-0.00147007,0.00717684,0.00192185,0.999994,-0.000641999,0.000383847,0.00331523,0.999997,5.09111e-06,1.39864e-06,-0.00242572,2
11188000,-0.00197043,-0.00432332,-0.00207809,0.999994,-0.000588143,0.000327751,0.00328478,0.999997,5.09111e-06,1.39864e-06,-0.00242572,2
11220000,0.00102926,-0.0013235,0.00192257,0.999994,-0.000684805,0.000298212,0.00327882,0.999997,5.09111e-06,1.39864e-06,-0.00242572,2
11252000,-0.00297132,-0.00982381,0.000922697,0.999994,-0.000691868,0.000342878,0.00327888,0.999997,5.09111e-06,1.39864e-06,-0.00242572,2
11284000,-0.00297155,0.00317604,-0.00807791,0.999994,-0.000792051,0.000378128,0.00323075,0.999997,5.09111e-06,1.39864e-06,-0.00242572,2
11316000,0.0120282,-0.00082406,-0.00207761,0.999994,-0.000753113,0.000375888,0.00327602,0.999997,5.09111e-06,1.39864e-06,-0.00242572,2
11344000,-0.0164723,-0.00232424,-0.00107851,0.999994,-0.00079295,0.000369193,0.00323868,0.999997,5.09111e-06,1.39864e-06,-0.00242572,2
11372000,-0.00397245,-0.00132435,0.00192107,0.999994,-0.000797933,0.000414675,0.00327536,0.999997,5.09111e-06,1.39864e-06,-0.00242572,2
11400000,0.00702748,-0.00732447,-0.0235794,0.999995,-0.000823807,0.000410986,0.00316096,0.999997,5.09111e-06,1.39864e-06,-0.00242572,2
11428000,-0.000472928,0.000175443,-0.0120782,0.999995,-0.000798556,0.000353456,0.00305396,0.999997,5.09111e-06,1.39864e-06,-0.00242572,2
11456000,0.00552699,0.00567533,-0.0120784,0.999995,-0.000868424,0.000340662,0.00295377,0.999997,5.09111e-06,1.39864e-06,-0.00242572,2
11484000,0.000526882,0.000675333,0.0034215,0.999995,-0.000798379,0.000381382,0.00291759,0.999997,5.09111e-06,1.39864e-06,-0.00242572,2
11512000,2.6683e-05,-0.00482469,-0.0155769,0.999995,-0.000763036,0.000337065,0.00290245,0.999997,5.09111e-06,1.39864e-06,-0.00242572,2
11540000,0.00502664,0.00567522,0.0139227,0.999995,-0.000717907,0.000377862,0.00295442,0.999997,5.09111e-06,1.39864e-06,-0.00242572,2
11572000,0.00202657,-0.00232478,0.000422239,0.999995,-0.000686909,0.000371818,0.00301171,0.999997,5.09111e-06,1.39864e-06,-0.00242572,2
11604000,0.00702653,-0.0103248,0.00342084,0.999995,-0.000662007,0.000429866,0.0030487,0.999997,5.09111e-06,1.39864e-06,-0.00242572,2
11636000,0.00752645,-0.00682482,0.000420882,0.999995,-0.000741579,0.00033865,0.0029521,0.999997,5.09111e-06,1.39864e-06,-0.00242572,2
11668000,-0.000473559,0.0036752,-0.00107946,0.999995,-0.000749031,0.000288938,0.0030038,0.999997,5.09111e-06,1.39864e-06,-0.00242572,2
11696000,0.00152642,0.00417519,-0.00507898,0.999995,-0.000734103,0.000248246,0.00299328,0.999997,5.09111e-06,1.39864e-06,-0.00242572,2
11728000,0.00902638,0.00717521,0.00742131,0.999995,-0.000775619,0.000327837,0.00308693,0.999997,5.09111e-06,1.39864e-06,-0.00242572,2
11760000,0.00302642,-0.00632481,-0.0015808,0.999995,-0.000759637,0.000306761,0.00309154,0.999997,5.09111e-06,1.39864e-06,-0.00242572,2
11788000,0.00752642,-0.000824806,0.0069189,0.999995,-0.000756077,0.000241692,0.00317704,0.999997,5.09111e-06,1.39864e-06,-0.00242572,2
11816000,-0.00247357,0.00867519,0.000418967,0.999995,-0.000702887,0.000349915,0.0031895,0.999997,5.09111e-06,1.39864e-06,-0.00242572,2
11848000,0.00102644,0.00367518,-0.00608437,0.999995,-0.000628385,0.00036373,0.00316252,0.999997,5.09111e-06,1.39864e-06,-0.00242572,2
11876000,0.00302646,0.00417514,-0.00308523,0.999995,-0.000621501,0.00037526,0.00314335,0.999997,5.09111e-06,1.39864e-06,-0.00242572,2
11904000,-0.00347355,0.00117514,-0.00658556,0.999995,-0.00066846,0.000393778,0.00303296,0.999997,5.09111e-06,1.39864e-06,-0.00242572,2
11932000,0.00302648,0.000675087,-0.000583791,0.999995,-0.000663174,0.000403702,0.00298921,0.999997,5.09111e-06,1.39864e-06,-0.00242572,2
11960000,-0.000473515,-0.00432499,-0.00458256,0.999995,-0.000596545,0.000370108,0.00299061,0.999997,5.09111e-06,1.39864e-06,-0.00242572,2
11988000,0.0110265,0.00417495,0.00341649,0.999995,-0.000542601,0.000294678,0.00298737,0.999997,5.09111e-06,1.39864e-06,-0.00242572,2
12016000,0.00152648,-0.0173251,0.00691812,0.999995,-0.000545709,0.000308288,0.00300261,0.999997,5.09111e-06,1.39864e-06,-0.00242572,2
12044000,0.00102652,-0.00682524,0.00691731,0.999995,-0.000551491,0.000281145,0.0030419,0.999997,5.09111e-06,1.39864e-06,-0.00242572,2
12072000,-0.00647352,-0.00132534,-0.00858263,0.999995,-0.00059797,0.000216059,0.0030374,0.999997,5.09111e-06,1.39864e-06,-0.00242572,2
12100000,-0.00147355,0.0121746,0.00291833,0.999995,-0.000587702,0.000295334,0.00304429,0.999997,5.09111e-06,1.39864e-06,-0.00242572,2
12128000,0.00202641,0.00817444,-0.0120811,0.999995,-0.000541231,0.000362876,0.00298227,0.999997,5.09111e-06,1.39864e-06,-0.00242572,2
12156000,-0.00747362,-0.00332575,-0.00258169,0.999995,-0.000582313,0.000360444,0.00306082,0.999997,5.09111e-06,1.39864e-06,-0.00242572,2
12184000,-0.000473673,0.00367412,-0.00658116,0.999995,-0.000630452,0.000425075,0.00305804,0.999997,5.09111e-06,1.39864e-06,-0.00242572,2
12216000,0.00152623,-0.0153261,0.0019191,0.999995,-0.000596676,0.000310827,0.00306617,0.999997,5.09111e-06,1.39864e-06,-0.00242572,2
12248000,0.00252619,-0.00182626,0.0129199,0.999995,-0.000696001,0.000303388,0.00306361,0.999997,5.09111e-06,1.39864e-06,-0.00242572,2
12276000,0.00202612,0.00517358,0.00341949,0.999995,-0.000759417,0.000312483,0.00312671,0.999997,5.09111e-06,1.39864e-06,-0.00242572,2
12308000,-0.00997398,0.000173225,0.00492091,0.999995,-0.000702433,0.000326882,0.00319862,0.999997,5.09111e-06,1.39864e-06,-0.00242572,2
12336000,0.00752591,0.00317303,0.00592106,0.999995,-0.000770394,0.000283181,0.00318107,0.999997,5.09111e-06,1.39864e-06,-0.00242572,2
12364000,-0.000974145,0.0111729,-0.00658204,0.999995,-0.000802572,0.000345701,0.00319285,0.999997,5.09111e-06,1.39864e-06,-0.00242572,2
12396000,0.00152569,0.00567239,0.0114187,0.999995,-0.000704202,0.000376603,0.00321049,0.999997,5.09111e-06,1.39864e-06,-0.00242572,2
12428000,-0.00647443,0.00717217,0.000418563,0.999995,-0.000666709,0.000414454,0.00324698,0.999997,5.09111e-06,1.39864e-06,-0.00242572,2
12456000,-0.00947449,-0.00182804,0.00141854,0.999994,-0.000682438,0.000440323,0.00324702,0.999997,5.09111e-06,1.39864e-06,-0.00242572,2
12488000,2.5299e-05,-0.00482853,0.00342335,0.999994,-0.000703597,0.000430172,0.00325464,0.999997,5.09111e-06,1.39864e-06,-0.00242572,2
12516000,0.00552521,0.00417124,-0.000576822,0.999994,-0.000701141,0.000448288,0.00325536,0.999997,5.09111e-06,1.39864e-06,-0.00242572,2
12548000,-0.00597488,0.016671,-0.00308179,0.999995,-0.000752386,0.000494086,0.00320761,0.999997,5.09111e-06,1.39864e-06,-0.00242572,2
12580000,0.00952488,0.00167041,0.00791548,0.999994,-0.000714508,0.00054136,0.00322063,0.999997,5.09111e-06,1.39864e-06,-0.00242572,2
12608000,0.00802477,-0.000329854,0.0014152,0.999995,-0.000684534,0.000448706,0.00323009,0.999997,5.09111e-06,1.39864e-06,-0.00242572,2
12636000,0.00552464,0.00466991,0.00591564,0.999994,-0.000682697,0.000402969,0.00325174,0.999997,5.09111e-06,1.39864e-06,-0.00242572,2
12664000,-0.0079756,0.00266933,-8.44301e-05,0.999994,-0.000723986,0.00041518,0.00328756,0.999997,5.09111e-06,1.39864e-06,-0.00242572,2
12696000,-0.000975743,-0.00283099,0.00841591,0.999994,-0.000700647,0.000362501,0.00337371,0.999997,5.09111e-06,1.39864e-06,-0.00242572,2
12724000,-0.0109759,0.00866875,0.00191869,0.999994,-0.000773284,0.000468464,0.00332426,0.999997,5.09111e-06,1.39864e-06,-0.00242572,2
12752000,-0.00297614,0.00166814,-0.00108126,0.999994,-0.000764533,0.000469741,0.00326921,0.999997,5.09111e-06,1.39864e-06,-0.00242572,2
12780000,0.0115237,0.00316786,-0.00708171,0.999994,-0.000703691,0.000449168,0.00326132,0.999997,5.09111e-06,1.39864e-06,-0.00242572,2
12812000,0.0120236,0.00316755,-0.00908278,0.999995,-0.000652605,0.000462308,0.00318615,0.999997,5.09111e-06,1.39864e-06,-0.00242572,2
12840000,0.0090233,-0.00233307,-0.00458214,0.999995,-0.000609918,0.000501623,0.00320155,0.999997,5.09111e-06,1.39864e-06,-0.00242572,2
12868000,-0.00397682,-0.00633333,0.0129171,0.999994,-0.000616963,0.00045672,0.00324749,0.999997,5.09111e-06,1.39864e-06,-0.00242572,2
12900000,-0.011477,0.0141663,0.00541761,0.999994,-0.000706762,0.000451319,0.00332341,0.999997,5.09111e-06,1.39864e-06,-0.00242572,2
12932000,-0.00147728,-0.0133343,-0.00207873,0.999994,-0.00071921,0.000331087,0.00329776,0.999997,5.09111e-06,1.39864e-06,-0.00242572,2
12960000,-0.00347745,0.000165455,0.00792026,0.999994,-0.000723423,0.000315943,0.00330939,0.999997,5.09111e-06,1.39864e-06,-0.00242572,2
12988000,-0.00297757,-0.00333485,0.0049203,0.999994,-0.000685594,0.000286908,0.0034069,0.999997,5.09111e-06,1.39864e-06,-0.00242572,2
13016000,0.0105221,0.00116468,-0.017577,0.999994,-0.00056212,0.000360112,0.00346129,0.999997,5.09111e-06,1.39864e-06,-0.00242572,2
13048000,0.00252195,0.00616433,-0.00457804,0.999994,-0.000552998,0.00034458,0.00351646,0.999997,5.09111e-06,1.39864e-06,-0.00242572,2
13076000,0.00352179,0.00816407,0.00242184,0.999994,-0.000535613,0.000415138,0.0035218,0.999997,5.09111e-06,1.39864e-06,-0.00242572,2
13104000,0.0010215,0.00466354,0.000924942,0.999993,-0.000619156,0.0004683,0.0035519,0.999997,5.09111e-06,1.39864e-06,-0.00242572,2
13136000,0.00552134,0.00116327,0.000926064,0.999993,-0.000646207,0.000473267,0.00356243,0.999997,5.09111e-06,1.39864e-06,-0.00242572,2
13164000,0.0145212,0.0101631,0.00192334,0.999993,-0.000530872,0.000532839,0.00353612,0.999997,5.09111e-06,1.39864e-06,-0.00242572,2
13196000,0.00852088,0.00366254,-0.000578309,0.999994,-0.000583166,0.000584466,0.00348271,0.999997,5.09111e-06,1.39864e-06,-0.00242572,2
13228000,0.00152073,0.00516234,0.00592027,0.999994,-0.000574273,0.000576171,0.00348412,0.999997,5.09111e-06,1.39864e-06,-0.00242572,2
13256000,-0.0109796,0.00566182,0.0139196,0.999993,-0.00058583,0.000592004,0.00351773,0.999997,5.09111e-06,1.39864e-06,-0.00242572,2
13288000,-0.00447972,-0.00133838,-0.00158527,0.999994,-0.000604228,0.000646371,0.0034791,0.999997,5.09111e-06,1.39864e-06,-0.00242572,2
13316000,0.00202017,-0.0113386,-0.00658478,0.999994,-0.000623715,0.000615947,0.00345925,0.999997,5.09111e-06,1.39864e-06,-0.00242572,2
13344000,0.00551984,-0.00283901,0.00491218,0.999994,-0.000682319,0.000616325,0.00347474,0.999997,5.09111e-06,1.39864e-06,-0.00242572,2
13376000,-0.00698033,-0.00833923,0.00791311,0.999993,-0.000734433,0.000574312,0.00352476,0.999997,5.09111e-06,1.39864e-06,-0.00242572,2
13408000,-0.0054806,-0.00333965,0.00840679,0.999993,-0.000750613,0.000533285,0.00354755,0.999997,5.09111e-06,1.39864e-06,-0.00242572,2
13440000,-0.00398074,-0.00383986,-0.00159374,0.999994,-0.000738839,0.000490206,0.00351746,0.999997,5.09111e-06,1.39864e-06,-0.00242572,2
13472000,-0.00648103,-0.00534023,-0.0200945,0.999994,-0.000801485,0.000543699,0.00337346,0.999997,5.09111e-06,1.39864e-06,-0.00242572,2
13500000,-0.00748117,-0.00584041,-9.31552e-05,0.999994,-0.000827984,0.000468729,0.00336035,0.999997,5.09111e-06,1.39864e-06,-0.00242572,2
13532000,0.0030187,-0.000840608,0.00340712,0.999994,-0.000801476,0.00047945,0.00338071,0.999997,5.09111e-06,1.39864e-06,-0.00242572,2
13560000,-0.0189816,0.00865909,0.00141051,0.999994,-0.000843294,0.000486283,0.00338009,0.999997,5.09111e-06,1.39864e-06,-0.00242572,2
13592000,0.0080183,-0.0098411,0.00241028,0.999994,-0.000893444,0.000375559,0.00337804,0.999997,5.09111e-06,1.39864e-06,-0.00242572,2
13624000,-0.00448196,0.00515858,-0.00359016,0.999994,-0.000848137,0.000411043,0.00335676,0.999997,5.09111e-06,1.39864e-06,-0.00242572,2
13656000,-0.00648204,0.0141584,0.0124093,0.999994,-0.000802957,0.000484507,0.00339748,0.999997,5.09111e-06,1.39864e-06,-0.00242572,2
13684000,0.00951783,0.00665829,0.000406704,0.999994,-0.000809337,0.000617173,0.003422,0.999997,5.09111e-06,1.39864e-06,-0.00242572,2
13712000,0.00101758,-0.00634197,-0.000594824,0.999994,-0.000766394,0.000639917,0.00340758,0.999997,5.09111e-06,1.39864e-06,-0.00242572,2
13744000,-0.00298252,0.00565789,0.00140527,0.999994,-0.000793131,0.000643875,0.0033819,0.999997,5.09111e-06,1.39864e-06,-0.00242572,2
13776000,-0.00198261,0.0111578,-0.0010937,0.999994,-0.000804009,0.00068485,0.00341445,0.999997,5.09111e-06,1.39864e-06,-0.00242572,2
13804000,0.00301714,-0.00184249,0.0114071,0.999994,-0.000768742,0.000599461,0.003473,0.999997,5.09111e-06,1.39864e-06,-0.00242572,2
13832000,0.0140171,-0.00384259,0.00690558,0.999993,-0.00076471,0.000567887,0.0034929,0.999997,5.09111e-06,1.39864e-06,-0.00242572,2
13864000,0.000517,0.00815727,-0.00209429,0.999993,-0.000658625,0.000591106,0.00352989,0.999997,5.09111e-06,1.39864e-06,-0.00242572,2
13892000,0.00301678,0.00565705,0.00740497,0.999993,-0.000710767,0.000597258,0.00356587,0.999997,5.09111e-06,1.39864e-06,-0.00242572,2
13924000,0.00651669,-0.00484307,-0.00209557,0.999993,-0.000741509,0.000565953,0.00365838,0.999997,5.09111e-06,1.39864e-06,-0.00242572,2
13952000,-0.0059834,-0.000843202,-0.00159394,0.999993,-0.000734795,0.000593236,0.00369951,0.999997,5.09111e-06,1.39864e-06,-0.00242572,2
13980000,0.00601643,0.00615659,0.000904063,0.999993,-0.000646835,0.000541755,0.00367962,0.999997,5.09111e-06,1.39864e-06,-0.00242572,2
14012000,-0.000483722,0.00915652,-0.00809628,0.999993,-0.000659123,0.000618327,0.00365261,0.999997,5.09111e-06,1.39864e-06,-0.00242572,2
14040000,0.00451623,-0.00034361,0.0014026,0.999993,-0.00063853,0.00064451,0.00359492,0.999997,5.09111e-06,1.39864e-06,-0.00242572,2
14072000,0.00851606,-0.000843785,-0.0056055,0.999993,-0.000583647,0.000662281,0.00357302,0.999997,5.09111e-06,1.39864e-06,-0.00242572,2
14100000,0.010016,-0.00634388,-0.00560608,0.999993,-0.000534722,0.000592552,0.00354256,0.999997,5.09111e-06,1.39864e-06,-0.00242572,2
14128000,-0.0109841,-0.00434388,-0.00761099,0.999994,-0.000551962,0.000559543,0.00348105,0.999997,5.09111e-06,1.39864e-06,-0.00242572,2
14160000,-0.000984241,0.0166559,0.0013903,0.999994,-0.00059719,0.000600904,0.00349051,0.999997,5.09111e-06,1.39864e-06,-0.00242572,2
14188000,0.0105157,-0.0063442,0.0028903,0.999994,-0.000582224,0.000516022,0.00351525,0.999997,5.09111e-06,1.39864e-06,-0.00242572,2
14216000,0.00401565,0.00215573,0.00239378,0.999994,-0.000527533,0.000496219,0.00348756,0.999997,5.09111e-06,1.39864e-06,-0.00242572,2
14244000,0.00351548,-0.0143444,-0.0136106,0.999994,-0.000528978,0.000504179,0.00340566,0.999997,5.09111e-06,1.39864e-06,-0.00242572,2
14276000,-0.00348451,0.00515553,0.000889568,0.999994,-0.00056431,0.000562497,0.00344641,0.999997,5.09111e-06,1.39864e-06,-0.00242572,2
14304000,0.00351544,0.00515546,0.00638646,0.999994,-0.000552903,0.000616496,0.00344419,0.999997,5.09111e-06,1.39864e-06,-0.00242572,2
14332000,-0.0104847,0.00365534,0.00888524,0.999993,-0.000579081,0.000565418,0.00354873,0.999997,5.09111e-06,1.39864e-06,-0.00242572,2
14364000,-0.00548472,0.00565526,-0.00161492,0.999993,-0.000634001,0.000488596,0.00357948,0.999997,5.09111e-06,1.39864e-06,-0.00242572,2
14392000,0.00351525,0.00815525,0.00838678,0.999993,-0.000652555,0.000519456,0.00360205,0.999997,5.09111e-06,1.39864e-06,-0.00242572,2
