timestamp,timestamp_sample,control[0],control[1],control[2],control[3],control[4],control[5],control[6],control[7]
8000,8000,0.00239271,0.000541415,0.000116552,0.0,0.0,0.0,0.0,0.0
108000,108000,0.000841916,-0.000924536,0.000477767,0.0,0.0,0.0,0.0,0.0
204000,204000,-0.00201266,0.00117369,2.87345e-05,0.0,0.0,0.0,0.0,0.0
300000,300000,0.00102776,-0.000290049,0.000448398,0.0,0.0,0.0,0.0,0.0
400000,400000,-0.0030315,-0.00190123,0.00102582,0.0,0.0,0.0,0.0,0.0
500000,500000,0.00235578,-0.00172442,0.000618688,0.0,0.0,0.0,0.0,0.0
596000,596000,0.00165419,-0.00326331,0.000719182,0.0,0.0,0.0,0.0,0.0
692000,692000,-0.0023174,0.000358241,0.000918776,0.0,0.0,0.0,0.0,0.0
792000,792000,-0.00254335,0.00050964,0.000567938,0.0,0.0,0.0,0.0,0.0
888000,888000,-0.00226133,-0.00642353,-0.00357386,-0.0,0.0,0.0,0.0,-1.0
984000,984000,-0.000878163,-0.00213255,-0.00357175,-0.0,0.0,0.0,0.0,-1.0
1084000,1084000,-0.000817046,-0.000118779,-0.00504297,-0.0,0.0,0.0,0.0,-1.0
1180000,1180000,-0.00433325,-0.00264298,-0.00281146,-0.0,0.0,0.0,0.0,-1.0
1280000,1280000,-0.0016239,-0.00767256,-0.00333558,-0.0,0.0,0.0,0.0,-1.0
1380000,1380000,-0.00050856,-0.00721471,-0.00326495,-0.0,0.0,0.0,0.0,-1.0
1476000,1476000,-0.00132477,0.00211161,-0.00413008,-0.0,0.0,0.0,0.0,-1.0
1572000,1572000,-0.00111877,0.000471446,-0.00289603,-0.0,0.0,0.0,0.0,-1.0
1668000,1668000,0.00143225,-0.00113976,-0.00375033,-0.0,0.0,0.0,0.0,-1.0
1768000,1768000,-0.00140059,-0.00438272,-0.00504524,-0.0,0.0,0.0,0.0,-1.0
1868000,1868000,0.00327823,-0.000623479,-0.00325143,-0.0,0.0,0.0,0.0,-1.0
1964000,1964000,0.00325154,-0.00126047,-0.00436302,-0.0,0.0,0.0,0.0,-1.0
2060000,2060000,0.00422651,0.000536774,-0.00326872,-0.0,0.0,0.0,0.0,-1.0
2156000,2156000,0.00195619,-0.00151841,-0.0056689,-0.0,0.0,0.0,0.0,-1.0
2252000,2252000,0.00389289,-0.00156444,-0.0037794,-0.0,0.0,0.0,0.0,-1.0
2348000,2348000,-0.00148202,-0.00344027,-0.00421235,-0.0,0.0,0.0,0.0,-1.0
2448000,2448000,0.002654,-0.00222641,-0.00549506,-0.0,0.0,0.0,0.0,-1.0
2548000,2548000,-0.00046215,-0.00532599,-0.00492195,-0.0,0.0,0.0,0.0,-1.0
2648000,2648000,0.00740085,-0.00380533,-0.00361564,-0.0,0.0,0.0,0.0,-1.0
2748000,2748000,0.00174749,-0.00261304,-0.00508586,-0.0,0.0,0.0,0.0,-1.0
2848000,2848000,0.00270983,-1.4392e-05,-0.00264201,-0.0,0.0,0.0,0.0,-1.0
2948000,2948000,-0.000908447,-0.00340416,-0.00473562,-0.0,0.0,0.0,0.0,-1.0
3044000,3044000,0.00157144,-0.00615523,-0.0030348,-0.0,0.0,0.0,0.0,-1.0
3140000,3140000,0.00324471,-0.00169393,-0.00367829,-0.0,0.0,0.0,0.0,-1.0
3236000,3236000,0.00301639,0.00152452,-0.00374941,-0.0,0.0,0.0,0.0,-1.0
3336000,3336000,-0.000216197,-0.00218603,-0.00511303,-0.0,0.0,0.0,0.0,-1.0
3436000,3436000,-0.00503215,-0.00230611,-0.00422338,-0.0,0.0,0.0,0.0,-1.0
3536000,3536000,0.00182745,0.00339687,-0.0042847,-0.0,0.0,0.0,0.0,-1.0
3632000,3632000,0.00510723,-0.0034833,-0.00677559,-0.0,0.0,0.0,0.0,-1.0
3728000,3728000,0.00404737,-0.00105503,-0.00432027,-0.0,0.0,0.0,0.0,-1.0
3824000,3824000,0.00481897,-0.00400302,-0.00450781,-0.0,0.0,0.0,0.0,-1.0
3920000,3920000,0.000961998,0.000260407,-0.00474431,-0.0,0.0,0.0,0.0,-1.0
4016000,4016000,-0.00233267,-0.0010597,-0.00578387,-0.0,0.0,0.0,0.0,-1.0
4116000,4116000,0.00221088,3.69136e-05,-0.00405456,-0.0,0.0,0.0,0.0,-1.0
4212000,4212000,0.00120961,-0.000729802,-0.00317967,-0.0,0.0,0.0,0.0,-1.0
4308000,4308000,5.99052e-05,0.00513277,-0.00355548,-0.0,0.0,0.0,0.0,-1.0
4408000,4408000,-0.000238,0.00457523,-0.00309976,-0.0,0.0,0.0,0.0,-1.0
4504000,4504000,0.000477968,-0.00105635,-0.00300366,-0.0,0.0,0.0,0.0,-1.0
4604000,4604000,0.00544315,-0.00230034,-0.00509919,-0.0,0.0,0.0,0.0,-1.0
4700000,4700000,-0.00208164,0.00619975,-0.0042068,-0.0,0.0,0.0,0.0,-1.0
4800000,4800000,0.00578835,0.000447603,-0.00301015,-0.0,0.0,0.0,0.0,-1.0
4900000,4900000,0.00201981,-0.00263193,-0.00313256,-0.0,0.0,0.0,0.0,-1.0
4996000,4996000,-0.00454279,0.000862677,-0.00270673,-0.0,0.0,0.0,0.0,-1.0
5092000,5092000,0.00326913,-0.00283502,-0.00209682,-0.0,0.0,0.0,0.0,-1.0
5188000,5188000,0.00183834,0.00233291,-0.00202028,-0.0,0.0,0.0,0.0,-1.0
5284000,5284000,-0.00298873,0.000675337,-0.00507279,-0.0,0.0,0.0,0.0,-1.0
5380000,5380000,0.000503258,0.00134074,-0.00257671,-0.0,0.0,0.0,0.0,-1.0
5480000,5480000,0.00224029,0.00143128,-0.0034291,-0.0,0.0,0.0,0.0,-1.0
5580000,5580000,0.00046525,0.00502301,-0.00150702,-0.0,0.0,0.0,0.0,-1.0
5676000,5676000,0.00359041,-0.00270559,-0.00421556,-0.0,0.0,0.0,0.0,-1.0
5772000,5772000,-0.00184345,-0.0036372,-0.00337279,-0.0,0.0,0.0,0.0,-1.0
5868000,5868000,0.00165319,0.0016555,-0.0033072,-0.0,0.0,0.0,0.0,-1.0
5968000,5968000,-0.0020019,-0.00242276,-0.00262075,-0.0,0.0,0.0,0.0,-1.0
6068000,6068000,0.0040435,0.0024326,-0.00308183,-0.0,0.0,0.0,0.0,-1.0
6164000,6164000,0.000594155,0.00175244,-0.00392955,-0.0,0.0,0.0,0.0,-1.0
6260000,6260000,0.000716697,-0.00113272,-0.00280961,-0.0,0.0,0.0,0.0,-1.0
6360000,6360000,-0.00417302,-0.00445398,-0.00235147,-0.0,0.0,0.0,0.0,-1.0
6460000,6460000,-0.00194678,-0.0011476,-0.00348158,-0.0,0.0,0.0,0.0,-1.0
6560000,6560000,-0.00345945,-0.00797224,-0.00171991,-0.0,0.0,0.0,0.0,-1.0
6656000,6656000,0.00108802,-0.00340253,-0.00407482,-0.0,0.0,0.0,0.0,-1.0
6756000,6756000,-0.00135237,-0.000291583,-0.00355014,-0.0,0.0,0.0,0.0,-1.0
6856000,6856000,-0.00346145,-0.00190924,-0.0041547,-0.0,0.0,0.0,0.0,-1.0
6956000,6956000,-0.00129536,0.000795175,-0.00518898,-0.0,0.0,0.0,0.0,-1.0
7056000,7056000,-0.00201514,-0.00101591,-0.00550089,-0.0,0.0,0.0,0.0,-1.0
7156000,7156000,-0.00585442,-0.00201935,-0.0040943,-0.0,0.0,0.0,0.0,-1.0
7252000,7252000,-0.000809652,-0.000679462,-0.00365382,-0.0,0.0,0.0,0.0,-1.0
7352000,7352000,-0.00535431,0.00477226,-0.00606551,-0.0,0.0,0.0,0.0,-1.0
7448000,7448000,0.000113062,0.00102024,-0.00444307,-0.0,0.0,0.0,0.0,-1.0
7548000,7548000,-0.00772541,-0.00157917,-0.00576219,-0.0,0.0,0.0,0.0,-1.0
7648000,7648000,-0.000685534,0.000280521,-0.00536162,-0.0,0.0,0.0,0.0,-1.0
7748000,7748000,-0.00441786,-0.00258511,-0.00589768,-0.0,0.0,0.0,0.0,-1.0
7848000,7848000,0.000168456,-0.00220114,-0.00599226,-0.0,0.0,0.0,0.0,-1.0
7944000,7944000,-4.45482e-05,0.00124126,-0.00671995,-0.0,0.0,0.0,0.0,-1.0
8044000,8044000,-0.00416829,0.00147892,-0.00542488,-0.0,0.0,0.0,0.0,-1.0
8140000,8140000,-0.00466668,-0.00515597,-0.00535047,-0.0,0.0,0.0,0.0,-1.0
8236000,8236000,-0.00321647,-0.00187808,-0.00574578,-0.0,0.0,0.0,0.0,-1.0
8332000,8332000,-0.000128739,-0.00120035,-0.00528683,-0.0,0.0,0.0,0.0,-1.0
8432000,8432000,-0.00150936,0.000113943,-0.00612053,-0.0,0.0,0.0,0.0,-1.0
8532000,8532000,-0.0031859,-0.0028128,-0.00637554,-0.0,0.0,0.0,0.0,-1.0
8632000,8632000,-0.000489079,0.00312142,-0.00714789,-0.0,0.0,0.0,0.0,-1.0
8728000,8728000,-0.00175698,0.000681021,-0.00634985,-0.0,0.0,0.0,0.0,-1.0
8828000,8828000,-0.0035699,-0.00326498,-0.0045299,-0.0,0.0,0.0,0.0,-1.0
8928000,8928000,-0.000896889,0.00100568,-0.00557707,-0.0,0.0,0.0,0.0,-1.0
9028000,9028000,-0.00124193,-0.000200855,-0.00606701,-0.0,0.0,0.0,0.0,-1.0
9124000,9124000,0.000147172,-0.0033783,-0.00624228,-0.0,0.0,0.0,0.0,-1.0
9220000,9220000,-0.001347,0.00059032,-0.00705051,-0.0,0.0,0.0,0.0,-1.0
9320000,9320000,-0.00120849,-0.00188559,-0.00552731,-0.0,0.0,0.0,0.0,-1.0
9416000,9416000,-0.000110481,-0.000830767,-0.00539226,-0.0,0.0,0.0,0.0,-1.0
9516000,9516000,-0.00413255,-0.00786186,-0.00637043,-0.0,0.0,0.0,0.0,-1.0
9616000,9616000,-0.00301959,-0.00188454,-0.0049787,-0.0,0.0,0.0,0.0,-1.0
9716000,9716000,2.02256e-05,-0.00270619,-0.00481212,-0.0,0.0,0.0,0.0,-1.0
9816000,9816000,0.0005232,-0.000897188,-0.00458977,-0.0,0.0,0.0,0.0,-1.0
9916000,9916000,0.000152309,-0.00441995,-0.00496013,-0.0,0.0,0.0,0.0,-1.0
10016000,10016000,-0.00476103,-0.00781467,-0.00573337,-0.0,0.0,0.0,0.0,-1.0
10112000,10112000,-0.00258889,-0.00272058,-0.00534409,-0.0,0.0,0.0,0.0,-1.0
10208000,10208000,0.000534858,-0.00299132,-0.00547798,-0.0,0.0,0.0,0.0,-1.0
10308000,10308000,-0.00150448,-0.00328595,-0.00372652,-0.0,0.0,0.0,0.0,-1.0
10408000,10408000,0.00232335,-0.00488344,-0.00347663,-0.0,0.0,0.0,0.0,-1.0
10504000,10504000,0.00114961,-0.00124175,-0.00437876,-0.0,0.0,0.0,0.0,-1.0
10600000,10600000,0.00444777,0.000600405,-0.00281724,-0.0,0.0,0.0,0.0,-1.0
10700000,10700000,0.000120693,-0.0022568,-0.00330698,-0.0,0.0,0.0,0.0,-1.0
10796000,10796000,-0.000885623,-0.0048006,-0.0023151,-0.0,0.0,0.0,0.0,-1.0
10892000,10892000,0.00406285,-0.00127567,-0.00418423,-0.0,0.0,0.0,0.0,-1.0
10992000,10992000,0.00302129,-0.000894572,-0.00483675,-0.0,0.0,0.0,0.0,-1.0
11092000,11092000,0.00480966,0.00229473,-0.00427867,-0.0,0.0,0.0,0.0,-1.0
11188000,11188000,-0.00165285,-0.00196971,-0.00306181,-0.0,0.0,0.0,0.0,-1.0
11284000,11284000,0.00474651,0.000766982,-0.0019345,-0.0,0.0,0.0,0.0,-1.0
11384000,11384000,0.00278772,-0.00467685,-0.00216228,-0.0,0.0,0.0,0.0,-1.0
11484000,11484000,0.00247711,-0.00176614,-0.00233263,-0.0,0.0,0.0,0.0,-1.0
11584000,11584000,0.00392903,-0.00114111,-0.00358304,-0.0,0.0,0.0,0.0,-1.0
11684000,11684000,0.000439403,0.000254292,-0.00332318,-0.0,0.0,0.0,0.0,-1.0
11784000,11784000,-0.00200934,-0.000410259,-0.00557294,-0.0,0.0,0.0,0.0,-1.0
11884000,11884000,0.00164287,-0.000908531,-0.00294303,-0.0,0.0,0.0,0.0,-1.0
11980000,11980000,0.00412514,-0.00223107,-0.00365263,-0.0,0.0,0.0,0.0,-1.0
12080000,12080000,-1.98833e-05,0.000239726,-0.00209233,-0.0,0.0,0.0,0.0,-1.0
12176000,12176000,0.00290877,-0.00266129,-0.00335694,-0.0,0.0,0.0,0.0,-1.0
12276000,12276000,0.00145867,-0.00342906,-0.00524506,-0.0,0.0,0.0,0.0,-1.0
12376000,12376000,-0.00358711,0.000197089,-0.00380162,-0.0,0.0,0.0,0.0,-1.0
12476000,12476000,0.00325744,-0.000298818,-0.00415254,-0.0,0.0,0.0,0.0,-1.0
12572000,12572000,0.00326069,5.11863e-05,-0.00399524,-0.0,0.0,0.0,0.0,-1.0
12672000,12672000,0.00208737,-0.00126005,-0.00451761,-0.0,0.0,0.0,0.0,-1.0
12772000,12772000,0.00377542,0.00296878,-0.00426938,-0.0,0.0,0.0,0.0,-1.0
12868000,12868000,0.00398211,-0.00151918,-0.00433852,-0.0,0.0,0.0,0.0,-1.0
12968000,12968000,0.0034603,0.00189423,-0.00481014,-0.0,0.0,0.0,0.0,-1.0
13068000,13068000,1.71462e-05,-0.00033315,-0.00356839,-0.0,0.0,0.0,0.0,-1.0
13164000,13164000,-0.00245843,-0.00437441,-0.00383317,-0.0,0.0,0.0,0.0,-1.0
13264000,13264000,0.00279954,0.000390164,-0.00516918,-0.0,0.0,0.0,0.0,-1.0
13364000,13364000,0.00315776,-0.000819145,-0.00404281,-0.0,0.0,0.0,0.0,-1.0
13460000,13460000,0.0023105,-0.00293905,-0.00297289,-0.0,0.0,0.0,0.0,-1.0
13560000,13560000,0.00799372,-0.00139435,-0.00341738,-0.0,0.0,0.0,0.0,-1.0
13656000,13656000,0.00223507,-0.0034839,-0.00435694,-0.0,0.0,0.0,0.0,-1.0
13752000,13752000,0.00433858,-0.00297641,-0.004047,-0.0,0.0,0.0,0.0,-1.0
13852000,13852000,6.80833e-06,-0.00561882,-0.0048464,-0.0,0.0,0.0,0.0,-1.0
13948000,13948000,0.00276167,-0.00329453,-0.00454015,-0.0,0.0,0.0,0.0,-1.0
14048000,14048000,0.000887765,0.000465368,-0.00492151,-0.0,0.0,0.0,0.0,-1.0
14148000,14148000,0.00039076,-0.00288817,-0.00428632,-0.0,0.0,0.0,0.0,-1.0
14244000,14244000,-0.00264539,0.00341797,-0.00179048,-0.0,0.0,0.0,0.0,-1.0
14344000,14344000,0.00248837,0.00166479,-0.00578978,-0.0,0.0,0.0,0.0,-1.0
14440000,14440000,0.000262046,-0.00295631,-0.00350213,-0.0,0.0,0.0,0.0,-1.0
14540000,14540000,-0.00240942,-0.00394901,-0.00591176,-0.0,0.0,0.0,0.0,-1.0
14640000,14640000,0.00226401,-0.0019086,-0.00337688,-0.0,0.0,0.0,0.0,-1.0
14736000,14736000,-0.00174938,-0.00342672,-0.00362506,-0.0,0.0,0.0,0.0,-1.0
14836000,14836000,-0.000119839,0.0013699,-0.0059829,-0.0,0.0,0.0,0.0,-1.0
14936000,14936000,0.00122892,3.39762e-05,-0.0046219,-0.0,0.0,0.0,0.0,-1.0
15032000,15032000,-0.00179926,-0.00383294,-0.00401616,-0.0,0.0,0.0,0.0,-1.0
15132000,15132000,0.00199216,-0.000910649,-0.00394245,-0.0,0.0,0.0,0.0,-1.0
15232000,15232000,-0.00131621,-0.00320147,-0.00480599,-0.0,0.0,0.0,0.0,-1.0
15328000,15328000,0.00359288,0.000287453,-0.00294194,-0.0,0.0,0.0,0.0,-1.0
15428000,15428000,0.00491697,0.00068173,-0.00541257,-0.0,0.0,0.0,0.0,-1.0
15524000,15524000,-0.00266236,-0.00176801,-0.00438986,-0.0,0.0,0.0,0.0,-1.0
15620000,15620000,0.00142858,-0.00400963,-0.0037656,-0.0,0.0,0.0,0.0,-1.0
15720000,15720000,-0.00127833,0.00185774,-0.00267282,-0.0,0.0,0.0,0.0,-1.0
15816000,15816000,-0.00506945,0.00226617,-0.00421186,-0.0,0.0,0.0,0.0,-1.0
15916000,15916000,0.00155242,-0.00635464,-0.0050721,-0.0,0.0,0.0,0.0,-1.0
16016000,16016000,-0.000379751,-0.00294695,-0.00405713,-0.0,0.0,0.0,0.0,-1.0
16116000,16116000,0.00338789,9.18754e-05,-0.00318752,-0.0,0.0,0.0,0.0,-1.0
16216000,16216000,-0.00176099,-0.00183177,-0.00491965,-0.0,0.0,0.0,0.0,-1.0
16312000,16312000,0.00226407,-0.00460218,-0.00383901,-0.0,0.0,0.0,0.0,-1.0
16408000,16408000,0.00165942,-0.00152332,-0.00466886,-0.0,0.0,0.0,0.0,-1.0
16508000,16508000,0.000844018,-0.00323649,-0.00410248,-0.0,0.0,0.0,0.0,-1.0
16608000,16608000,0.000486629,-0.00266192,-0.00399739,-0.0,0.0,0.0,0.0,-1.0
16704000,16704000,0.0059223,-0.00493757,-0.00439738,-0.0,0.0,0.0,0.0,-1.0
16800000,16800000,-0.00257015,-0.00532635,-0.0041338,-0.0,0.0,0.0,0.0,-1.0
16900000,16900000,0.00212426,-0.00116219,-0.00416524,-0.0,0.0,0.0,0.0,-1.0
17000000,17000000,0.00295481,-0.00145024,-0.00371344,-0.0,0.0,0.0,0.0,-1.0
17096000,17096000,0.00197266,-0.00287272,-0.00444119,-0.0,0.0,0.0,0.0,-1.0
17196000,17196000,0.00431271,-0.00975215,-0.00388664,-0.0,0.0,0.0,0.0,-1.0
17296000,17296000,-0.00116295,-0.00657926,-0.0043746,-0.0,0.0,0.0,0.0,-1.0
17392000,17392000,0.00370705,-0.00358393,-0.00319617,-0.0,0.0,0.0,0.0,-1.0
17492000,17492000,-0.00272978,-0.00767063,-0.00437763,-0.0,0.0,0.0,0.0,-1.0
17592000,17592000,0.00528368,-0.00279445,-0.00257066,-0.0,0.0,0.0,0.0,-1.0
17692000,17692000,0.00143595,-0.00680075,-0.00459588,-0.0,0.0,0.0,0.0,-1.0
17788000,17788000,0.00112406,-0.00789577,-0.00407991,-0.0,0.0,0.0,0.0,-1.0
17884000,17884000,-0.00162101,-0.00462835,-0.00519669,-0.0,0.0,0.0,0.0,-1.0
17984000,17984000,0.000635025,-0.00803177,-0.00190656,-0.0,0.0,0.0,0.0,-1.0
18080000,18080000,0.000691449,-0.00363807,-0.00396224,-0.0,0.0,0.0,0.0,-1.0
18180000,18180000,-0.00247706,-0.00465545,-0.00309131,-0.0,0.0,0.0,0.0,-1.0
18276000,18276000,0.000502986,-0.00665881,-0.00245076,-0.0,0.0,0.0,0.0,-1.0
18372000,18372000,-0.00206355,-0.00493354,-0.00353762,-0.0,0.0,0.0,0.0,-1.0
18468000,18468000,-0.000212309,-0.00557383,-0.00258957,-0.0,0.0,0.0,0.0,-1.0
18568000,18568000,0.00282785,-0.00901688,-0.00471467,-0.0,0.0,0.0,0.0,-1.0
18668000,18668000,-0.000379981,-0.00630019,-0.0038282,-0.0,0.0,0.0,0.0,-1.0
18768000,18768000,-0.00216677,-0.00740104,-0.00534537,-0.0,0.0,0.0,0.0,-1.0
18864000,18864000,0.000110643,-0.00376171,-0.00407198,-0.0,0.0,0.0,0.0,-1.0
18964000,18964000,0.00403152,-0.0117204,-0.00407343,-0.0,0.0,0.0,0.0,-1.0
19064000,19064000,-0.00106549,-0.00239294,-0.00494831,-0.0,0.0,0.0,0.0,-1.0
19160000,19160000,0.00270952,-0.00570608,-0.00509634,-0.0,0.0,0.0,0.0,-1.0
19256000,19256000,2.63039e-05,-0.00268623,-0.0041089,-0.0,0.0,0.0,0.0,-1.0
19352000,19352000,0.00222308,-0.00312104,-0.00411624,-0.0,0.0,0.0,0.0,-1.0
19448000,19448000,0.00248684,-0.00399556,-0.00489775,-0.0,0.0,0.0,0.0,-1.0
19548000,19548000,0.00207895,-0.00280766,-0.00541894,-0.0,0.0,0.0,0.0,-1.0
19648000,19648000,0.00330191,-0.00193388,-0.00421161,-0.0,0.0,0.0,0.0,-1.0
19744000,19744000,0.00242942,-0.000197765,-0.00351306,-0.0,0.0,0.0,0.0,-1.0
19844000,19844000,0.00188198,-0.00310673,-0.00346404,-0.0,0.0,0.0,0.0,-1.0
19944000,19944000,0.00242541,-0.00211933,-0.00447816,-0.0,0.0,0.0,0.0,-1.0
20044000,20044000,-0.00225968,0.00021317,-0.00468125,-0.0,0.0,0.0,0.0,-1.0
20140000,20140000,0.00222747,-0.00389623,-0.00606055,-0.0,0.0,0.0,0.0,-1.0
20240000,20240000,0.00345963,-0.00406722,-0.00489829,-0.0,0.0,0.0,0.0,-1.0
20340000,20340000,0.00122571,-0.00308904,-0.00408025,-0.0,0.0,0.0,0.0,-1.0
20440000,20440000,-0.00239169,-0.00319999,-0.00449424,-0.0,0.0,0.0,0.0,-1.0
20536000,20536000,-0.000184169,-0.00535989,-0.00400987,-0.0,0.0,0.0,0.0,-1.0
20632000,20632000,-0.00059478,-0.00192715,-0.00325425,-0.0,0.0,0.0,0.0,-1.0
20728000,20728000,0.000674691,-0.00623723,-0.00414112,-0.0,0.0,0.0,0.0,-1.0
20824000,20824000,-0.000714654,-0.00218607,-0.00384659,-0.0,0.0,0.0,0.0,-1.0
20924000,20924000,0.00138647,0.00102365,-0.00343138,-0.0,0.0,0.0,0.0,-1.0
21024000,21024000,-0.000708249,-0.00153513,-0.00406325,-0.0,0.0,0.0,0.0,-1.0
21124000,21124000,0.00335258,-0.000279051,-0.00242528,-0.0,0.0,0.0,0.0,-1.0
21224000,21224000,-0.00121551,-0.000716618,-0.00347211,-0.0,0.0,0.0,0.0,-1.0
21324000,21324000,-0.001281,-0.00288182,-0.00204624,-0.0,0.0,0.0,0.0,-1.0
21420000,21420000,0.000974941,-0.00561602,-0.00271617,-0.0,0.0,0.0,0.0,-1.0
21516000,21516000,0.000574317,-0.00272068,-0.00216062,-0.0,0.0,0.0,0.0,-1.0
21612000,21612000,-0.00146958,-0.000979442,-0.00234004,-0.0,0.0,0.0,0.0,-1.0
21712000,21712000,-0.000282265,0.00108605,-0.00214385,-0.0,0.0,0.0,0.0,-1.0
21808000,21808000,-7.58056e-05,-0.00609044,-0.00312341,-0.0,0.0,0.0,0.0,-1.0
21908000,21908000,0.000531472,5.91699e-05,-0.00433791,-0.0,0.0,0.0,0.0,-1.0
22008000,22008000,0.00402509,-0.00229862,-0.00174053,-0.0,0.0,0.0,0.0,-1.0
22104000,22104000,0.000321105,-0.000807472,-0.00362029,-0.0,0.0,0.0,0.0,-1.0
22204000,22204000,-0.00420108,-0.00156879,-0.00270029,-0.0,0.0,0.0,0.0,-1.0
22304000,22304000,-0.000199221,-0.000312199,-0.00509499,-0.0,0.0,0.0,0.0,-1.0
22404000,22404000,-0.0031497,0.000572148,-0.00382836,-0.0,0.0,0.0,0.0,-1.0
22504000,22504000,0.0013156,-0.00304386,-0.00343501,-0.0,0.0,0.0,0.0,-1.0
22604000,22604000,0.00359307,-0.00122123,-0.00152956,-0.0,0.0,0.0,0.0,-1.0
22700000,22700000,-0.000724916,-0.00170784,-0.00331743,-0.0,0.0,0.0,0.0,-1.0
22800000,22800000,0.000880601,0.00162895,-0.00263512,-0.0,0.0,0.0,0.0,-1.0
22900000,22900000,-0.00296772,-0.00321815,-0.00180471,-0.0,0.0,0.0,0.0,-1.0
23000000,23000000,-0.00352129,-0.000208132,-0.00291966,-0.0,0.0,0.0,0.0,-1.0
23096000,23096000,0.00285358,-0.00330141,-0.00334208,-0.0,0.0,0.0,0.0,-1.0
23196000,23196000,-0.00112477,-1.2561e-05,-0.0036899,-0.0,0.0,0.0,0.0,-1.0
23296000,23296000,0.00010795,-0.00345517,-0.00493481,-0.0,0.0,0.0,0.0,-1.0
23396000,23396000,6.6834e-05,-0.00088777,-0.00277719,-0.0,0.0,0.0,0.0,-1.0
23492000,23492000,0.00329631,0.00188333,-0.00492394,-0.0,0.0,0.0,0.0,-1.0
23592000,23592000,-0.00401907,-0.00207736,-0.00380509,-0.0,0.0,0.0,0.0,-1.0
23692000,23692000,0.00120785,-0.000629508,-0.00394679,-0.0,0.0,0.0,0.0,-1.0
23788000,23788000,0.00220432,0.000216395,-0.00371585,-0.0,0.0,0.0,0.0,-1.0
23888000,23888000,-0.00389827,-0.00277558,-0.00299953,-0.0,0.0,0.0,0.0,-1.0
23988000,23988000,0.00201097,0.000899482,-0.00308269,-0.0,0.0,0.0,0.0,-1.0
24084000,24084000,0.00197354,-0.0032817,-0.00422787,-0.0,0.0,0.0,0.0,-1.0
24184000,24184000,-0.00158345,-0.00609609,-0.00395615,-0.0,0.0,0.0,0.0,-1.0
24280000,24280000,0.00428615,-0.00037576,-0.00239485,-0.0,0.0,0.0,0.0,-1.0
24380000,24380000,0.0011668,-0.00365396,-0.004708,-0.0,0.0,0.0,0.0,-1.0
24480000,24480000,0.00113449,0.00137767,-0.00326397,-0.0,0.0,0.0,0.0,-1.0
24580000,24580000,0.00245717,-0.000264737,-0.00408946,-0.0,0.0,0.0,0.0,-1.0
24676000,24676000,0.00505672,-0.00615902,-0.00368515,-0.0,0.0,0.0,0.0,-1.0
24776000,24776000,0.00467091,0.00020799,-0.0023926,-0.0,0.0,0.0,0.0,-1.0
24872000,24872000,-0.00154568,-0.000184557,-0.0033575,-0.0,0.0,0.0,0.0,-1.0
24968000,24968000,0.00209553,-0.00489874,-0.00249949,-0.0,0.0,0.0,0.0,-1.0
25068000,25068000,-0.00359607,-0.00134977,-0.00371319,-0.0,0.0,0.0,0.0,-1.0
25164000,25164000,-0.00240862,-0.00323901,-0.00324244,-0.0,0.0,0.0,0.0,-1.0
25264000,25264000,0.00344889,0.0018044,-0.00331991,-0.0,0.0,0.0,0.0,-1.0
25364000,25364000,0.00114518,-0.00216675,-0.00251605,-0.0,0.0,0.0,0.0,-1.0
25464000,25464000,0.00157669,-0.00132424,-0.00393169,-0.0,0.0,0.0,0.0,-1.0
25564000,25564000,0.00258476,-0.00160828,-0.00169881,-0.0,0.0,0.0,0.0,-1.0
25660000,25660000,-0.000338402,0.00173649,-0.00288121,-0.0,0.0,0.0,0.0,-1.0
25756000,25756000,-0.00034612,-0.000951405,-0.00368037,-0.0,0.0,0.0,0.0,-1.0
25856000,25856000,0.00187255,0.00142238,-0.00230025,-0.0,0.0,0.0,0.0,-1.0
25952000,25952000,0.000464931,-0.00342302,-0.00390255,-0.0,0.0,0.0,0.0,-1.0
26052000,26052000,-0.00401225,-0.00115517,-0.00267367,-0.0,0.0,0.0,0.0,-1.0
26152000,26152000,0.00252606,-0.00212996,0.000382178,-0.0,0.0,0.0,0.0,-1.0
26252000,26252000,0.000784992,-0.00277045,-0.00361376,-0.0,0.0,0.0,0.0,-1.0
26348000,26348000,-0.00287729,0.0017646,-0.0042211,-0.0,0.0,0.0,0.0,-1.0
26444000,26444000,-0.00467665,-0.00199059,-0.00353114,-0.0,0.0,0.0,0.0,-1.0
26540000,26540000,0.00405182,0.000303608,-0.00374033,-0.0,0.0,0.0,0.0,-1.0
26640000,26640000,0.00447216,-0.00818848,-0.00255013,-0.0,0.0,0.0,0.0,-1.0
26736000,26736000,0.00440637,0.000319257,-0.00224024,-0.0,0.0,0.0,0.0,-1.0
26832000,26832000,0.00241087,-0.000688364,-0.00445138,-0.0,0.0,0.0,0.0,-1.0
26932000,26932000,7.33071e-05,-0.0016112,-0.00451102,-0.0,0.0,0.0,0.0,-1.0
27032000,27032000,0.00431084,0.00336388,-0.00437919,-0.0,0.0,0.0,0.0,-1.0
27128000,27128000,-0.00210625,-0.00409923,-0.00462489,-0.0,0.0,0.0,0.0,-1.0
27228000,27228000,-0.00355689,-0.00337062,-0.00236472,-0.0,0.0,0.0,0.0,-1.0
27324000,27324000,0.00293638,-0.00322521,-0.00370921,-0.0,0.0,0.0,0.0,-1.0
27420000,27420000,0.00433288,0.000722995,-0.00403704,-0.0,0.0,0.0,0.0,-1.0
27520000,27520000,0.00219559,-0.00195808,-0.00355292,-0.0,0.0,0.0,0.0,-1.0
27620000,27620000,0.00360549,0.00107285,-0.00454191,-0.0,0.0,0.0,0.0,-1.0
27716000,27716000,0.00340395,-0.000543798,-0.00435869,-0.0,0.0,0.0,0.0,-1.0
27816000,27816000,0.000758944,0.00214876,-0.005184,-0.0,0.0,0.0,0.0,-1.0
27912000,27912000,0.003328,-0.00112978,-0.00397799,-0.0,0.0,0.0,0.0,-1.0
28012000,28012000,0.00211294,-0.00306567,-0.00328438,-0.0,0.0,0.0,0.0,-1.0
28112000,28112000,0.00074121,-0.00292742,-0.00295528,-0.0,0.0,0.0,0.0,-1.0
28208000,28208000,0.00403691,-0.00585471,-0.00393668,-0.0,0.0,0.0,0.0,-1.0
28308000,28308000,0.00862109,-0.00230641,-0.00279368,-0.0,0.0,0.0,0.0,-1.0
28408000,28408000,0.00132828,-0.00476481,-0.00440816,-0.0,0.0,0.0,0.0,-1.0
28504000,28504000,0.00147941,0.00355982,-0.00383814,-0.0,0.0,0.0,0.0,-1.0
28600000,28600000,0.00552754,0.00288229,-0.00539436,-0.0,0.0,0.0,0.0,-1.0
28696000,28696000,0.000221594,-0.000796441,-0.00464085,-0.0,0.0,0.0,0.0,-1.0
28796000,28796000,0.000839579,-0.000802908,-0.00393003,-0.0,0.0,0.0,0.0,-1.0
28896000,28896000,0.000223551,-0.00197223,-0.00194233,-0.0,0.0,0.0,0.0,-1.0
28996000,28996000,0.00287367,-0.00149473,-0.00374598,-0.0,0.0,0.0,0.0,-1.0
29096000,29096000,0.00605594,0.00201946,-0.00427672,-0.0,0.0,0.0,0.0,-1.0
29196000,29196000,0.00458144,0.00538394,-0.00396528,-0.0,0.0,0.0,0.0,-1.0
29292000,29292000,0.00338586,-0.00101737,-0.00357,-0.0,0.0,0.0,0.0,-1.0
29388000,29388000,0.00103285,-0.000204912,-0.00296421,-0.0,0.0,0.0,0.0,-1.0
29488000,29488000,0.00137057,0.00109945,-0.00386654,-0.0,0.0,0.0,0.0,-1.0
29588000,29588000,-0.000157573,0.00321365,-0.00406717,-0.0,0.0,0.0,0.0,-1.0
29688000,29688000,0.00538257,-0.00130039,-0.00597068,-0.0,0.0,0.0,0.0,-1.0
29788000,29788000,0.000892242,-0.00296056,-0.00346125,-0.0,0.0,0.0,0.0,-1.0
29888000,29888000,0.00222849,0.00272428,-0.00370291,-0.0,0.0,0.0,0.0,-1.0
29984000,29984000,-0.00043263,-0.00168892,-0.00514656,-0.0,0.0,0.0,0.0,-1.0
30084000,30084000,-0.00170578,-0.00160472,-0.00361373,-0.0,0.0,0.0,0.0,-1.0
30184000,30184000,0.000673888,-0.000799364,-0.00458744,-0.0,0.0,0.0,0.0,-1.0
30284000,30284000,0.00290603,-0.00274837,-0.00461781,-0.0,0.0,0.0,0.0,-1.0
30380000,30380000,0.00257238,0.00252436,-0.00348115,-0.0,0.0,0.0,0.0,-1.0
30480000,30480000,0.00106057,0.0044025,-0.00450486,-0.0,0.0,0.0,0.0,-1.0
30576000,30576000,0.00198335,0.00153713,-0.00325659,-0.0,0.0,0.0,0.0,-1.0
30676000,30676000,0.00234227,0.00315897,-0.00504281,-0.0,0.0,0.0,0.0,-1.0
30776000,30776000,-0.00269937,-0.00102929,-0.00527521,-0.0,0.0,0.0,0.0,-1.0
30876000,30876000,-0.00536133,0.00450128,-0.00486509,-0.0,0.0,0.0,0.0,-1.0
30976000,30976000,-0.00615193,0.00403373,-0.00557581,-0.0,0.0,0.0,0.0,-1.0
31076000,31076000,-0.00409237,0.00267337,-0.00506942,-0.0,0.0,0.0,0.0,-1.0
31176000,31176000,-0.000221652,0.0011711,-0.00429416,-0.0,0.0,0.0,0.0,-1.0
31272000,31272000,-0.00476838,0.00317664,-0.00566718,-0.0,0.0,0.0,0.0,-1.0
31372000,31372000,-0.0059506,-0.00315653,-0.00423742,-0.0,0.0,0.0,0.0,-1.0
31472000,31472000,-0.00172087,0.00409032,-0.00393754,-0.0,0.0,0.0,0.0,-1.0
31572000,31572000,-0.00168689,0.00143481,-0.00388416,-0.0,0.0,0.0,0.0,-1.0
31668000,31668000,-0.00619665,0.00393529,-0.00405604,-0.0,0.0,0.0,0.0,-1.0
31768000,31768000,-0.000882993,0.00191782,-0.0044427,-0.0,0.0,0.0,0.0,-1.0
31868000,31868000,-0.00419592,-0.00476046,-0.00607855,-0.0,0.0,0.0,0.0,-1.0
31968000,31968000,-0.00528844,0.000666268,-0.005542,-0.0,0.0,0.0,0.0,-1.0
32068000,32068000,-0.00317399,0.00248383,-0.00601926,-0.0,0.0,0.0,0.0,-1.0
32168000,32168000,-0.00231391,-0.00110889,-0.00443786,-0.0,0.0,0.0,0.0,-1.0
32264000,32264000,-0.00257068,-0.000625318,-0.00517718,-0.0,0.0,0.0,0.0,-1.0
32364000,32364000,0.000135001,-0.00319467,-0.00466908,-0.0,0.0,0.0,0.0,-1.0
32464000,32464000,0.00461427,-0.00100438,-0.00353207,-0.0,0.0,0.0,0.0,-1.0
32560000,32560000,0.000850183,0.000982704,-0.00383749,-0.0,0.0,0.0,0.0,-1.0
32660000,32660000,-0.00110347,-0.00149034,-0.00476308,-0.0,0.0,0.0,0.0,-1.0
32756000,32756000,0.00270227,0.00167528,-0.0048346,-0.0,0.0,0.0,0.0,-1.0
32852000,32852000,0.00075464,0.00120373,-0.00529312,-0.0,0.0,0.0,0.0,-1.0
32952000,32952000,-0.00207462,-0.00154199,-0.00662954,-0.0,0.0,0.0,0.0,-1.0
33052000,33052000,-0.00363192,5.40109e-05,-0.00647616,-0.0,0.0,0.0,0.0,-1.0
33152000,33152000,0.000714332,-0.000863383,-0.00703478,-0.0,0.0,0.0,0.0,-1.0
33252000,33252000,-0.00170519,-0.00210872,-0.00411636,-0.0,0.0,0.0,0.0,-1.0
33352000,33352000,0.00371139,0.00220248,-0.00390261,-0.0,0.0,0.0,0.0,-1.0
33448000,33448000,0.00418236,-0.00174924,-0.00580237,-0.0,0.0,0.0,0.0,-1.0
33548000,33548000,0.00149197,-0.00322126,-0.00629262,-0.0,0.0,0.0,0.0,-1.0
33648000,33648000,-0.00640475,-0.000654852,-0.00547566,-0.0,0.0,0.0,0.0,-1.0
33748000,33748000,-0.00233158,0.00151952,-0.00543,-0.0,0.0,0.0,0.0,-1.0
33844000,33844000,0.00444682,-0.00127331,-0.00551885,-0.0,0.0,0.0,0.0,-1.0
33940000,33940000,-0.00262115,-0.000978729,-0.00373648,-0.0,0.0,0.0,0.0,-1.0
34040000,34040000,-0.00313024,-0.000396034,-0.00516423,-0.0,0.0,0.0,0.0,-1.0
34136000,34136000,0.000811994,0.0031702,-0.0047246,-0.0,0.0,0.0,0.0,-1.0
34236000,34236000,0.000403422,0.00100591,-0.00494182,-0.0,0.0,0.0,0.0,-1.0
34336000,34336000,0.00210236,-0.00147957,-0.00557361,-0.0,0.0,0.0,0.0,-1.0
34436000,34436000,0.00274469,-0.00275438,-0.00621862,-0.0,0.0,0.0,0.0,-1.0
34536000,34536000,0.000273505,0.000939008,-0.00449883,-0.0,0.0,0.0,0.0,-1.0
34636000,34636000,0.00300014,-0.00041722,-0.00416482,-0.0,0.0,0.0,0.0,-1.0
34736000,34736000,0.000890501,-0.00107143,-0.00465198,-0.0,0.0,0.0,0.0,-1.0
34832000,34832000,-0.00184036,-0.00244002,-0.00588421,-0.0,0.0,0.0,0.0,-1.0
34928000,34928000,0.00115276,-0.00142972,-0.00480944,-0.0,0.0,0.0,0.0,-1.0
35028000,35028000,0.000951566,-0.00294902,-0.00510643,-0.0,0.0,0.0,0.0,-1.0
35128000,35128000,0.000693205,-0.000649795,-0.00481669,-0.0,0.0,0.0,0.0,-1.0
35224000,35224000,0.00325701,-0.0021402,-0.00553856,-0.0,0.0,0.0,0.0,-1.0
35324000,35324000,0.0016976,-0.000585222,-0.00447866,-0.0,0.0,0.0,0.0,-1.0
35420000,35420000,0.0038783,-0.00190259,-0.00526329,-0.0,0.0,0.0,0.0,-1.0
35516000,35516000,0.00462385,-0.0013655,-0.00544905,-0.0,0.0,0.0,0.0,-1.0
35616000,35616000,-0.00142729,-0.00479765,-0.00425267,-0.0,0.0,0.0,0.0,-1.0
35712000,35712000,0.00424563,-0.00115072,-0.00557484,-0.0,0.0,0.0,0.0,-1.0
35808000,35808000,0.000957098,-0.00457287,-0.00665566,-0.0,0.0,0.0,0.0,-1.0
35908000,35908000,-0.00303984,-0.00765764,-0.000396308,0.12,0.0,0.0,0.0,-1.0
36004000,36004000,0.00437134,-0.00134346,0.00120027,0.120001,0.0,0.0,0.0,-1.0
36100000,36100000,-0.00660272,-0.00186979,-0.000560902,0.160584,0.0,0.0,0.0,-1.0
36196000,36196000,-0.00648454,-0.00571169,-0.00266447,0.239263,0.0,0.0,0.0,-1.0
36292000,36292000,-0.00349275,0.00222672,0.000211903,0.309215,0.0,0.0,0.0,-1.0
36388000,36388000,0.00272546,-0.00264899,0.00049345,0.376244,0.0,0.0,0.0,-1.0
36488000,36488000,0.00269704,-0.00437449,0.000606221,0.444783,0.0,0.0,0.0,-1.0
36588000,36588000,-0.00445232,0.00772959,0.00134047,0.527782,0.0,0.0,0.0,-1.0
36684000,36684000,-0.00230403,0.00406242,-0.000146083,0.556167,0.0,0.0,0.0,-1.0
36784000,36784000,-0.00352066,-0.000503448,0.00117674,0.554074,0.0,0.0,0.0,-1.0
36880000,36880000,0.00347114,0.00354425,0.000944093,0.551483,0.0,0.0,0.0,-1.0
36980000,36980000,0.000763654,-0.00327253,0.000671021,0.553384,0.0,0.0,0.0,-1.0
37080000,37080000,-0.000377301,-0.00739631,0.000200371,0.56077,0.0,0.0,0.0,-1.0
37176000,37176000,-0.00504675,0.00425627,-0.000252668,0.558167,0.0,0.0,0.0,-1.0
37276000,37276000,-0.00619115,0.00120029,-0.000360736,0.558083,0.0,0.0,0.0,-1.0
37372000,37372000,-0.0045375,-0.00852508,-0.00154514,0.556845,0.0,0.0,0.0,-1.0
37472000,37472000,0.0015245,0.000163115,-0.000460429,0.563184,0.0,0.0,0.0,-1.0
37572000,37572000,-0.000886781,-0.00314732,-0.00074489,0.559456,0.0,0.0,0.0,-1.0
37668000,37668000,0.00232708,0.00165483,0.00192026,0.559589,0.0,0.0,0.0,-1.0
37768000,37768000,-0.00103607,0.00372291,0.00123242,0.55791,0.0,0.0,0.0,-1.0
37868000,37868000,0.00114945,-0.00310486,-1.41071e-05,0.563538,0.0,0.0,0.0,-1.0
37964000,37964000,0.00108175,0.00221672,-0.00150656,0.560137,0.0,0.0,0.0,-1.0
38064000,38064000,0.00591741,-0.000624509,0.0023426,0.560477,0.0,0.0,0.0,-1.0
38164000,38164000,-0.000302025,0.00155064,0.000964431,0.55691,0.0,0.0,0.0,-1.0
38264000,38264000,-4.65009e-05,0.00436326,0.000972465,0.562602,0.0,0.0,0.0,-1.0
38364000,38364000,0.00166661,-0.00283145,0.00161121,0.562539,0.0,0.0,0.0,-1.0
38464000,38464000,-0.00301201,0.000726714,0.00058325,0.557093,0.0,0.0,0.0,1.0
38560000,38560000,0.00174243,-0.00255392,0.00174233,0.466821,0.0,0.0,0.0,1.0
38660000,38660000,0.00673843,0.00494661,0.0010914,0.438454,0.0,0.0,0.0,1.0
38760000,38760000,0.00129409,0.00336688,0.000172866,0.449299,0.0,0.0,0.0,1.0
38856000,38856000,0.00403337,-0.00878786,0.00110001,0.448934,0.0,0.0,0.0,1.0
38956000,38956000,0.00253472,-0.00258659,-0.00163771,0.451641,0.0,0.0,0.0,1.0
39056000,39056000,-0.00072081,-0.00188984,-0.00366154,0.448908,0.0,0.0,0.0,1.0
39156000,39156000,-0.00251459,-0.00353731,-0.000689882,0.45894,0.0,0.0,0.0,1.0
39256000,39256000,-0.00317353,0.00058167,-0.00148819,0.464684,0.0,0.0,0.0,1.0
39356000,39356000,-0.00115731,0.000476418,-0.000560468,0.463476,0.0,0.0,0.0,1.0
39452000,39452000,0.00173145,0.00274236,-0.000590674,0.463418,0.0,0.0,0.0,1.0
39548000,39548000,0.00584383,-0.000398195,-0.000209911,0.472532,0.0,0.0,0.0,1.0
39644000,39644000,-0.00357551,0.00233766,-0.00125156,0.470583,0.0,0.0,0.0,1.0
39740000,39740000,-0.00408772,0.00648774,-0.000160609,0.47357,0.0,0.0,0.0,1.0
39840000,39840000,0.00251299,0.0043785,0.00173486,0.472853,0.0,0.0,0.0,1.0
39940000,39940000,0.000471951,-0.00126059,-0.000376347,0.482113,0.0,0.0,0.0,1.0
40036000,40036000,-0.00180183,0.00392735,-0.000316401,0.479888,0.0,0.0,0.0,1.0
40132000,40132000,-0.00606391,-0.00486795,0.000254044,0.480299,0.0,0.0,0.0,1.0
40232000,40232000,-0.00457119,-0.00231082,-0.000852408,0.482564,0.0,0.0,0.0,1.0
40328000,40328000,0.000813916,0.000730143,-0.00112805,0.490042,0.0,0.0,0.0,1.0
40428000,40428000,0.00350116,6.39909e-05,0.000510293,0.486691,0.0,0.0,0.0,1.0
40528000,40528000,0.000627128,-0.00146268,0.00157458,0.486486,0.0,0.0,0.0,1.0
40624000,40624000,0.00262319,0.000932791,0.000513307,0.484803,0.0,0.0,0.0,1.0
40724000,40724000,-0.00203076,0.00142298,0.000205575,0.489322,0.0,0.0,0.0,1.0
40824000,40824000,-0.000351265,0.00135325,0.000783196,0.490694,0.0,0.0,0.0,1.0
40924000,40924000,0.000347387,0.000923455,-0.000727135,0.489024,0.0,0.0,0.0,1.0
41024000,41024000,-0.000354999,-0.000293289,5.84917e-05,0.487242,0.0,0.0,0.0,1.0
41120000,41120000,-0.00016494,-0.0042128,0.00112229,0.495757,0.0,0.0,0.0,1.0
41220000,41220000,-0.00326044,-0.00531555,-0.000885057,0.494575,0.0,0.0,0.0,1.0
41320000,41320000,0.00227137,0.00400859,0.00107001,0.490348,0.0,0.0,0.0,1.0
41420000,41420000,0.000868194,0.00642968,-0.0022631,0.491081,0.0,0.0,0.0,1.0
41520000,41520000,-0.000978244,0.00398947,-0.000297898,0.48699,0.0,0.0,0.0,1.0
41620000,41620000,-0.000282916,0.00582057,-0.00136939,0.494365,0.0,0.0,0.0,1.0
41720000,41720000,-0.00472552,0.0046633,-0.000495613,0.491289,0.0,0.0,0.0,1.0
41816000,41816000,0.00132765,-0.0024095,0.00233577,0.49014,0.0,0.0,0.0,1.0
41912000,41912000,-0.00312629,-0.00544843,-0.000456229,0.487148,0.0,0.0,0.0,1.0
42008000,42008000,-0.00280117,0.000585304,-0.00177093,0.495418,0.0,0.0,0.0,1.0
42108000,42108000,-0.00310907,0.00486556,-0.000657465,0.491745,0.0,0.0,0.0,1.0
42208000,42208000,-0.00120956,-0.00369136,5.09395e-05,0.490649,0.0,0.0,0.0,1.0
42304000,42304000,0.0010538,-0.00198449,-0.000187571,0.487301,0.0,0.0,0.0,1.0
42404000,42404000,0.00236278,-0.00280188,-0.000441202,0.495544,0.0,0.0,0.0,1.0
42504000,42504000,-0.00145537,0.00426009,-0.00207365,0.49414,0.0,0.0,0.0,1.0
42604000,42604000,-0.00326982,-0.0037757,-0.000217318,0.491775,0.0,0.0,0.0,1.0
42704000,42704000,0.00283541,-0.00500475,0.000846863,0.488909,0.0,0.0,0.0,1.0
42804000,42804000,0.00114697,0.000982304,3.95999e-05,0.486415,0.0,0.0,0.0,1.0
42904000,42904000,-0.00447095,0.00443016,-0.000629033,0.494183,0.0,0.0,0.0,1.0
43004000,43004000,-0.00432827,-0.00516592,-0.000123681,0.491201,0.0,0.0,0.0,1.0
43104000,43104000,0.000411391,0.0019072,-0.00232399,0.505604,0.0,0.0,0.0,1.0
43204000,43204000,-0.000332926,0.00635488,-0.000942222,0.535369,0.0,0.0,0.0,1.0
43300000,43300000,0.000820884,0.000702743,0.000876583,0.566429,0.0,0.0,0.0,1.0
43396000,43396000,0.00110138,0.00345571,0.000640793,0.622907,0.0,0.0,0.0,1.0
43492000,43492000,0.00433094,0.00597318,-0.000575694,0.651158,0.0,0.0,0.0,1.0
43588000,43588000,-0.0068121,-0.00175845,-0.000432054,0.645328,0.0,0.0,0.0,1.0
43684000,43684000,-0.00182115,0.000560504,0.000787539,0.61191,0.0,0.0,0.0,1.0
43780000,43780000,-0.00581223,-0.00573552,-0.000583645,0.592583,0.0,0.0,0.0,1.0
43876000,43876000,-0.00586624,-0.00415531,-3.98532e-05,0.513829,0.0,0.0,0.0,1.0
43972000,43972000,-0.00232708,-0.0039565,0.00118375,0.501091,0.0,0.0,0.0,1.0
44068000,44068000,-0.00210127,0.00446714,-0.000973002,0.49922,0.0,0.0,0.0,1.0
44168000,44168000,0.00379108,0.00270832,-8.8048e-05,0.499247,0.0,0.0,0.0,1.0
44264000,44264000,0.00402145,-0.00432227,-0.00179492,0.496897,0.0,0.0,0.0,1.0
44360000,44360000,-0.00631709,0.00233356,0.000198623,0.494577,0.0,0.0,0.0,1.0
44456000,44456000,0.00180998,-0.00038283,0.00172061,0.493439,0.0,0.0,0.0,1.0
44552000,44552000,0.00263701,0.000448171,-0.00284613,0.493142,0.0,0.0,0.0,1.0
44652000,44652000,-1.44502e-05,-0.00380095,-0.00151432,0.493634,0.0,0.0,0.0,1.0
44748000,44748000,0.00124043,-0.00327989,-0.000277912,0.492933,0.0,0.0,0.0,1.0
44844000,44844000,-0.00808267,0.00123875,-0.00033081,0.492829,0.0,0.0,0.0,1.0
44944000,44944000,0.00204762,-0.00885601,-0.00086779,0.493861,0.0,0.0,0.0,1.0
45044000,45044000,-0.00252913,-0.00722777,-0.000783256,0.494219,0.0,0.0,0.0,1.0
45144000,45144000,-4.77126e-05,-0.00566056,0.00123472,0.486235,0.0,0.0,0.0,1.0
45244000,45244000,-0.00175184,-0.00112837,0.00249445,0.498359,0.0,0.0,0.0,1.0
45344000,45344000,0.0014074,-0.0078592,0.000436944,0.492184,0.0,0.0,0.0,1.0
45440000,45440000,0.00134127,0.00397002,-0.00117371,0.492905,0.0,0.0,0.0,1.0
45540000,45540000,0.00374187,-0.00723819,0.00221873,0.487345,0.0,0.0,0.0,1.0
45640000,45640000,0.000551656,-0.00269363,-0.000415107,0.502089,0.0,0.0,0.0,1.0
45740000,45740000,-0.000767254,0.000273278,-0.000566372,0.502859,0.0,0.0,0.0,1.0
45836000,45836000,0.0037902,0.00229599,5.96535e-05,0.49561,0.0,0.0,0.0,1.0
45932000,45932000,0.00317264,0.00181314,-0.00136174,0.489785,0.0,0.0,0.0,1.0
46028000,46028000,0.000100799,-0.000562122,0.00194006,0.505078,0.0,0.0,0.0,1.0
46128000,46128000,-0.00223697,9.40321e-06,-0.000914581,0.496642,0.0,0.0,0.0,1.0
46228000,46228000,-0.00657949,0.00530298,-0.00138804,0.495135,0.0,0.0,0.0,1.0
46328000,46328000,-0.000929763,0.00343072,-0.00112637,0.488744,0.0,0.0,0.0,1.0
46424000,46424000,0.00227289,0.00107468,-0.000345432,0.504032,0.0,0.0,0.0,1.0
46524000,46524000,-0.00246544,0.00620407,-0.00215637,0.500539,0.0,0.0,0.0,1.0
46620000,46620000,0.00399761,0.0053106,-0.000365052,0.490728,0.0,0.0,0.0,1.0
46720000,46720000,0.000448234,-0.00772262,-0.000536923,0.485201,0.0,0.0,0.0,1.0
46816000,46816000,-0.002124,-0.00210077,-0.00066905,0.497817,0.0,0.0,0.0,1.0
46916000,46916000,0.00329479,-0.00369983,-0.00183891,0.498827,0.0,0.0,0.0,1.0
47016000,47016000,-0.00340078,-0.00129231,0.000161635,0.493062,0.0,0.0,0.0,1.0
47116000,47116000,-0.00116738,-0.00409747,-5.7099e-05,0.487381,0.0,0.0,0.0,1.0
47212000,47212000,-0.00404403,0.000877186,0.000505741,0.488173,0.0,0.0,0.0,1.0
47312000,47312000,-0.00153669,0.00409619,5.73367e-05,0.500074,0.0,0.0,0.0,1.0
47408000,47408000,-0.00149692,0.00141747,-0.000586435,0.493214,0.0,0.0,0.0,1.0
47508000,47508000,-0.00357462,0.000102156,0.00149424,0.487528,0.0,0.0,0.0,1.0
47604000,47604000,-0.00144241,-0.000959981,0.00136566,0.488166,0.0,0.0,0.0,1.0
47704000,47704000,0.00160785,-7.08826e-05,0.000704584,0.502333,0.0,0.0,0.0,1.0
47800000,47800000,0.00476128,-0.00160525,-0.000270503,0.494687,0.0,0.0,0.0,1.0
47896000,47896000,0.000794068,-0.00459582,0.000354878,0.488976,0.0,0.0,0.0,1.0
47992000,47992000,0.00143784,0.00152406,0.000922204,0.502711,0.0,0.0,0.0,1.0
48088000,48088000,-0.000308853,0.00361603,0.000392719,0.495165,0.0,0.0,0.0,1.0
48188000,48188000,-0.00608598,-0.00553175,0.00023197,0.494862,0.0,0.0,0.0,1.0
48284000,48284000,-0.00370857,0.00304151,-0.000756135,0.488998,0.0,0.0,0.0,1.0
48380000,48380000,4.09413e-05,-0.00254994,-0.000296316,0.502097,0.0,0.0,0.0,1.0
48480000,48480000,-0.00513709,-0.00298777,-0.00126513,0.504412,0.0,0.0,0.0,1.0
48580000,48580000,-0.000475021,0.000538899,-5.8475e-05,0.497171,0.0,0.0,0.0,1.0
48676000,48676000,0.00385009,0.000768392,-0.00108619,0.490008,0.0,0.0,0.0,1.0
48772000,48772000,0.0020633,0.00337138,0.000969644,0.505805,0.0,0.0,0.0,1.0
48872000,48872000,-0.000816557,0.00479445,0.000142765,0.498873,0.0,0.0,0.0,1.0
48972000,48972000,-0.000168093,-0.00717928,0.000222633,0.498397,0.0,0.0,0.0,1.0
49072000,49072000,0.000211064,0.00125664,-2.72746e-05,0.490943,0.0,0.0,0.0,1.0
49172000,49172000,-0.002719,-0.00403274,0.00048863,0.490221,0.0,0.0,0.0,1.0
49272000,49272000,0.00379245,0.00377413,0.000230066,0.504957,0.0,0.0,0.0,1.0
49372000,49372000,0.00524656,-0.0054217,-0.00109466,0.498403,0.0,0.0,0.0,1.0
49468000,49468000,-0.00177384,-0.00318843,0.00059406,0.498622,0.0,0.0,0.0,1.0
49564000,49564000,0.00199326,0.000668805,0.00158105,0.492242,0.0,0.0,0.0,1.0
49660000,49660000,-0.00467246,-0.000867733,0.000268062,0.505822,0.0,0.0,0.0,1.0
49760000,49760000,-0.00175235,-9.12251e-05,0.000444624,0.49799,0.0,0.0,0.0,1.0
49860000,49860000,0.00111754,-0.00607469,-0.00127914,0.491916,0.0,0.0,0.0,1.0
49960000,49960000,-0.00316053,-0.00434482,-0.000559708,0.490032,0.0,0.0,0.0,1.0
50056000,50056000,0.000995199,0.00058829,0.000604068,0.503796,0.0,0.0,0.0,1.0
50156000,50156000,0.0037282,-0.000937776,-0.00015395,0.496301,0.0,0.0,0.0,1.0
50252000,50252000,0.0058589,0.00161242,0.000879219,0.48797,0.0,0.0,0.0,1.0
50352000,50352000,-0.0020849,0.000135139,0.00119183,0.488406,0.0,0.0,0.0,1.0
50452000,50452000,-0.000759464,0.00217757,0.000586665,0.503936,0.0,0.0,0.0,1.0
50548000,50548000,-0.00201409,-0.00203143,-0.000392955,0.49764,0.0,0.0,0.0,1.0
50644000,50644000,-0.00437347,-0.00261338,-0.000753165,0.489839,0.0,0.0,0.0,1.0
50740000,50740000,-0.000805516,-0.00161604,-0.000163548,0.488664,0.0,0.0,0.0,1.0
50840000,50840000,0.00366522,-0.008416,-9.8801e-05,0.502524,0.0,0.0,0.0,1.0
50940000,50940000,-0.00118763,-0.0139861,7.80733e-05,0.495798,0.0,0.0,0.0,1.0
51040000,51040000,-2.68663e-06,-0.00583317,-0.000193546,0.495525,0.0,0.0,0.0,1.0
51136000,51136000,0.00555921,0.0027365,-0.000727298,0.488731,0.0,0.0,0.0,1.0
51236000,51236000,-0.00158782,0.00493666,0.000372925,0.502115,0.0,0.0,0.0,1.0
51332000,51332000,0.00295255,-0.000123292,9.25572e-05,0.49435,0.0,0.0,0.0,1.0
51432000,51432000,0.00208893,0.00252049,0.000142049,0.4947,0.0,0.0,0.0,1.0
51528000,51528000,-0.00700935,0.00169599,-0.000962629,0.488763,0.0,0.0,0.0,1.0
51624000,51624000,-0.000562297,-0.00161512,-0.0014988,0.502306,0.0,0.0,0.0,1.0
51720000,51720000,-0.00398093,0.00229574,-0.000757946,0.497392,0.0,0.0,0.0,1.0
51816000,51816000,-0.00210097,0.00648878,0.00114219,0.491373,0.0,0.0,0.0,1.0
51916000,51916000,0.00274975,-0.00710489,0.000624812,0.492872,0.0,0.0,0.0,1.0
52016000,52016000,0.00562315,-0.00247994,0.00252035,0.494037,0.0,0.0,0.0,1.0
52116000,52116000,0.00484852,0.00390692,0.000492995,0.500423,0.0,0.0,0.0,1.0
52216000,52216000,-0.0011669,0.00552068,-0.00118569,0.49925,0.0,0.0,0.0,1.0
52316000,52316000,0.00150862,0.000177652,0.000528051,0.498423,0.0,0.0,0.0,1.0
52416000,52416000,-0.00162497,-0.00164121,-0.00208629,0.492894,0.0,0.0,0.0,1.0
52516000,52516000,-0.00339486,0.00184301,0.00117435,0.493953,0.0,0.0,0.0,1.0
52616000,52616000,-0.00753827,-0.00956239,-0.00116859,0.498632,0.0,0.0,0.0,1.0
52712000,52712000,-0.00204743,-0.00629741,-0.00156351,0.497649,0.0,0.0,0.0,1.0
52812000,52812000,-0.00148432,-0.00389714,0.000302479,0.49024,0.0,0.0,0.0,1.0
52912000,52912000,0.0021949,-0.00131331,8.96232e-05,0.488034,0.0,0.0,0.0,1.0
53012000,53012000,0.00103043,-0.00017453,0.00153365,0.500811,0.0,0.0,0.0,1.0
53112000,53112000,0.000309041,0.00518462,-0.000151231,0.490465,0.0,0.0,0.0,1.0
53212000,53212000,-0.000513168,0.00654434,0.00117871,0.4928,0.0,0.0,0.0,1.0
53312000,53312000,0.00602983,-0.000304497,0.000152494,0.489162,0.0,0.0,0.0,1.0
53412000,53412000,0.00234837,-0.00197921,-0.000679207,0.487285,0.0,0.0,0.0,1.0
53512000,53512000,-0.00110662,-0.00109154,0.00131149,0.501542,0.0,0.0,0.0,1.0
53608000,53608000,-0.00138296,-0.00576991,-0.000384273,0.495232,0.0,0.0,0.0,1.0
53708000,53708000,-0.00078997,-0.000988911,0.0012538,0.496556,0.0,0.0,0.0,1.0
53804000,53804000,0.00190317,-0.00577704,-0.000802101,0.490324,0.0,0.0,0.0,1.0
53900000,53900000,0.00289566,-0.00415042,0.000414558,0.501453,0.0,0.0,0.0,1.0
53996000,53996000,-0.00285189,0.000788067,0.000788428,0.493693,0.0,0.0,0.0,1.0
54096000,54096000,0.00314976,-0.00320679,0.00202702,0.48712,0.0,0.0,0.0,1.0
54192000,54192000,-0.00141946,-0.0020876,-0.001946,0.499771,0.0,0.0,0.0,1.0
54292000,54292000,-0.00179469,-0.00419685,-0.000642097,0.500824,0.0,0.0,0.0,1.0
54392000,54392000,-0.00334468,-0.00389025,-0.000117584,0.493609,0.0,0.0,0.0,1.0
54488000,54488000,0.00115018,0.00790092,0.000220419,0.488409,0.0,0.0,0.0,1.0
54588000,54588000,0.000658379,0.00859383,-0.000298606,0.487296,0.0,0.0,0.0,1.0
54688000,54688000,0.00144696,0.00446068,-0.000674103,0.501284,0.0,0.0,0.0,1.0
54784000,54784000,-0.00402886,0.00229647,-0.000554926,0.494919,0.0,0.0,0.0,1.0
54884000,54884000,-0.00595581,-0.00316766,-0.000158782,0.495458,0.0,0.0,0.0,1.0
54984000,54984000,-0.00160176,-0.00185936,-0.000541415,0.489154,0.0,0.0,0.0,1.0
55084000,55084000,0.00540153,0.00263369,4.66767e-05,0.502976,0.0,0.0,0.0,1.0
55180000,55180000,0.00242629,0.00188068,0.000214103,0.494235,0.0,0.0,0.0,1.0
55276000,55276000,-0.00139328,-0.000307835,-0.00188526,0.494324,0.0,0.0,0.0,1.0
55376000,55376000,-0.00587329,-0.000487467,0.00174677,0.487813,0.0,0.0,0.0,1.0
55476000,55476000,0.000273804,-0.0018675,-5.58806e-05,0.500862,0.0,0.0,0.0,1.0
55576000,55576000,0.00349972,-0.0021711,0.000173261,0.494399,0.0,0.0,0.0,1.0
55676000,55676000,0.00331709,4.06085e-05,0.00168788,0.494277,0.0,0.0,0.0,1.0
55776000,55776000,-0.00209057,0.00261532,-0.000757979,0.489172,0.0,0.0,0.0,1.0
55876000,55876000,-0.00320794,0.00746585,3.56028e-05,0.503735,0.0,0.0,0.0,1.0
55972000,55972000,0.000377514,-0.00799442,0.000262699,0.504033,0.0,0.0,0.0,1.0
56068000,56068000,-0.00323385,-0.00100058,-0.000417091,0.496875,0.0,0.0,0.0,1.0
56168000,56168000,-0.00126533,-0.00893063,-0.0014047,0.489039,0.0,0.0,0.0,1.0
56264000,56264000,0.000724087,-0.00346359,-0.000659766,0.503797,0.0,0.0,0.0,1.0
56364000,56364000,-0.000467777,-0.000542313,0.00067389,0.503105,0.0,0.0,0.0,1.0
56464000,56464000,-0.00565859,0.00112144,0.00198805,0.494607,0.0,0.0,0.0,1.0
56564000,56564000,0.00536421,-0.00145062,0.000208686,0.496129,0.0,0.0,0.0,1.0
56660000,56660000,-0.00523685,-0.00405446,0.000745493,0.488842,0.0,0.0,0.0,1.0
56760000,56760000,0.00660472,0.000321638,0.000452241,0.502464,0.0,0.0,0.0,1.0
56860000,56860000,-0.00525516,0.000747736,0.000935583,0.494925,0.0,0.0,0.0,1.0
56960000,56960000,0.0018543,0.00206957,-0.000847447,0.49572,0.0,0.0,0.0,1.0
57060000,57060000,-0.0029291,-0.00228801,0.00193305,0.490457,0.0,0.0,0.0,1.0
57160000,57160000,-0.00121932,0.00556959,-0.00164739,0.503845,0.0,0.0,0.0,1.0
57260000,57260000,-0.00411355,-0.000854441,-0.0021433,0.504159,0.0,0.0,0.0,1.0
57360000,57360000,-0.00197117,-0.00384498,0.000553854,0.49651,0.0,0.0,0.0,1.0
57460000,57460000,-0.00191503,0.00631987,-0.000335027,0.49667,0.0,0.0,0.0,1.0
57560000,57560000,0.00602336,0.00235624,0.00161613,0.491055,0.0,0.0,0.0,1.0
57656000,57656000,0.0013439,-0.0030965,0.000289999,0.503671,0.0,0.0,0.0,1.0
57752000,57752000,-0.000195529,-0.00120195,-0.000598313,0.497163,0.0,0.0,0.0,1.0
57852000,57852000,-7.09296e-05,-0.00371035,0.000312574,0.496023,0.0,0.0,0.0,1.0
57952000,57952000,-0.000668831,-0.00351976,-0.000383388,0.490003,0.0,0.0,0.0,1.0
58048000,58048000,-0.00305173,-0.000965445,-0.00165332,0.502969,0.0,0.0,0.0,1.0
58144000,58144000,-3.15651e-05,0.00373636,0.000861529,0.496768,0.0,0.0,0.0,1.0
58244000,58244000,-0.00133799,-0.00676986,0.000632146,0.490618,0.0,0.0,0.0,1.0
58344000,58344000,-0.00233152,-0.00937841,0.000893672,0.49071,0.0,0.0,0.0,1.0
58444000,58444000,-0.00320122,-0.00597543,0.00120523,0.503821,0.0,0.0,0.0,1.0
58544000,58544000,-0.00363641,-0.00862234,-0.00119022,0.497978,0.0,0.0,0.0,1.0
58640000,58640000,0.00106428,-0.00627213,0.000197489,0.498259,0.0,0.0,0.0,1.0
58736000,58736000,0.00284511,0.00788758,-0.00130635,0.489547,0.0,0.0,0.0,1.0
58836000,58836000,-0.00202788,0.00723598,0.000914174,0.502982,0.0,0.0,0.0,1.0
58936000,58936000,-0.000919435,0.00879536,0.000430399,0.50322,0.0,0.0,0.0,1.0
59036000,59036000,0.00055599,0.00173632,-0.000841763,0.495916,0.0,0.0,0.0,1.0
59132000,59132000,0.00242289,0.00521609,0.00203469,0.490264,0.0,0.0,0.0,1.0
59232000,59232000,0.00178013,-0.00381853,-0.000686327,0.503339,0.0,0.0,0.0,1.0
59328000,59328000,0.00469562,-0.000259925,0.000569343,0.496602,0.0,0.0,0.0,1.0
59424000,59424000,-0.00247071,0.00329016,8.32227e-05,0.494778,0.0,0.0,0.0,1.0
59524000,59524000,-0.000956523,0.00322792,-0.000977575,0.488502,0.0,0.0,0.0,1.0
59624000,59624000,-0.00349048,-0.0012743,9.04806e-05,0.502193,0.0,0.0,0.0,1.0
59724000,59724000,0.0042601,-0.00368398,-0.000545168,0.50185,0.0,0.0,0.0,1.0
59824000,59824000,-0.000985846,0.00248716,1.85183e-05,0.496127,0.0,0.0,0.0,1.0
59920000,59920000,0.00268365,-0.00167677,-0.000745432,0.490551,0.0,0.0,0.0,1.0
60016000,60016000,-0.00616494,0.0100772,0.000824168,0.503379,0.0,0.0,0.0,1.0
60116000,60116000,-0.00721247,0.0015171,-0.00115825,0.503312,0.0,0.0,0.0,1.0
60212000,60212000,-0.0020642,-0.000336617,0.000144618,0.488746,0.0,0.0,0.0,1.0
60308000,60308000,-0.0010248,0.00230519,0.000581275,0.456314,0.0,0.0,0.0,1.0
60408000,60408000,-5.53369e-06,0.00127236,0.000733294,0.455257,0.0,0.0,0.0,1.0
60508000,60508000,0.00105031,0.0010079,0.000118694,0.453307,0.0,0.0,0.0,1.0
60608000,60608000,0.0031064,0.00440758,-0.00065166,0.447861,0.0,0.0,0.0,1.0
60708000,60708000,-0.00645904,6.89931e-05,-0.00210992,0.446444,0.0,0.0,0.0,1.0
60804000,60804000,-0.00198852,-0.00260232,-0.000768252,0.447964,0.0,0.0,0.0,1.0
60904000,60904000,-0.00292325,-0.0048919,0.00161192,0.455308,0.0,0.0,0.0,1.0
61000000,61000000,-0.00381021,-0.00400436,-0.000331385,0.453106,0.0,0.0,0.0,1.0
61100000,61100000,-0.00454571,-0.00536853,0.00183895,0.45081,0.0,0.0,0.0,1.0
61200000,61200000,-0.00579345,-0.00362497,-0.000420794,0.450966,0.0,0.0,0.0,1.0
61296000,61296000,0.00164687,-0.000965382,0.000505069,0.457778,0.0,0.0,0.0,1.0
61396000,61396000,0.00177158,-0.0024339,-0.00139407,0.456834,0.0,0.0,0.0,1.0
61492000,61492000,0.00823884,-0.00417586,0.000355276,0.455922,0.0,0.0,0.0,1.0
61592000,61592000,0.000709055,-0.00374723,-0.000375778,0.456784,0.0,0.0,0.0,1.0
61692000,61692000,-0.00462866,-0.00407892,-0.00205251,0.463488,0.0,0.0,0.0,1.0
61792000,61792000,0.00373429,-0.00860518,-0.00133998,0.462985,0.0,0.0,0.0,1.0
61892000,61892000,-0.00509982,-0.000241204,0.000237994,0.465047,0.0,0.0,0.0,1.0
61992000,61992000,0.00258388,-0.001654,-0.000912989,0.463003,0.0,0.0,0.0,1.0
62092000,62092000,0.00323833,0.00309791,0.00126668,0.469793,0.0,0.0,0.0,1.0
62192000,62192000,0.00137534,-0.00310157,7.89018e-06,0.471256,0.0,0.0,0.0,1.0
62292000,62292000,-0.000830783,-0.000125162,-0.000250533,0.467808,0.0,0.0,0.0,1.0
62392000,62392000,0.00344787,0.0020719,0.000439833,0.468035,0.0,0.0,0.0,1.0
62492000,62492000,0.00193059,-0.00659782,0.00233062,0.468165,0.0,0.0,0.0,1.0
62592000,62592000,-0.00178781,-0.00707762,-0.000683963,0.472349,0.0,0.0,0.0,1.0
62692000,62692000,0.0062765,-0.00022754,0.000213655,0.474077,0.0,0.0,0.0,1.0
62788000,62788000,-0.00674407,-0.00269945,0.00107446,0.47095,0.0,0.0,0.0,1.0
62888000,62888000,0.000448207,-0.00769878,0.000152808,0.471354,0.0,0.0,0.0,1.0
62988000,62988000,0.00802837,-0.0116715,-0.000817633,0.470711,0.0,0.0,0.0,1.0
63088000,63088000,0.00842035,0.000181464,-0.000983979,0.476802,0.0,0.0,0.0,1.0
63188000,63188000,-0.00126464,0.00443942,-0.00174542,0.475225,0.0,0.0,0.0,1.0
63284000,63284000,-0.000892891,0.00187969,0.000972682,0.476047,0.0,0.0,0.0,1.0
63380000,63380000,0.0019331,-0.00116753,0.000319436,0.474461,0.0,0.0,0.0,1.0
63480000,63480000,0.00087048,-0.00204077,0.000905734,0.478012,0.0,0.0,0.0,1.0
63580000,63580000,-0.00443132,-0.00504754,0.00191287,0.473876,0.0,0.0,0.0,1.0
63680000,63680000,0.00243007,0.00892915,-0.000215063,0.47719,0.0,0.0,0.0,1.0
63780000,63780000,0.00444065,0.000475867,-5.2879e-05,0.476031,0.0,0.0,0.0,1.0
63880000,63880000,-0.00428219,-0.000118388,0.00110744,0.477101,0.0,0.0,0.0,1.0
63980000,63980000,-0.00296393,0.00405392,0.000517697,0.479634,0.0,0.0,0.0,1.0
64080000,64080000,-0.00239256,0.00136333,0.000308884,0.476678,0.0,0.0,0.0,1.0
64180000,64180000,0.00361027,-0.000826088,-0.000646677,0.4766,0.0,0.0,0.0,1.0
64280000,64280000,-0.00435982,0.00156938,-0.00157717,0.47592,0.0,0.0,0.0,1.0
64380000,64380000,-0.000763199,0.00195468,-0.000895378,0.479749,0.0,0.0,0.0,1.0
64476000,64476000,0.00444043,0.00596387,-0.000177841,0.479314,0.0,0.0,0.0,1.0
64576000,64576000,-0.00318139,0.00184279,-0.000608253,0.476938,0.0,0.0,0.0,1.0
64676000,64676000,-0.00201744,-0.000782357,-0.000803083,0.47633,0.0,0.0,0.0,1.0
64776000,64776000,0.00513595,-0.000594102,-0.000746011,0.481622,0.0,0.0,0.0,1.0
64872000,64872000,0.00356233,-0.00240167,-0.00108343,0.481587,0.0,0.0,0.0,1.0
64968000,64968000,-0.00138222,-0.00101084,-0.00184281,0.480549,0.0,0.0,0.0,1.0
65068000,65068000,-0.00113424,0.00277711,0.00153295,0.480272,0.0,0.0,0.0,1.0
65168000,65168000,0.00138523,0.00015679,-0.000721996,0.482492,0.0,0.0,0.0,1.0
65268000,65268000,-0.00393737,-0.0033566,0.00271577,0.482897,0.0,0.0,0.0,1.0
65364000,65364000,-0.00204402,-0.00946963,-0.00093107,0.481304,0.0,0.0,0.0,1.0
65464000,65464000,0.00231731,0.00367647,-0.00110473,0.480492,0.0,0.0,0.0,1.0
65564000,65564000,0.00182651,-0.00457267,-0.00100253,0.481042,0.0,0.0,0.0,1.0
65664000,65664000,0.0001999,-0.00551867,6.45644e-05,0.483441,0.0,0.0,0.0,1.0
65760000,65760000,-0.00560078,-0.00559906,0.000566387,0.483175,0.0,0.0,0.0,1.0
65860000,65860000,-4.2055e-05,0.00559764,-0.000876095,0.483511,0.0,0.0,0.0,1.0
65960000,65960000,0.00974472,-0.000120406,-0.000102429,0.483489,0.0,0.0,0.0,1.0
66056000,66056000,-0.00341481,0.000641202,0.000501657,0.485204,0.0,0.0,0.0,1.0
66156000,66156000,-0.0043599,-0.00363556,-0.000526,0.484304,0.0,0.0,0.0,1.0
66252000,66252000,-0.00173395,0.000710007,-0.00130293,0.482596,0.0,0.0,0.0,1.0
66352000,66352000,-0.00398099,0.00432236,0.00184422,0.483466,0.0,0.0,0.0,1.0
66452000,66452000,0.000466399,-0.00364556,0.0015858,0.483689,0.0,0.0,0.0,1.0
66548000,66548000,-0.00694228,-0.00503825,-0.000408746,0.485175,0.0,0.0,0.0,1.0
66648000,66648000,0.00131843,-0.00383972,-8.63294e-05,0.485863,0.0,0.0,0.0,1.0
66748000,66748000,0.000844635,-0.00229835,-0.000461081,0.484622,0.0,0.0,0.0,1.0
66844000,66844000,-0.00220719,0.00194303,-0.00158307,0.485378,0.0,0.0,0.0,1.0
66944000,66944000,0.000233767,-0.000199728,-0.000387619,0.484667,0.0,0.0,0.0,1.0
67044000,67044000,-0.000913599,-0.00701215,0.00083152,0.485467,0.0,0.0,0.0,1.0
67140000,67140000,0.00323166,-0.00403326,0.000549192,0.484907,0.0,0.0,0.0,1.0
67236000,67236000,-0.0015242,-0.00396717,0.000819732,0.484863,0.0,0.0,0.0,1.0
67336000,67336000,0.00234014,0.00233582,-0.000685147,0.485808,0.0,0.0,0.0,1.0
67432000,67432000,0.000273072,0.000242707,-0.000383334,0.486077,0.0,0.0,0.0,1.0
67532000,67532000,-0.00297518,-0.000771984,-0.000727641,0.486577,0.0,0.0,0.0,1.0
67628000,67628000,-0.00298602,-0.00423018,-0.000593395,0.487464,0.0,0.0,0.0,1.0
67724000,67724000,-0.00104468,-0.000102507,0.00126082,0.485928,0.0,0.0,0.0,1.0
67820000,67820000,0.00209301,0.0123422,0.000118979,0.484287,0.0,0.0,0.0,1.0
67916000,67916000,0.00516373,0.00192671,-0.000804113,0.485734,0.0,0.0,0.0,1.0
68016000,68016000,8.91482e-05,-0.00500996,6.49702e-05,0.485848,0.0,0.0,0.0,1.0
68112000,68112000,0.00143731,-0.00349619,0.000267795,0.485888,0.0,0.0,0.0,1.0
68212000,68212000,0.00093026,-0.00438852,0.00167874,0.485523,0.0,0.0,0.0,1.0
68312000,68312000,0.00358949,-0.0034574,0.00095918,0.487214,0.0,0.0,0.0,1.0
68412000,68412000,-0.0051567,-0.00748709,0.000695659,0.485609,0.0,0.0,0.0,1.0
68512000,68512000,0.00178038,-0.00593826,-0.000256656,0.484602,0.0,0.0,0.0,1.0
68612000,68612000,0.000836526,0.00368724,-0.00132908,0.484816,0.0,0.0,0.0,1.0
68708000,68708000,0.00130952,-0.00361496,0.000263315,0.486824,0.0,0.0,0.0,1.0
68808000,68808000,0.00042978,0.00636559,-0.00155373,0.488495,0.0,0.0,0.0,1.0
68908000,68908000,-0.00418901,0.00426579,0.000796472,0.487997,0.0,0.0,0.0,1.0
69004000,69004000,-0.00280727,0.00186504,0.00158698,0.487195,0.0,0.0,0.0,1.0
69104000,69104000,-0.00774769,0.0021651,0.000176862,0.487534,0.0,0.0,0.0,1.0
69204000,69204000,-0.00194353,-0.00958766,-0.000888305,0.487796,0.0,0.0,0.0,1.0
69300000,69300000,0.00580192,-0.00332716,0.000926189,0.488543,0.0,0.0,0.0,1.0
69396000,69396000,0.00431601,0.00121597,-0.000312369,0.488467,0.0,0.0,0.0,1.0
69492000,69492000,0.00105786,0.00294637,-0.000762713,0.48756,0.0,0.0,0.0,1.0
69592000,69592000,0.00067581,0.00287336,8.00687e-05,0.487928,0.0,0.0,0.0,1.0
69692000,69692000,0.000848805,0.00208979,3.49787e-05,0.487806,0.0,0.0,0.0,1.0
69792000,69792000,-0.00479161,0.00380029,-0.00026831,0.487781,0.0,0.0,0.0,1.0
69892000,69892000,9.02337e-05,-0.00457559,0.00168161,0.487137,0.0,0.0,0.0,1.0
69988000,69988000,-0.00374559,0.00555774,-0.000507654,0.48809,0.0,0.0,0.0,1.0
70088000,70088000,0.00153518,0.00110567,-0.000510144,0.489067,0.0,0.0,0.0,1.0
70188000,70188000,-0.00394959,0.00457952,0.00144823,0.48731,0.0,0.0,0.0,1.0
70288000,70288000,-0.000749767,0.00545192,0.000257623,0.486662,0.0,0.0,0.0,1.0
70388000,70388000,0.00129159,0.0039708,4.96076e-05,0.488912,0.0,0.0,0.0,1.0
70488000,70488000,-0.00418759,-0.00032941,0.00066369,0.487578,0.0,0.0,0.0,1.0
70588000,70588000,-0.00271154,0.0017762,-0.00203067,0.486896,0.0,0.0,0.0,1.0
70684000,70684000,-0.00255987,0.00261882,0.000289516,0.489171,0.0,0.0,0.0,1.0
70784000,70784000,-0.00375772,0.00626337,0.000174322,0.488883,0.0,0.0,0.0,1.0
70880000,70880000,-0.000957101,0.00253123,-0.000483599,0.490254,0.0,0.0,0.0,1.0
70980000,70980000,0.00506042,-0.00704081,0.000582803,0.488372,0.0,0.0,0.0,1.0
71076000,71076000,-0.00156334,0.000492229,-0.0011358,0.490649,0.0,0.0,0.0,1.0
71176000,71176000,0.00227035,-0.00224895,0.000831032,0.490603,0.0,0.0,0.0,1.0
71272000,71272000,0.00363918,0.00199227,0.00202621,0.489044,0.0,0.0,0.0,1.0
71372000,71372000,0.00614636,0.000298874,0.000454691,0.490035,0.0,0.0,0.0,1.0
71472000,71472000,-0.00139559,0.00402534,0.00116601,0.490524,0.0,0.0,0.0,1.0
71568000,71568000,-0.00150512,-0.00846805,0.000296457,0.489927,0.0,0.0,0.0,1.0
71664000,71664000,-0.000850938,-0.00521293,-0.00464034,0.120075,0.0,0.0,0.0,1.0
71760000,71760000,0.00306788,-0.000520702,-0.00324017,0.359705,0.0,0.0,0.0,1.0
71856000,71856000,0.00312694,0.00263583,-0.00138843,0.488865,0.0,0.0,0.0,1.0
71956000,71956000,0.000933217,0.00202213,1.69898e-05,0.489086,0.0,0.0,0.0,1.0
72056000,72056000,0.00263647,0.0020992,-0.000430603,0.487159,0.0,0.0,0.0,1.0
72152000,72152000,-0.000825534,0.00599465,0.00237493,0.488809,0.0,0.0,0.0,1.0
72248000,72248000,0.00748866,0.00154583,0.001254,0.488457,0.0,0.0,0.0,1.0
72344000,72344000,0.00242102,0.00580611,0.00105379,0.488952,0.0,0.0,0.0,1.0
72444000,72444000,0.00354882,0.00118701,0.000868465,0.488913,0.0,0.0,0.0,1.0
72540000,72540000,-0.00226493,0.0027252,0.00132222,0.488519,0.0,0.0,0.0,1.0
72636000,72636000,-0.00260521,0.00316227,-0.00113651,0.489081,0.0,0.0,0.0,1.0
72736000,72736000,0.00258458,0.00437598,9.74815e-05,0.490142,0.0,0.0,0.0,1.0
72832000,72832000,0.00467841,-0.00265405,0.00136492,0.490361,0.0,0.0,0.0,1.0
72928000,72928000,0.000348008,-0.000112046,5.94729e-05,0.490405,0.0,0.0,0.0,1.0
73028000,73028000,0.000887169,-0.000721163,0.000355453,0.490128,0.0,0.0,0.0,1.0
73128000,73128000,-0.0011993,0.00628773,-0.00107129,0.490664,0.0,0.0,0.0,1.0
73224000,73224000,0.0017711,-0.0054594,-0.00205969,0.490641,0.0,0.0,0.0,1.0
73320000,73320000,0.00455483,0.00425391,7.10903e-05,0.490293,0.0,0.0,0.0,1.0
73420000,73420000,-0.00163915,-0.000130575,0.000167844,0.490075,0.0,0.0,0.0,1.0
73516000,73516000,-0.00184877,-0.000252684,-0.000892572,0.4905,0.0,0.0,0.0,1.0
73616000,73616000,0.000198699,0.00626608,0.00114596,0.490255,0.0,0.0,0.0,1.0
73716000,73716000,-0.0044369,-0.000541798,-0.000769604,0.489804,0.0,0.0,0.0,1.0
73816000,73816000,0.000192772,-0.00421692,-0.000670261,0.48968,0.0,0.0,0.0,1.0
73916000,73916000,-0.00170549,0.00292132,-0.000989299,0.488627,0.0,0.0,0.0,1.0
74012000,74012000,-0.00199405,0.00958278,0.00145478,0.489649,0.0,0.0,0.0,1.0
74108000,74108000,-0.00249837,0.00499379,0.000733556,0.489139,0.0,0.0,0.0,1.0
74208000,74208000,-9.28111e-05,-0.00416076,0.000436552,0.488518,0.0,0.0,0.0,1.0
74308000,74308000,-0.00148049,-0.00119264,0.000477934,0.488821,0.0,0.0,0.0,1.0
74404000,74404000,4.10004e-05,0.000610421,0.000164142,0.489751,0.0,0.0,0.0,1.0
74504000,74504000,-0.00443361,-0.000780719,-0.000448922,0.489811,0.0,0.0,0.0,1.0
74604000,74604000,-0.000133258,-0.00092369,0.000620963,0.489658,0.0,0.0,0.0,1.0
74704000,74704000,0.00164577,0.00581654,2.63921e-05,0.489418,0.0,0.0,0.0,1.0
74804000,74804000,-0.00206277,-0.00672859,-0.000209411,0.490519,0.0,0.0,0.0,1.0
74900000,74900000,0.000673349,-0.00793389,-0.00064338,0.490588,0.0,0.0,0.0,1.0
75000000,75000000,-0.00326363,0.00509212,-0.00139592,0.490304,0.0,0.0,0.0,1.0
75096000,75096000,-0.000164695,0.0029467,-0.000783525,0.490371,0.0,0.0,0.0,1.0
75192000,75192000,-0.00334756,-0.00394091,0.00203795,0.489665,0.0,0.0,0.0,1.0
75292000,75292000,-0.000872443,-0.0029782,0.000237847,0.489685,0.0,0.0,0.0,1.0
75392000,75392000,-0.00557064,0.00465695,0.000845355,0.49008,0.0,0.0,0.0,1.0
75492000,75492000,-0.00179239,-0.00234595,-0.000441678,0.489465,0.0,0.0,0.0,1.0
75592000,75592000,0.00395348,0.00282505,-0.000133213,0.4896,0.0,0.0,0.0,1.0
75692000,75692000,-0.00223524,0.00229108,-0.0017477,0.489465,0.0,0.0,0.0,1.0
75792000,75792000,-0.00215934,0.00461638,-0.000134558,0.490445,0.0,0.0,0.0,1.0
75888000,75888000,-0.00306413,-0.00426654,-0.000839836,0.489853,0.0,0.0,0.0,1.0
75984000,75984000,0.00117957,0.000617992,0.000398816,0.490048,0.0,0.0,0.0,1.0
76080000,76080000,-0.00182935,0.00563761,-0.00115927,0.489143,0.0,0.0,0.0,1.0
76176000,76176000,-0.00416,0.00524578,-0.000268492,0.489226,0.0,0.0,0.0,1.0
76272000,76272000,0.000638644,0.00645787,0.000672107,0.49028,0.0,0.0,0.0,1.0
76372000,76372000,-0.0014954,-0.00876925,0.000755216,0.490068,0.0,0.0,0.0,1.0
76472000,76472000,0.00147711,-0.0016031,0.00105836,0.489492,0.0,0.0,0.0,1.0
76568000,76568000,9.99652e-05,-0.00650737,-0.000646179,0.489951,0.0,0.0,0.0,1.0
76668000,76668000,-0.00319991,0.00562901,0.000181242,0.489721,0.0,0.0,0.0,1.0
76764000,76764000,-0.000923313,0.0017459,0.00157131,0.489241,0.0,0.0,0.0,1.0
76864000,76864000,-0.00640697,-0.00120227,-0.000971746,0.490183,0.0,0.0,0.0,1.0
