timestamp,noutputs,output[0],output[1],output[2],output[3],output[4],output[5],output[6],output[7],output[8],output[9],output[10],output[11],output[12],output[13],output[14],output[15]
100000,6,900.0,900.0,900.0,900.0,900.0,900.0,nan,nan,nan,nan,nan,nan,nan,nan,nan,nan
196000,6,900.0,900.0,900.0,900.0,900.0,900.0,nan,nan,nan,nan,nan,nan,nan,nan,nan,nan
292000,6,900.0,900.0,900.0,900.0,900.0,900.0,nan,nan,nan,nan,nan,nan,nan,nan,nan,nan
392000,6,900.0,900.0,900.0,900.0,900.0,900.0,nan,nan,nan,nan,nan,nan,nan,nan,nan,nan
488000,6,900.0,900.0,900.0,900.0,900.0,900.0,nan,nan,nan,nan,nan,nan,nan,nan,nan,nan
584000,6,900.0,900.0,900.0,900.0,900.0,900.0,nan,nan,nan,nan,nan,nan,nan,nan,nan,nan
684000,6,900.0,900.0,900.0,900.0,900.0,900.0,nan,nan,nan,nan,nan,nan,nan,nan,nan,nan
780000,6,900.0,900.0,900.0,900.0,900.0,900.0,nan,nan,nan,nan,nan,nan,nan,nan,nan,nan
880000,6,900.0,900.0,900.0,900.0,900.0,900.0,nan,nan,nan,nan,nan,nan,nan,nan,nan,nan
976000,6,900.0,900.0,900.0,900.0,900.0,900.0,nan,nan,nan,nan,nan,nan,nan,nan,nan,nan
1072000,6,900.0,900.0,900.0,900.0,900.0,900.0,nan,nan,nan,nan,nan,nan,nan,nan,nan,nan
1168000,6,900.0,900.0,900.0,900.0,900.0,900.0,nan,nan,nan,nan,nan,nan,nan,nan,nan,nan
1264000,6,900.0,900.0,900.0,900.0,900.0,900.0,nan,nan,nan,nan,nan,nan,nan,nan,nan,nan
1360000,6,900.0,900.0,900.0,900.0,900.0,900.0,nan,nan,nan,nan,nan,nan,nan,nan,nan,nan
1456000,6,900.0,900.0,900.0,900.0,900.0,900.0,nan,nan,nan,nan,nan,nan,nan,nan,nan,nan
1556000,6,900.0,900.0,900.0,900.0,900.0,900.0,nan,nan,nan,nan,nan,nan,nan,nan,nan,nan
1652000,6,900.0,900.0,900.0,900.0,900.0,900.0,nan,nan,nan,nan,nan,nan,nan,nan,nan,nan
1748000,6,900.0,900.0,900.0,900.0,900.0,900.0,nan,nan,nan,nan,nan,nan,nan,nan,nan,nan
1844000,6,900.0,900.0,900.0,900.0,900.0,900.0,nan,nan,nan,nan,nan,nan,nan,nan,nan,nan
1940000,6,900.0,900.0,900.0,900.0,900.0,900.0,nan,nan,nan,nan,nan,nan,nan,nan,nan,nan
2036000,6,900.0,900.0,900.0,900.0,900.0,900.0,nan,nan,nan,nan,nan,nan,nan,nan,nan,nan
2132000,6,900.0,900.0,900.0,900.0,900.0,900.0,nan,nan,nan,nan,nan,nan,nan,nan,nan,nan
2228000,6,900.0,900.0,900.0,900.0,900.0,900.0,nan,nan,nan,nan,nan,nan,nan,nan,nan,nan
2324000,6,900.0,900.0,900.0,900.0,900.0,900.0,nan,nan,nan,nan,nan,nan,nan,nan,nan,nan
2420000,6,900.0,900.0,900.0,900.0,900.0,900.0,nan,nan,nan,nan,nan,nan,nan,nan,nan,nan
2516000,6,900.0,900.0,900.0,900.0,900.0,900.0,nan,nan,nan,nan,nan,nan,nan,nan,nan,nan
2612000,6,900.0,900.0,900.0,900.0,900.0,900.0,nan,nan,nan,nan,nan,nan,nan,nan,nan,nan
2708000,6,900.0,900.0,900.0,900.0,900.0,900.0,nan,nan,nan,nan,nan,nan,nan,nan,nan,nan
2808000,6,900.0,900.0,900.0,900.0,900.0,900.0,nan,nan,nan,nan,nan,nan,nan,nan,nan,nan
2904000,6,900.0,900.0,900.0,900.0,900.0,900.0,nan,nan,nan,nan,nan,nan,nan,nan,nan,nan
3000000,6,900.0,900.0,900.0,900.0,900.0,900.0,nan,nan,nan,nan,nan,nan,nan,nan,nan,nan
3096000,6,900.0,900.0,900.0,900.0,900.0,900.0,nan,nan,nan,nan,nan,nan,nan,nan,nan,nan
3192000,6,900.0,900.0,900.0,900.0,900.0,900.0,nan,nan,nan,nan,nan,nan,nan,nan,nan,nan
3288000,6,900.0,900.0,900.0,900.0,900.0,900.0,nan,nan,nan,nan,nan,nan,nan,nan,nan,nan
3388000,6,900.0,900.0,900.0,900.0,900.0,900.0,nan,nan,nan,nan,nan,nan,nan,nan,nan,nan
3488000,6,900.0,900.0,900.0,900.0,900.0,900.0,nan,nan,nan,nan,nan,nan,nan,nan,nan,nan
3584000,6,900.0,900.0,900.0,900.0,900.0,900.0,nan,nan,nan,nan,nan,nan,nan,nan,nan,nan
3684000,6,900.0,900.0,900.0,900.0,900.0,900.0,nan,nan,nan,nan,nan,nan,nan,nan,nan,nan
3780000,6,900.0,900.0,900.0,900.0,900.0,900.0,nan,nan,nan,nan,nan,nan,nan,nan,nan,nan
3876000,6,900.0,900.0,900.0,900.0,900.0,900.0,nan,nan,nan,nan,nan,nan,nan,nan,nan,nan
3972000,6,900.0,900.0,900.0,900.0,900.0,900.0,nan,nan,nan,nan,nan,nan,nan,nan,nan,nan
4068000,6,900.0,900.0,900.0,900.0,900.0,900.0,nan,nan,nan,nan,nan,nan,nan,nan,nan,nan
4168000,6,900.0,900.0,900.0,900.0,900.0,900.0,nan,nan,nan,nan,nan,nan,nan,nan,nan,nan
4264000,6,900.0,900.0,900.0,900.0,900.0,900.0,nan,nan,nan,nan,nan,nan,nan,nan,nan,nan
4360000,6,900.0,900.0,900.0,900.0,900.0,900.0,nan,nan,nan,nan,nan,nan,nan,nan,nan,nan
4456000,6,900.0,900.0,900.0,900.0,900.0,900.0,nan,nan,nan,nan,nan,nan,nan,nan,nan,nan
4552000,6,900.0,900.0,900.0,900.0,900.0,900.0,nan,nan,nan,nan,nan,nan,nan,nan,nan,nan
4648000,6,900.0,900.0,900.0,900.0,900.0,900.0,nan,nan,nan,nan,nan,nan,nan,nan,nan,nan
4744000,6,900.0,900.0,900.0,900.0,900.0,900.0,nan,nan,nan,nan,nan,nan,nan,nan,nan,nan
4840000,6,900.0,900.0,900.0,900.0,900.0,900.0,nan,nan,nan,nan,nan,nan,nan,nan,nan,nan
4936000,6,900.0,900.0,900.0,900.0,900.0,900.0,nan,nan,nan,nan,nan,nan,nan,nan,nan,nan
5032000,6,900.0,900.0,900.0,900.0,900.0,900.0,nan,nan,nan,nan,nan,nan,nan,nan,nan,nan
5132000,6,900.0,900.0,900.0,900.0,900.0,900.0,nan,nan,nan,nan,nan,nan,nan,nan,nan,nan
5228000,6,900.0,900.0,900.0,900.0,900.0,900.0,nan,nan,nan,nan,nan,nan,nan,nan,nan,nan
5324000,6,900.0,900.0,900.0,900.0,900.0,900.0,nan,nan,nan,nan,nan,nan,nan,nan,nan,nan
5420000,6,900.0,900.0,900.0,900.0,900.0,900.0,nan,nan,nan,nan,nan,nan,nan,nan,nan,nan
5516000,6,900.0,900.0,900.0,900.0,900.0,900.0,nan,nan,nan,nan,nan,nan,nan,nan,nan,nan
5616000,6,900.0,900.0,900.0,900.0,900.0,900.0,nan,nan,nan,nan,nan,nan,nan,nan,nan,nan
5716000,6,900.0,900.0,900.0,900.0,900.0,900.0,nan,nan,nan,nan,nan,nan,nan,nan,nan,nan
5812000,6,900.0,900.0,900.0,900.0,900.0,900.0,nan,nan,nan,nan,nan,nan,nan,nan,nan,nan
5908000,6,900.0,900.0,900.0,900.0,900.0,900.0,nan,nan,nan,nan,nan,nan,nan,nan,nan,nan
6004000,6,900.0,900.0,900.0,900.0,900.0,900.0,nan,nan,nan,nan,nan,nan,nan,nan,nan,nan
6100000,6,900.0,900.0,900.0,900.0,900.0,900.0,nan,nan,nan,nan,nan,nan,nan,nan,nan,nan
6196000,6,900.0,900.0,900.0,900.0,900.0,900.0,nan,nan,nan,nan,nan,nan,nan,nan,nan,nan
6292000,6,900.0,900.0,900.0,900.0,900.0,900.0,nan,nan,nan,nan,nan,nan,nan,nan,nan,nan
6388000,6,900.0,900.0,900.0,900.0,900.0,900.0,nan,nan,nan,nan,nan,nan,nan,nan,nan,nan
6484000,6,900.0,900.0,900.0,900.0,900.0,900.0,nan,nan,nan,nan,nan,nan,nan,nan,nan,nan
6580000,6,900.0,900.0,900.0,900.0,900.0,900.0,nan,nan,nan,nan,nan,nan,nan,nan,nan,nan
6680000,6,900.0,900.0,900.0,900.0,900.0,900.0,nan,nan,nan,nan,nan,nan,nan,nan,nan,nan
6780000,6,900.0,900.0,900.0,900.0,900.0,900.0,nan,nan,nan,nan,nan,nan,nan,nan,nan,nan
6876000,6,900.0,900.0,900.0,900.0,900.0,900.0,nan,nan,nan,nan,nan,nan,nan,nan,nan,nan
6976000,6,900.0,900.0,900.0,900.0,900.0,900.0,nan,nan,nan,nan,nan,nan,nan,nan,nan,nan
7076000,6,900.0,900.0,900.0,900.0,900.0,900.0,nan,nan,nan,nan,nan,nan,nan,nan,nan,nan
7172000,6,900.0,900.0,900.0,900.0,900.0,900.0,nan,nan,nan,nan,nan,nan,nan,nan,nan,nan
7272000,6,900.0,900.0,900.0,900.0,900.0,900.0,nan,nan,nan,nan,nan,nan,nan,nan,nan,nan
7368000,6,900.0,900.0,900.0,900.0,900.0,900.0,nan,nan,nan,nan,nan,nan,nan,nan,nan,nan
7464000,6,900.0,900.0,900.0,900.0,900.0,900.0,nan,nan,nan,nan,nan,nan,nan,nan,nan,nan
7560000,6,900.0,900.0,900.0,900.0,900.0,900.0,nan,nan,nan,nan,nan,nan,nan,nan,nan,nan
7656000,6,900.0,900.0,900.0,900.0,900.0,900.0,nan,nan,nan,nan,nan,nan,nan,nan,nan,nan
7752000,6,900.0,900.0,900.0,900.0,900.0,900.0,nan,nan,nan,nan,nan,nan,nan,nan,nan,nan
7848000,6,900.0,900.0,900.0,900.0,900.0,900.0,nan,nan,nan,nan,nan,nan,nan,nan,nan,nan
7944000,6,900.0,900.0,900.0,900.0,900.0,900.0,nan,nan,nan,nan,nan,nan,nan,nan,nan,nan
8044000,6,900.0,900.0,900.0,900.0,900.0,900.0,nan,nan,nan,nan,nan,nan,nan,nan,nan,nan
8140000,6,900.0,900.0,900.0,900.0,900.0,900.0,nan,nan,nan,nan,nan,nan,nan,nan,nan,nan
8236000,6,900.0,900.0,900.0,900.0,900.0,900.0,nan,nan,nan,nan,nan,nan,nan,nan,nan,nan
8332000,6,900.0,900.0,900.0,900.0,900.0,900.0,nan,nan,nan,nan,nan,nan,nan,nan,nan,nan
8428000,6,900.0,900.0,900.0,900.0,900.0,900.0,nan,nan,nan,nan,nan,nan,nan,nan,nan,nan
8524000,6,900.0,900.0,900.0,900.0,900.0,900.0,nan,nan,nan,nan,nan,nan,nan,nan,nan,nan
8620000,6,900.0,900.0,900.0,900.0,900.0,900.0,nan,nan,nan,nan,nan,nan,nan,nan,nan,nan
8720000,6,900.0,900.0,900.0,900.0,900.0,900.0,nan,nan,nan,nan,nan,nan,nan,nan,nan,nan
8820000,6,900.0,900.0,900.0,900.0,900.0,900.0,nan,nan,nan,nan,nan,nan,nan,nan,nan,nan
8916000,6,900.0,900.0,900.0,900.0,900.0,900.0,nan,nan,nan,nan,nan,nan,nan,nan,nan,nan
9012000,6,900.0,900.0,900.0,900.0,900.0,900.0,nan,nan,nan,nan,nan,nan,nan,nan,nan,nan
9108000,6,900.0,900.0,900.0,900.0,900.0,900.0,nan,nan,nan,nan,nan,nan,nan,nan,nan,nan
9204000,6,900.0,900.0,900.0,900.0,900.0,900.0,nan,nan,nan,nan,nan,nan,nan,nan,nan,nan
9300000,6,900.0,900.0,900.0,900.0,900.0,900.0,nan,nan,nan,nan,nan,nan,nan,nan,nan,nan
9396000,6,900.0,900.0,900.0,900.0,900.0,900.0,nan,nan,nan,nan,nan,nan,nan,nan,nan,nan
9496000,6,900.0,900.0,900.0,900.0,900.0,900.0,nan,nan,nan,nan,nan,nan,nan,nan,nan,nan
9596000,6,900.0,900.0,900.0,900.0,900.0,900.0,nan,nan,nan,nan,nan,nan,nan,nan,nan,nan
9692000,6,900.0,900.0,900.0,900.0,900.0,900.0,nan,nan,nan,nan,nan,nan,nan,nan,nan,nan
9788000,6,900.0,900.0,900.0,900.0,900.0,900.0,nan,nan,nan,nan,nan,nan,nan,nan,nan,nan
9888000,6,900.0,900.0,900.0,900.0,900.0,900.0,nan,nan,nan,nan,nan,nan,nan,nan,nan,nan
9984000,6,900.0,900.0,900.0,900.0,900.0,900.0,nan,nan,nan,nan,nan,nan,nan,nan,nan,nan
10080000,6,900.0,900.0,900.0,900.0,900.0,900.0,nan,nan,nan,nan,nan,nan,nan,nan,nan,nan
10176000,6,900.0,900.0,900.0,900.0,900.0,900.0,nan,nan,nan,nan,nan,nan,nan,nan,nan,nan
10272000,6,900.0,900.0,900.0,900.0,900.0,900.0,nan,nan,nan,nan,nan,nan,nan,nan,nan,nan
10368000,6,900.0,900.0,900.0,900.0,900.0,900.0,nan,nan,nan,nan,nan,nan,nan,nan,nan,nan
10464000,6,900.0,900.0,900.0,900.0,900.0,900.0,nan,nan,nan,nan,nan,nan,nan,nan,nan,nan
10564000,6,900.0,900.0,900.0,900.0,900.0,900.0,nan,nan,nan,nan,nan,nan,nan,nan,nan,nan
10660000,6,900.0,900.0,900.0,900.0,900.0,900.0,nan,nan,nan,nan,nan,nan,nan,nan,nan,nan
10756000,6,900.0,900.0,900.0,900.0,900.0,900.0,nan,nan,nan,nan,nan,nan,nan,nan,nan,nan
10852000,6,900.0,900.0,900.0,900.0,900.0,900.0,nan,nan,nan,nan,nan,nan,nan,nan,nan,nan
10948000,6,900.0,900.0,900.0,900.0,900.0,900.0,nan,nan,nan,nan,nan,nan,nan,nan,nan,nan
11044000,6,900.0,900.0,900.0,900.0,900.0,900.0,nan,nan,nan,nan,nan,nan,nan,nan,nan,nan
11144000,6,900.0,900.0,900.0,900.0,900.0,900.0,nan,nan,nan,nan,nan,nan,nan,nan,nan,nan
11240000,6,900.0,900.0,900.0,900.0,900.0,900.0,nan,nan,nan,nan,nan,nan,nan,nan,nan,nan
11336000,6,900.0,900.0,900.0,900.0,900.0,900.0,nan,nan,nan,nan,nan,nan,nan,nan,nan,nan
11432000,6,900.0,900.0,900.0,900.0,900.0,900.0,nan,nan,nan,nan,nan,nan,nan,nan,nan,nan
11528000,6,900.0,900.0,900.0,900.0,900.0,900.0,nan,nan,nan,nan,nan,nan,nan,nan,nan,nan
11624000,6,900.0,900.0,900.0,900.0,900.0,900.0,nan,nan,nan,nan,nan,nan,nan,nan,nan,nan
11720000,6,900.0,900.0,900.0,900.0,900.0,900.0,nan,nan,nan,nan,nan,nan,nan,nan,nan,nan
11816000,6,900.0,900.0,900.0,900.0,900.0,900.0,nan,nan,nan,nan,nan,nan,nan,nan,nan,nan
11912000,6,900.0,900.0,900.0,900.0,900.0,900.0,nan,nan,nan,nan,nan,nan,nan,nan,nan,nan
12008000,6,900.0,900.0,900.0,900.0,900.0,900.0,nan,nan,nan,nan,nan,nan,nan,nan,nan,nan
12104000,6,900.0,900.0,900.0,900.0,900.0,900.0,nan,nan,nan,nan,nan,nan,nan,nan,nan,nan
12204000,6,900.0,900.0,900.0,900.0,900.0,900.0,nan,nan,nan,nan,nan,nan,nan,nan,nan,nan
12300000,6,900.0,900.0,900.0,900.0,900.0,900.0,nan,nan,nan,nan,nan,nan,nan,nan,nan,nan
12396000,6,900.0,900.0,900.0,900.0,900.0,900.0,nan,nan,nan,nan,nan,nan,nan,nan,nan,nan
12496000,6,900.0,900.0,900.0,900.0,900.0,900.0,nan,nan,nan,nan,nan,nan,nan,nan,nan,nan
12592000,6,900.0,900.0,900.0,900.0,900.0,900.0,nan,nan,nan,nan,nan,nan,nan,nan,nan,nan
12688000,6,900.0,900.0,900.0,900.0,900.0,900.0,nan,nan,nan,nan,nan,nan,nan,nan,nan,nan
12784000,6,900.0,900.0,900.0,900.0,900.0,900.0,nan,nan,nan,nan,nan,nan,nan,nan,nan,nan
12880000,6,900.0,900.0,900.0,900.0,900.0,900.0,nan,nan,nan,nan,nan,nan,nan,nan,nan,nan
12980000,6,900.0,900.0,900.0,900.0,900.0,900.0,nan,nan,nan,nan,nan,nan,nan,nan,nan,nan
13076000,6,900.0,900.0,900.0,900.0,900.0,900.0,nan,nan,nan,nan,nan,nan,nan,nan,nan,nan
13172000,6,900.0,900.0,900.0,900.0,900.0,900.0,nan,nan,nan,nan,nan,nan,nan,nan,nan,nan
13268000,6,900.0,900.0,900.0,900.0,900.0,900.0,nan,nan,nan,nan,nan,nan,nan,nan,nan,nan
13364000,6,900.0,900.0,900.0,900.0,900.0,900.0,nan,nan,nan,nan,nan,nan,nan,nan,nan,nan
13460000,6,900.0,900.0,900.0,900.0,900.0,900.0,nan,nan,nan,nan,nan,nan,nan,nan,nan,nan
13556000,6,900.0,900.0,900.0,900.0,900.0,900.0,nan,nan,nan,nan,nan,nan,nan,nan,nan,nan
13652000,6,900.0,900.0,900.0,900.0,900.0,900.0,nan,nan,nan,nan,nan,nan,nan,nan,nan,nan
13748000,6,900.0,900.0,900.0,900.0,900.0,900.0,nan,nan,nan,nan,nan,nan,nan,nan,nan,nan
13844000,6,900.0,900.0,900.0,900.0,900.0,900.0,nan,nan,nan,nan,nan,nan,nan,nan,nan,nan
13940000,6,900.0,900.0,900.0,900.0,900.0,900.0,nan,nan,nan,nan,nan,nan,nan,nan,nan,nan
14036000,6,900.0,900.0,900.0,900.0,900.0,900.0,nan,nan,nan,nan,nan,nan,nan,nan,nan,nan
14136000,6,900.0,900.0,900.0,900.0,900.0,900.0,nan,nan,nan,nan,nan,nan,nan,nan,nan,nan
14232000,6,900.0,900.0,900.0,900.0,900.0,900.0,nan,nan,nan,nan,nan,nan,nan,nan,nan,nan
14332000,6,900.0,900.0,900.0,900.0,900.0,900.0,nan,nan,nan,nan,nan,nan,nan,nan,nan,nan
14432000,6,900.0,900.0,900.0,900.0,900.0,900.0,nan,nan,nan,nan,nan,nan,nan,nan,nan,nan
14528000,6,900.0,900.0,900.0,900.0,900.0,900.0,nan,nan,nan,nan,nan,nan,nan,nan,nan,nan
14624000,6,900.0,900.0,900.0,900.0,900.0,900.0,nan,nan,nan,nan,nan,nan,nan,nan,nan,nan
14720000,6,900.0,900.0,900.0,900.0,900.0,900.0,nan,nan,nan,nan,nan,nan,nan,nan,nan,nan
14820000,6,900.0,900.0,900.0,900.0,900.0,900.0,nan,nan,nan,nan,nan,nan,nan,nan,nan,nan
14916000,6,900.0,900.0,900.0,900.0,900.0,900.0,nan,nan,nan,nan,nan,nan,nan,nan,nan,nan
15012000,6,900.0,900.0,900.0,900.0,900.0,900.0,nan,nan,nan,nan,nan,nan,nan,nan,nan,nan
15108000,6,900.0,900.0,900.0,900.0,900.0,900.0,nan,nan,nan,nan,nan,nan,nan,nan,nan,nan
15204000,6,900.0,900.0,900.0,900.0,900.0,900.0,nan,nan,nan,nan,nan,nan,nan,nan,nan,nan
15300000,6,900.0,900.0,900.0,900.0,900.0,900.0,nan,nan,nan,nan,nan,nan,nan,nan,nan,nan
15396000,6,900.0,900.0,900.0,900.0,900.0,900.0,nan,nan,nan,nan,nan,nan,nan,nan,nan,nan
15496000,6,900.0,900.0,900.0,900.0,900.0,900.0,nan,nan,nan,nan,nan,nan,nan,nan,nan,nan
15596000,6,900.0,900.0,900.0,900.0,900.0,900.0,nan,nan,nan,nan,nan,nan,nan,nan,nan,nan
15692000,6,900.0,900.0,900.0,900.0,900.0,900.0,nan,nan,nan,nan,nan,nan,nan,nan,nan,nan
15792000,6,900.0,900.0,900.0,900.0,900.0,900.0,nan,nan,nan,nan,nan,nan,nan,nan,nan,nan
15888000,6,900.0,900.0,900.0,900.0,900.0,900.0,nan,nan,nan,nan,nan,nan,nan,nan,nan,nan
15984000,6,900.0,900.0,900.0,900.0,900.0,900.0,nan,nan,nan,nan,nan,nan,nan,nan,nan,nan
16080000,6,900.0,900.0,900.0,900.0,900.0,900.0,nan,nan,nan,nan,nan,nan,nan,nan,nan,nan
16176000,6,900.0,900.0,900.0,900.0,900.0,900.0,nan,nan,nan,nan,nan,nan,nan,nan,nan,nan
16272000,6,900.0,900.0,900.0,900.0,900.0,900.0,nan,nan,nan,nan,nan,nan,nan,nan,nan,nan
16368000,6,900.0,900.0,900.0,900.0,900.0,900.0,nan,nan,nan,nan,nan,nan,nan,nan,nan,nan
16464000,6,900.0,900.0,900.0,900.0,900.0,900.0,nan,nan,nan,nan,nan,nan,nan,nan,nan,nan
16560000,6,900.0,900.0,900.0,900.0,900.0,900.0,nan,nan,nan,nan,nan,nan,nan,nan,nan,nan
16656000,6,900.0,900.0,900.0,900.0,900.0,900.0,nan,nan,nan,nan,nan,nan,nan,nan,nan,nan
16752000,6,900.0,900.0,900.0,900.0,900.0,900.0,nan,nan,nan,nan,nan,nan,nan,nan,nan,nan
16848000,6,900.0,900.0,900.0,900.0,900.0,900.0,nan,nan,nan,nan,nan,nan,nan,nan,nan,nan
16948000,6,900.0,900.0,900.0,900.0,900.0,900.0,nan,nan,nan,nan,nan,nan,nan,nan,nan,nan
17044000,6,900.0,900.0,900.0,900.0,900.0,900.0,nan,nan,nan,nan,nan,nan,nan,nan,nan,nan
17144000,6,900.0,900.0,900.0,900.0,900.0,900.0,nan,nan,nan,nan,nan,nan,nan,nan,nan,nan
17240000,6,900.0,900.0,900.0,900.0,900.0,900.0,nan,nan,nan,nan,nan,nan,nan,nan,nan,nan
17340000,6,900.0,900.0,900.0,900.0,900.0,900.0,nan,nan,nan,nan,nan,nan,nan,nan,nan,nan
17436000,6,900.0,900.0,900.0,900.0,900.0,900.0,nan,nan,nan,nan,nan,nan,nan,nan,nan,nan
17532000,6,900.0,900.0,900.0,900.0,900.0,900.0,nan,nan,nan,nan,nan,nan,nan,nan,nan,nan
17628000,6,900.0,900.0,900.0,900.0,900.0,900.0,nan,nan,nan,nan,nan,nan,nan,nan,nan,nan
17724000,6,900.0,900.0,900.0,900.0,900.0,900.0,nan,nan,nan,nan,nan,nan,nan,nan,nan,nan
17820000,6,900.0,900.0,900.0,900.0,900.0,900.0,nan,nan,nan,nan,nan,nan,nan,nan,nan,nan
17920000,6,900.0,900.0,900.0,900.0,900.0,900.0,nan,nan,nan,nan,nan,nan,nan,nan,nan,nan
18016000,6,900.0,900.0,900.0,900.0,900.0,900.0,nan,nan,nan,nan,nan,nan,nan,nan,nan,nan
18112000,6,900.0,900.0,900.0,900.0,900.0,900.0,nan,nan,nan,nan,nan,nan,nan,nan,nan,nan
18208000,6,900.0,900.0,900.0,900.0,900.0,900.0,nan,nan,nan,nan,nan,nan,nan,nan,nan,nan
18304000,6,900.0,900.0,900.0,900.0,900.0,900.0,nan,nan,nan,nan,nan,nan,nan,nan,nan,nan
18400000,6,900.0,900.0,900.0,900.0,900.0,900.0,nan,nan,nan,nan,nan,nan,nan,nan,nan,nan
18496000,6,900.0,900.0,900.0,900.0,900.0,900.0,nan,nan,nan,nan,nan,nan,nan,nan,nan,nan
18592000,6,900.0,900.0,900.0,900.0,900.0,900.0,nan,nan,nan,nan,nan,nan,nan,nan,nan,nan
18688000,6,900.0,900.0,900.0,900.0,900.0,900.0,nan,nan,nan,nan,nan,nan,nan,nan,nan,nan
18784000,6,900.0,900.0,900.0,900.0,900.0,900.0,nan,nan,nan,nan,nan,nan,nan,nan,nan,nan
18884000,6,900.0,900.0,900.0,900.0,900.0,900.0,nan,nan,nan,nan,nan,nan,nan,nan,nan,nan
18980000,6,900.0,900.0,900.0,900.0,900.0,900.0,nan,nan,nan,nan,nan,nan,nan,nan,nan,nan
19080000,6,900.0,900.0,900.0,900.0,900.0,900.0,nan,nan,nan,nan,nan,nan,nan,nan,nan,nan
19176000,6,900.0,900.0,900.0,900.0,900.0,900.0,nan,nan,nan,nan,nan,nan,nan,nan,nan,nan
19272000,6,900.0,900.0,900.0,900.0,900.0,900.0,nan,nan,nan,nan,nan,nan,nan,nan,nan,nan
19368000,6,900.0,900.0,900.0,900.0,900.0,900.0,nan,nan,nan,nan,nan,nan,nan,nan,nan,nan
19464000,6,900.0,900.0,900.0,900.0,900.0,900.0,nan,nan,nan,nan,nan,nan,nan,nan,nan,nan
19564000,6,900.0,900.0,900.0,900.0,900.0,900.0,nan,nan,nan,nan,nan,nan,nan,nan,nan,nan
19660000,6,900.0,900.0,900.0,900.0,900.0,900.0,nan,nan,nan,nan,nan,nan,nan,nan,nan,nan
19760000,6,900.0,900.0,900.0,900.0,900.0,900.0,nan,nan,nan,nan,nan,nan,nan,nan,nan,nan
19856000,6,900.0,900.0,900.0,900.0,900.0,900.0,nan,nan,nan,nan,nan,nan,nan,nan,nan,nan
19952000,6,900.0,900.0,900.0,900.0,900.0,900.0,nan,nan,nan,nan,nan,nan,nan,nan,nan,nan
20048000,6,900.0,900.0,900.0,900.0,900.0,900.0,nan,nan,nan,nan,nan,nan,nan,nan,nan,nan
20144000,6,900.0,900.0,900.0,900.0,900.0,900.0,nan,nan,nan,nan,nan,nan,nan,nan,nan,nan
20240000,6,900.0,900.0,900.0,900.0,900.0,900.0,nan,nan,nan,nan,nan,nan,nan,nan,nan,nan
20336000,6,900.0,900.0,900.0,900.0,900.0,900.0,nan,nan,nan,nan,nan,nan,nan,nan,nan,nan
20432000,6,900.0,900.0,900.0,900.0,900.0,900.0,nan,nan,nan,nan,nan,nan,nan,nan,nan,nan
20532000,6,900.0,900.0,900.0,900.0,900.0,900.0,nan,nan,nan,nan,nan,nan,nan,nan,nan,nan
20632000,6,900.0,900.0,900.0,900.0,900.0,900.0,nan,nan,nan,nan,nan,nan,nan,nan,nan,nan
20728000,6,900.0,900.0,900.0,900.0,900.0,900.0,nan,nan,nan,nan,nan,nan,nan,nan,nan,nan
20824000,6,900.0,900.0,900.0,900.0,900.0,900.0,nan,nan,nan,nan,nan,nan,nan,nan,nan,nan
20920000,6,900.0,900.0,900.0,900.0,900.0,900.0,nan,nan,nan,nan,nan,nan,nan,nan,nan,nan
21020000,6,900.0,900.0,900.0,900.0,900.0,900.0,nan,nan,nan,nan,nan,nan,nan,nan,nan,nan
21120000,6,900.0,900.0,900.0,900.0,900.0,900.0,nan,nan,nan,nan,nan,nan,nan,nan,nan,nan
21216000,6,900.0,900.0,900.0,900.0,900.0,900.0,nan,nan,nan,nan,nan,nan,nan,nan,nan,nan
21312000,6,900.0,900.0,900.0,900.0,900.0,900.0,nan,nan,nan,nan,nan,nan,nan,nan,nan,nan
21408000,6,900.0,900.0,900.0,900.0,900.0,900.0,nan,nan,nan,nan,nan,nan,nan,nan,nan,nan
21504000,6,900.0,900.0,900.0,900.0,900.0,900.0,nan,nan,nan,nan,nan,nan,nan,nan,nan,nan
21600000,6,900.0,900.0,900.0,900.0,900.0,900.0,nan,nan,nan,nan,nan,nan,nan,nan,nan,nan
21696000,6,900.0,900.0,900.0,900.0,900.0,900.0,nan,nan,nan,nan,nan,nan,nan,nan,nan,nan
21792000,6,900.0,900.0,900.0,900.0,900.0,900.0,nan,nan,nan,nan,nan,nan,nan,nan,nan,nan
21892000,6,900.0,900.0,900.0,900.0,900.0,900.0,nan,nan,nan,nan,nan,nan,nan,nan,nan,nan
21992000,6,900.0,900.0,900.0,900.0,900.0,900.0,nan,nan,nan,nan,nan,nan,nan,nan,nan,nan
22088000,6,900.0,900.0,900.0,900.0,900.0,900.0,nan,nan,nan,nan,nan,nan,nan,nan,nan,nan
22188000,6,900.0,900.0,900.0,900.0,900.0,900.0,nan,nan,nan,nan,nan,nan,nan,nan,nan,nan
22284000,6,900.0,900.0,900.0,900.0,900.0,900.0,nan,nan,nan,nan,nan,nan,nan,nan,nan,nan
22384000,6,900.0,900.0,900.0,900.0,900.0,900.0,nan,nan,nan,nan,nan,nan,nan,nan,nan,nan
22480000,6,900.0,900.0,900.0,900.0,900.0,900.0,nan,nan,nan,nan,nan,nan,nan,nan,nan,nan
22576000,6,900.0,900.0,900.0,900.0,900.0,900.0,nan,nan,nan,nan,nan,nan,nan,nan,nan,nan
22672000,6,900.0,900.0,900.0,900.0,900.0,900.0,nan,nan,nan,nan,nan,nan,nan,nan,nan,nan
22768000,6,900.0,900.0,900.0,900.0,900.0,900.0,nan,nan,nan,nan,nan,nan,nan,nan,nan,nan
22868000,6,900.0,900.0,900.0,900.0,900.0,900.0,nan,nan,nan,nan,nan,nan,nan,nan,nan,nan
22964000,6,900.0,900.0,900.0,900.0,900.0,900.0,nan,nan,nan,nan,nan,nan,nan,nan,nan,nan
23060000,6,900.0,900.0,900.0,900.0,900.0,900.0,nan,nan,nan,nan,nan,nan,nan,nan,nan,nan
23156000,6,900.0,900.0,900.0,900.0,900.0,900.0,nan,nan,nan,nan,nan,nan,nan,nan,nan,nan
23252000,6,900.0,900.0,900.0,900.0,900.0,900.0,nan,nan,nan,nan,nan,nan,nan,nan,nan,nan
23348000,6,900.0,900.0,900.0,900.0,900.0,900.0,nan,nan,nan,nan,nan,nan,nan,nan,nan,nan
23444000,6,900.0,900.0,900.0,900.0,900.0,900.0,nan,nan,nan,nan,nan,nan,nan,nan,nan,nan
23540000,6,900.0,900.0,900.0,900.0,900.0,900.0,nan,nan,nan,nan,nan,nan,nan,nan,nan,nan
23640000,6,900.0,900.0,900.0,900.0,900.0,900.0,nan,nan,nan,nan,nan,nan,nan,nan,nan,nan
23736000,6,900.0,900.0,900.0,900.0,900.0,900.0,nan,nan,nan,nan,nan,nan,nan,nan,nan,nan
23836000,6,900.0,900.0,900.0,900.0,900.0,900.0,nan,nan,nan,nan,nan,nan,nan,nan,nan,nan
23932000,6,900.0,900.0,900.0,900.0,900.0,900.0,nan,nan,nan,nan,nan,nan,nan,nan,nan,nan
24028000,6,900.0,900.0,900.0,900.0,900.0,900.0,nan,nan,nan,nan,nan,nan,nan,nan,nan,nan
24128000,6,900.0,900.0,900.0,900.0,900.0,900.0,nan,nan,nan,nan,nan,nan,nan,nan,nan,nan
24224000,6,900.0,900.0,900.0,900.0,900.0,900.0,nan,nan,nan,nan,nan,nan,nan,nan,nan,nan
24320000,6,900.0,900.0,900.0,900.0,900.0,900.0,nan,nan,nan,nan,nan,nan,nan,nan,nan,nan
24420000,6,900.0,900.0,900.0,900.0,900.0,900.0,nan,nan,nan,nan,nan,nan,nan,nan,nan,nan
24516000,6,900.0,900.0,900.0,900.0,900.0,900.0,nan,nan,nan,nan,nan,nan,nan,nan,nan,nan
24612000,6,900.0,900.0,900.0,900.0,900.0,900.0,nan,nan,nan,nan,nan,nan,nan,nan,nan,nan
24712000,6,900.0,900.0,900.0,900.0,900.0,900.0,nan,nan,nan,nan,nan,nan,nan,nan,nan,nan
24808000,6,900.0,900.0,900.0,900.0,900.0,900.0,nan,nan,nan,nan,nan,nan,nan,nan,nan,nan
24908000,6,900.0,900.0,900.0,900.0,900.0,900.0,nan,nan,nan,nan,nan,nan,nan,nan,nan,nan
25008000,6,900.0,900.0,900.0,900.0,900.0,900.0,nan,nan,nan,nan,nan,nan,nan,nan,nan,nan
25108000,6,900.0,900.0,900.0,900.0,900.0,900.0,nan,nan,nan,nan,nan,nan,nan,nan,nan,nan
25204000,6,900.0,900.0,900.0,900.0,900.0,900.0,nan,nan,nan,nan,nan,nan,nan,nan,nan,nan
25300000,6,900.0,900.0,900.0,900.0,900.0,900.0,nan,nan,nan,nan,nan,nan,nan,nan,nan,nan
25396000,6,900.0,900.0,900.0,900.0,900.0,900.0,nan,nan,nan,nan,nan,nan,nan,nan,nan,nan
25496000,6,900.0,900.0,900.0,900.0,900.0,900.0,nan,nan,nan,nan,nan,nan,nan,nan,nan,nan
25592000,6,900.0,900.0,900.0,900.0,900.0,900.0,nan,nan,nan,nan,nan,nan,nan,nan,nan,nan
25688000,6,900.0,900.0,900.0,900.0,900.0,900.0,nan,nan,nan,nan,nan,nan,nan,nan,nan,nan
25784000,6,900.0,900.0,900.0,900.0,900.0,900.0,nan,nan,nan,nan,nan,nan,nan,nan,nan,nan
25880000,6,900.0,900.0,900.0,900.0,900.0,900.0,nan,nan,nan,nan,nan,nan,nan,nan,nan,nan
25976000,6,900.0,900.0,900.0,900.0,900.0,900.0,nan,nan,nan,nan,nan,nan,nan,nan,nan,nan
26072000,6,900.0,900.0,900.0,900.0,900.0,900.0,nan,nan,nan,nan,nan,nan,nan,nan,nan,nan
26168000,6,900.0,900.0,900.0,900.0,900.0,900.0,nan,nan,nan,nan,nan,nan,nan,nan,nan,nan
26264000,6,900.0,900.0,900.0,900.0,900.0,900.0,nan,nan,nan,nan,nan,nan,nan,nan,nan,nan
26360000,6,900.0,900.0,900.0,900.0,900.0,900.0,nan,nan,nan,nan,nan,nan,nan,nan,nan,nan
26460000,6,900.0,900.0,900.0,900.0,900.0,900.0,nan,nan,nan,nan,nan,nan,nan,nan,nan,nan
26556000,6,900.0,900.0,900.0,900.0,900.0,900.0,nan,nan,nan,nan,nan,nan,nan,nan,nan,nan
26652000,6,900.0,900.0,900.0,900.0,900.0,900.0,nan,nan,nan,nan,nan,nan,nan,nan,nan,nan
26752000,6,900.0,900.0,900.0,900.0,900.0,900.0,nan,nan,nan,nan,nan,nan,nan,nan,nan,nan
26848000,6,900.0,900.0,900.0,900.0,900.0,900.0,nan,nan,nan,nan,nan,nan,nan,nan,nan,nan
26944000,6,900.0,900.0,900.0,900.0,900.0,900.0,nan,nan,nan,nan,nan,nan,nan,nan,nan,nan
27040000,6,900.0,900.0,900.0,900.0,900.0,900.0,nan,nan,nan,nan,nan,nan,nan,nan,nan,nan
27136000,6,900.0,900.0,900.0,900.0,900.0,900.0,nan,nan,nan,nan,nan,nan,nan,nan,nan,nan
27232000,6,900.0,900.0,900.0,900.0,900.0,900.0,nan,nan,nan,nan,nan,nan,nan,nan,nan,nan
27328000,6,900.0,900.0,900.0,900.0,900.0,900.0,nan,nan,nan,nan,nan,nan,nan,nan,nan,nan
27424000,6,900.0,900.0,900.0,900.0,900.0,900.0,nan,nan,nan,nan,nan,nan,nan,nan,nan,nan
27520000,6,900.0,900.0,900.0,900.0,900.0,900.0,nan,nan,nan,nan,nan,nan,nan,nan,nan,nan
27620000,6,900.0,900.0,900.0,900.0,900.0,900.0,nan,nan,nan,nan,nan,nan,nan,nan,nan,nan
27716000,6,900.0,900.0,900.0,900.0,900.0,900.0,nan,nan,nan,nan,nan,nan,nan,nan,nan,nan
27812000,6,900.0,900.0,900.0,900.0,900.0,900.0,nan,nan,nan,nan,nan,nan,nan,nan,nan,nan
27912000,6,900.0,900.0,900.0,900.0,900.0,900.0,nan,nan,nan,nan,nan,nan,nan,nan,nan,nan
28012000,6,900.0,900.0,900.0,900.0,900.0,900.0,nan,nan,nan,nan,nan,nan,nan,nan,nan,nan
28108000,6,900.0,900.0,900.0,900.0,900.0,900.0,nan,nan,nan,nan,nan,nan,nan,nan,nan,nan
28208000,6,900.0,900.0,900.0,900.0,900.0,900.0,nan,nan,nan,nan,nan,nan,nan,nan,nan,nan
28308000,6,900.0,900.0,900.0,900.0,900.0,900.0,nan,nan,nan,nan,nan,nan,nan,nan,nan,nan
28404000,6,900.0,900.0,900.0,900.0,900.0,900.0,nan,nan,nan,nan,nan,nan,nan,nan,nan,nan
28500000,6,900.0,900.0,900.0,900.0,900.0,900.0,nan,nan,nan,nan,nan,nan,nan,nan,nan,nan
28600000,6,900.0,900.0,900.0,900.0,900.0,900.0,nan,nan,nan,nan,nan,nan,nan,nan,nan,nan
28696000,6,900.0,900.0,900.0,900.0,900.0,900.0,nan,nan,nan,nan,nan,nan,nan,nan,nan,nan
28796000,6,900.0,900.0,900.0,900.0,900.0,900.0,nan,nan,nan,nan,nan,nan,nan,nan,nan,nan
28896000,6,900.0,900.0,900.0,900.0,900.0,900.0,nan,nan,nan,nan,nan,nan,nan,nan,nan,nan
28996000,6,900.0,900.0,900.0,900.0,900.0,900.0,nan,nan,nan,nan,nan,nan,nan,nan,nan,nan
29096000,6,900.0,900.0,900.0,900.0,900.0,900.0,nan,nan,nan,nan,nan,nan,nan,nan,nan,nan
29196000,6,900.0,900.0,900.0,900.0,900.0,900.0,nan,nan,nan,nan,nan,nan,nan,nan,nan,nan
29292000,6,900.0,900.0,900.0,900.0,900.0,900.0,nan,nan,nan,nan,nan,nan,nan,nan,nan,nan
29388000,6,900.0,900.0,900.0,900.0,900.0,900.0,nan,nan,nan,nan,nan,nan,nan,nan,nan,nan
29484000,6,900.0,900.0,900.0,900.0,900.0,900.0,nan,nan,nan,nan,nan,nan,nan,nan,nan,nan
29580000,6,900.0,900.0,900.0,900.0,900.0,900.0,nan,nan,nan,nan,nan,nan,nan,nan,nan,nan
29680000,6,900.0,900.0,900.0,900.0,900.0,900.0,nan,nan,nan,nan,nan,nan,nan,nan,nan,nan
29780000,6,900.0,900.0,900.0,900.0,900.0,900.0,nan,nan,nan,nan,nan,nan,nan,nan,nan,nan
29876000,6,900.0,900.0,900.0,900.0,900.0,900.0,nan,nan,nan,nan,nan,nan,nan,nan,nan,nan
29976000,6,900.0,900.0,900.0,900.0,900.0,900.0,nan,nan,nan,nan,nan,nan,nan,nan,nan,nan
30076000,6,900.0,900.0,900.0,900.0,900.0,900.0,nan,nan,nan,nan,nan,nan,nan,nan,nan,nan
30176000,6,900.0,900.0,900.0,900.0,900.0,900.0,nan,nan,nan,nan,nan,nan,nan,nan,nan,nan
30272000,6,900.0,900.0,900.0,900.0,900.0,900.0,nan,nan,nan,nan,nan,nan,nan,nan,nan,nan
30372000,6,900.0,900.0,900.0,900.0,900.0,900.0,nan,nan,nan,nan,nan,nan,nan,nan,nan,nan
30468000,6,900.0,900.0,900.0,900.0,900.0,900.0,nan,nan,nan,nan,nan,nan,nan,nan,nan,nan
30564000,6,900.0,900.0,900.0,900.0,900.0,900.0,nan,nan,nan,nan,nan,nan,nan,nan,nan,nan
30660000,6,900.0,900.0,900.0,900.0,900.0,900.0,nan,nan,nan,nan,nan,nan,nan,nan,nan,nan
30756000,6,900.0,900.0,900.0,900.0,900.0,900.0,nan,nan,nan,nan,nan,nan,nan,nan,nan,nan
30852000,6,900.0,900.0,900.0,900.0,900.0,900.0,nan,nan,nan,nan,nan,nan,nan,nan,nan,nan
30948000,6,900.0,900.0,900.0,900.0,900.0,900.0,nan,nan,nan,nan,nan,nan,nan,nan,nan,nan
31044000,6,900.0,900.0,900.0,900.0,900.0,900.0,nan,nan,nan,nan,nan,nan,nan,nan,nan,nan
31140000,6,900.0,900.0,900.0,900.0,900.0,900.0,nan,nan,nan,nan,nan,nan,nan,nan,nan,nan
31236000,6,900.0,900.0,900.0,900.0,900.0,900.0,nan,nan,nan,nan,nan,nan,nan,nan,nan,nan
31332000,6,900.0,900.0,900.0,900.0,900.0,900.0,nan,nan,nan,nan,nan,nan,nan,nan,nan,nan
31428000,6,900.0,900.0,900.0,900.0,900.0,900.0,nan,nan,nan,nan,nan,nan,nan,nan,nan,nan
31528000,6,900.0,900.0,900.0,900.0,900.0,900.0,nan,nan,nan,nan,nan,nan,nan,nan,nan,nan
31624000,6,900.0,900.0,900.0,900.0,900.0,900.0,nan,nan,nan,nan,nan,nan,nan,nan,nan,nan
31720000,6,900.0,900.0,900.0,900.0,900.0,900.0,nan,nan,nan,nan,nan,nan,nan,nan,nan,nan
31816000,6,900.0,900.0,900.0,900.0,900.0,900.0,nan,nan,nan,nan,nan,nan,nan,nan,nan,nan
31912000,6,900.0,900.0,900.0,900.0,900.0,900.0,nan,nan,nan,nan,nan,nan,nan,nan,nan,nan
32008000,6,900.0,900.0,900.0,900.0,900.0,900.0,nan,nan,nan,nan,nan,nan,nan,nan,nan,nan
32104000,6,900.0,900.0,900.0,900.0,900.0,900.0,nan,nan,nan,nan,nan,nan,nan,nan,nan,nan
32200000,6,900.0,900.0,900.0,900.0,900.0,900.0,nan,nan,nan,nan,nan,nan,nan,nan,nan,nan
32296000,6,900.0,900.0,900.0,900.0,900.0,900.0,nan,nan,nan,nan,nan,nan,nan,nan,nan,nan
32396000,6,900.0,900.0,900.0,900.0,900.0,900.0,nan,nan,nan,nan,nan,nan,nan,nan,nan,nan
32492000,6,900.0,900.0,900.0,900.0,900.0,900.0,nan,nan,nan,nan,nan,nan,nan,nan,nan,nan
32588000,6,900.0,900.0,900.0,900.0,900.0,900.0,nan,nan,nan,nan,nan,nan,nan,nan,nan,nan
32684000,6,900.0,900.0,900.0,900.0,900.0,900.0,nan,nan,nan,nan,nan,nan,nan,nan,nan,nan
32780000,6,900.0,900.0,900.0,900.0,900.0,900.0,nan,nan,nan,nan,nan,nan,nan,nan,nan,nan
32876000,6,900.0,900.0,900.0,900.0,900.0,900.0,nan,nan,nan,nan,nan,nan,nan,nan,nan,nan
32976000,6,900.0,900.0,900.0,900.0,900.0,900.0,nan,nan,nan,nan,nan,nan,nan,nan,nan,nan
33072000,6,900.0,900.0,900.0,900.0,900.0,900.0,nan,nan,nan,nan,nan,nan,nan,nan,nan,nan
33168000,6,900.0,900.0,900.0,900.0,900.0,900.0,nan,nan,nan,nan,nan,nan,nan,nan,nan,nan
33264000,6,900.0,900.0,900.0,900.0,900.0,900.0,nan,nan,nan,nan,nan,nan,nan,nan,nan,nan
33360000,6,900.0,900.0,900.0,900.0,900.0,900.0,nan,nan,nan,nan,nan,nan,nan,nan,nan,nan
33456000,6,900.0,900.0,900.0,900.0,900.0,900.0,nan,nan,nan,nan,nan,nan,nan,nan,nan,nan
33552000,6,900.0,900.0,900.0,900.0,900.0,900.0,nan,nan,nan,nan,nan,nan,nan,nan,nan,nan
33648000,6,900.0,900.0,900.0,900.0,900.0,900.0,nan,nan,nan,nan,nan,nan,nan,nan,nan,nan
33748000,6,900.0,900.0,900.0,900.0,900.0,900.0,nan,nan,nan,nan,nan,nan,nan,nan,nan,nan
33844000,6,900.0,900.0,900.0,900.0,900.0,900.0,nan,nan,nan,nan,nan,nan,nan,nan,nan,nan
33940000,6,900.0,900.0,900.0,900.0,900.0,900.0,nan,nan,nan,nan,nan,nan,nan,nan,nan,nan
34036000,6,900.0,900.0,900.0,900.0,900.0,900.0,nan,nan,nan,nan,nan,nan,nan,nan,nan,nan
34132000,6,900.0,900.0,900.0,900.0,900.0,900.0,nan,nan,nan,nan,nan,nan,nan,nan,nan,nan
34232000,6,900.0,900.0,900.0,900.0,900.0,900.0,nan,nan,nan,nan,nan,nan,nan,nan,nan,nan
34332000,6,900.0,900.0,900.0,900.0,900.0,900.0,nan,nan,nan,nan,nan,nan,nan,nan,nan,nan
34432000,6,900.0,900.0,900.0,900.0,900.0,900.0,nan,nan,nan,nan,nan,nan,nan,nan,nan,nan
34532000,6,900.0,900.0,900.0,900.0,900.0,900.0,nan,nan,nan,nan,nan,nan,nan,nan,nan,nan
34632000,6,900.0,900.0,900.0,900.0,900.0,900.0,nan,nan,nan,nan,nan,nan,nan,nan,nan,nan
34728000,6,900.0,900.0,900.0,900.0,900.0,900.0,nan,nan,nan,nan,nan,nan,nan,nan,nan,nan
34824000,6,900.0,900.0,900.0,900.0,900.0,900.0,nan,nan,nan,nan,nan,nan,nan,nan,nan,nan
34920000,6,1000.0,1000.0,1000.0,1000.0,1500.0,1500.0,nan,nan,nan,nan,nan,nan,nan,nan,nan,nan
35020000,6,1000.0,1000.0,1000.0,1000.0,1500.0,1500.0,nan,nan,nan,nan,nan,nan,nan,nan,nan,nan
35116000,6,1000.0,1000.0,1000.0,1000.0,1500.0,1500.0,nan,nan,nan,nan,nan,nan,nan,nan,nan,nan
35212000,6,1000.0,1000.0,1000.0,1000.0,1500.0,1500.0,nan,nan,nan,nan,nan,nan,nan,nan,nan,nan
35308000,6,1000.0,1000.0,1000.0,1000.0,1500.0,1500.0,nan,nan,nan,nan,nan,nan,nan,nan,nan,nan
35408000,6,1000.0,1000.0,1000.0,1000.0,1500.0,1500.0,nan,nan,nan,nan,nan,nan,nan,nan,nan,nan
35508000,6,1000.0,1000.0,1000.0,1000.0,1500.0,1500.0,nan,nan,nan,nan,nan,nan,nan,nan,nan,nan
35608000,6,1000.0,1000.0,1000.0,1000.0,1500.0,1500.0,nan,nan,nan,nan,nan,nan,nan,nan,nan,nan
35704000,6,1000.0,1000.0,1000.0,1000.0,1500.0,1500.0,nan,nan,nan,nan,nan,nan,nan,nan,nan,nan
35800000,6,1000.0,1000.0,1000.0,1000.0,1500.0,1500.0,nan,nan,nan,nan,nan,nan,nan,nan,nan,nan
35896000,6,1119.27,1121.53,1121.59,1117.61,1500.0,1500.0,nan,nan,nan,nan,nan,nan,nan,nan,nan,nan
35992000,6,1113.3,1121.69,1121.22,1123.8,1500.0,1500.0,nan,nan,nan,nan,nan,nan,nan,nan,nan,nan
36092000,6,1165.65,1156.99,1156.69,1163.0,1500.0,1500.0,nan,nan,nan,nan,nan,nan,nan,nan,nan,nan
36188000,6,1226.34,1226.54,1224.67,1236.42,1500.0,1500.0,nan,nan,nan,nan,nan,nan,nan,nan,nan,nan
36284000,6,1294.99,1292.23,1296.19,1294.29,1500.0,1500.0,nan,nan,nan,nan,nan,nan,nan,nan,nan,nan
36380000,6,1360.19,1364.38,1357.87,1362.02,1500.0,1500.0,nan,nan,nan,nan,nan,nan,nan,nan,nan,nan
36480000,6,1444.77,1446.68,1443.58,1444.1,1500.0,1500.0,nan,nan,nan,nan,nan,nan,nan,nan,nan,nan
36576000,6,1512.57,1518.73,1519.18,1520.12,1500.0,1500.0,nan,nan,nan,nan,nan,nan,nan,nan,nan,nan
36672000,6,1547.12,1552.89,1550.92,1555.53,1500.0,1500.0,nan,nan,nan,nan,nan,nan,nan,nan,nan,nan
36768000,6,1552.16,1553.41,1551.18,1551.43,1500.0,1500.0,nan,nan,nan,nan,nan,nan,nan,nan,nan,nan
36864000,6,1561.35,1555.88,1559.02,1552.95,1500.0,1500.0,nan,nan,nan,nan,nan,nan,nan,nan,nan,nan
36960000,6,1552.93,1555.53,1557.14,1556.77,1500.0,1500.0,nan,nan,nan,nan,nan,nan,nan,nan,nan,nan
37056000,6,1562.04,1551.18,1564.36,1551.4,1500.0,1500.0,nan,nan,nan,nan,nan,nan,nan,nan,nan,nan
37152000,6,1553.44,1555.85,1555.13,1557.71,1500.0,1500.0,nan,nan,nan,nan,nan,nan,nan,nan,nan,nan
37248000,6,1565.99,1562.64,1564.89,1554.22,1500.0,1500.0,nan,nan,nan,nan,nan,nan,nan,nan,nan,nan
37344000,6,1558.68,1557.79,1562.49,1557.37,1500.0,1500.0,nan,nan,nan,nan,nan,nan,nan,nan,nan,nan
37440000,6,1555.68,1556.15,1557.84,1559.78,1500.0,1500.0,nan,nan,nan,nan,nan,nan,nan,nan,nan,nan
37536000,6,1564.05,1563.35,1564.31,1560.79,1500.0,1500.0,nan,nan,nan,nan,nan,nan,nan,nan,nan,nan
37632000,6,1557.89,1562.28,1554.99,1564.15,1500.0,1500.0,nan,nan,nan,nan,nan,nan,nan,nan,nan,nan
37728000,6,1558.76,1561.8,1562.78,1560.25,1500.0,1500.0,nan,nan,nan,nan,nan,nan,nan,nan,nan,nan
37828000,6,1559.22,1555.69,1559.78,1556.22,1500.0,1500.0,nan,nan,nan,nan,nan,nan,nan,nan,nan,nan
37924000,6,1562.23,1564.28,1560.57,1566.87,1500.0,1500.0,nan,nan,nan,nan,nan,nan,nan,nan,nan,nan
38020000,6,1562.28,1558.73,1565.52,1555.81,1500.0,1500.0,nan,nan,nan,nan,nan,nan,nan,nan,nan,nan
38116000,6,1562.87,1558.46,1558.4,1559.85,1500.0,1500.0,nan,nan,nan,nan,nan,nan,nan,nan,nan,nan
38216000,6,1557.56,1555.0,1557.71,1555.54,1500.0,1500.0,nan,nan,nan,nan,nan,nan,nan,nan,nan,nan
38312000,6,1558.06,1566.44,1562.84,1564.54,1500.0,1500.0,nan,nan,nan,nan,nan,nan,nan,nan,nan,nan
38408000,6,1559.72,1560.95,1555.4,1557.81,1500.0,1500.0,nan,nan,nan,nan,nan,nan,nan,nan,nan,nan
38508000,6,1528.0,1530.68,1524.43,1532.57,1500.0,1500.0,nan,nan,nan,nan,nan,nan,nan,nan,nan,nan
38608000,6,1439.07,1446.7,1439.23,1446.9,1500.0,1500.0,nan,nan,nan,nan,nan,nan,nan,nan,nan,nan
38704000,6,1448.88,1445.64,1453.8,1437.24,1500.0,1500.0,nan,nan,nan,nan,nan,nan,nan,nan,nan,nan
38800000,6,1446.09,1449.34,1443.13,1448.32,1500.0,1500.0,nan,nan,nan,nan,nan,nan,nan,nan,nan,nan
38896000,6,1444.38,1447.57,1448.41,1448.04,1500.0,1500.0,nan,nan,nan,nan,nan,nan,nan,nan,nan,nan
38996000,6,1451.14,1443.95,1451.62,1448.08,1500.0,1500.0,nan,nan,nan,nan,nan,nan,nan,nan,nan,nan
39096000,6,1455.35,1456.7,1457.27,1458.62,1500.0,1500.0,nan,nan,nan,nan,nan,nan,nan,nan,nan,nan
39192000,6,1463.79,1445.7,1459.92,1458.22,1500.0,1500.0,nan,nan,nan,nan,nan,nan,nan,nan,nan,nan
39288000,6,1463.78,1451.39,1466.33,1451.9,1500.0,1500.0,nan,nan,nan,nan,nan,nan,nan,nan,nan,nan
39388000,6,1463.14,1457.82,1463.52,1463.59,1500.0,1500.0,nan,nan,nan,nan,nan,nan,nan,nan,nan,nan
39484000,6,1470.89,1467.61,1470.32,1476.53,1500.0,1500.0,nan,nan,nan,nan,nan,nan,nan,nan,nan,nan
39580000,6,1473.51,1466.7,1471.83,1468.12,1500.0,1500.0,nan,nan,nan,nan,nan,nan,nan,nan,nan,nan
39676000,6,1465.45,1474.49,1462.92,1473.28,1500.0,1500.0,nan,nan,nan,nan,nan,nan,nan,nan,nan,nan
39772000,6,1475.45,1480.46,1476.32,1478.1,1500.0,1500.0,nan,nan,nan,nan,nan,nan,nan,nan,nan,nan
39868000,6,1477.24,1475.65,1472.88,1479.65,1500.0,1500.0,nan,nan,nan,nan,nan,nan,nan,nan,nan,nan
39964000,6,1479.72,1481.06,1479.91,1477.8,1500.0,1500.0,nan,nan,nan,nan,nan,nan,nan,nan,nan,nan
40060000,6,1477.68,1478.22,1477.19,1477.8,1500.0,1500.0,nan,nan,nan,nan,nan,nan,nan,nan,nan,nan
40156000,6,1491.64,1485.77,1492.96,1484.91,1500.0,1500.0,nan,nan,nan,nan,nan,nan,nan,nan,nan,nan
40256000,6,1483.54,1489.06,1486.28,1484.24,1500.0,1500.0,nan,nan,nan,nan,nan,nan,nan,nan,nan,nan
40352000,6,1484.9,1480.41,1482.52,1483.68,1500.0,1500.0,nan,nan,nan,nan,nan,nan,nan,nan,nan,nan
40448000,6,1494.25,1489.59,1488.37,1489.99,1500.0,1500.0,nan,nan,nan,nan,nan,nan,nan,nan,nan,nan
40544000,6,1484.35,1489.05,1486.92,1485.63,1500.0,1500.0,nan,nan,nan,nan,nan,nan,nan,nan,nan,nan
40644000,6,1484.38,1491.07,1478.1,1496.19,1500.0,1500.0,nan,nan,nan,nan,nan,nan,nan,nan,nan,nan
40740000,6,1477.45,1491.8,1478.56,1484.55,1500.0,1500.0,nan,nan,nan,nan,nan,nan,nan,nan,nan,nan
40836000,6,1494.21,1486.76,1497.54,1484.27,1500.0,1500.0,nan,nan,nan,nan,nan,nan,nan,nan,nan,nan
40932000,6,1489.57,1486.51,1495.87,1484.15,1500.0,1500.0,nan,nan,nan,nan,nan,nan,nan,nan,nan,nan
41028000,6,1487.54,1487.6,1483.87,1489.95,1500.0,1500.0,nan,nan,nan,nan,nan,nan,nan,nan,nan,nan
41124000,6,1488.73,1491.39,1483.34,1493.01,1500.0,1500.0,nan,nan,nan,nan,nan,nan,nan,nan,nan,nan
41220000,6,1491.75,1495.83,1489.88,1500.83,1500.0,1500.0,nan,nan,nan,nan,nan,nan,nan,nan,nan,nan
41316000,6,1496.16,1488.37,1491.99,1484.87,1500.0,1500.0,nan,nan,nan,nan,nan,nan,nan,nan,nan,nan
41412000,6,1493.04,1481.22,1495.4,1482.8,1500.0,1500.0,nan,nan,nan,nan,nan,nan,nan,nan,nan,nan
41512000,6,1497.79,1490.12,1497.79,1490.9,1500.0,1500.0,nan,nan,nan,nan,nan,nan,nan,nan,nan,nan
41608000,6,1488.36,1490.99,1493.89,1490.13,1500.0,1500.0,nan,nan,nan,nan,nan,nan,nan,nan,nan,nan
41708000,6,1494.31,1491.01,1492.61,1487.24,1500.0,1500.0,nan,nan,nan,nan,nan,nan,nan,nan,nan,nan
41804000,6,1484.59,1489.84,1486.73,1488.69,1500.0,1500.0,nan,nan,nan,nan,nan,nan,nan,nan,nan,nan
41900000,6,1494.92,1495.58,1487.85,1495.59,1500.0,1500.0,nan,nan,nan,nan,nan,nan,nan,nan,nan,nan
41996000,6,1490.43,1489.66,1495.85,1489.71,1500.0,1500.0,nan,nan,nan,nan,nan,nan,nan,nan,nan,nan
42092000,6,1481.33,1492.79,1487.83,1491.87,1500.0,1500.0,nan,nan,nan,nan,nan,nan,nan,nan,nan,nan
42188000,6,1489.75,1484.34,1490.54,1487.06,1500.0,1500.0,nan,nan,nan,nan,nan,nan,nan,nan,nan,nan
42288000,6,1496.47,1490.27,1493.78,1495.6,1500.0,1500.0,nan,nan,nan,nan,nan,nan,nan,nan,nan,nan
42384000,6,1500.03,1486.39,1497.01,1483.02,1500.0,1500.0,nan,nan,nan,nan,nan,nan,nan,nan,nan,nan
42480000,6,1480.92,1493.52,1485.84,1489.66,1500.0,1500.0,nan,nan,nan,nan,nan,nan,nan,nan,nan,nan
42576000,6,1497.62,1495.2,1494.47,1492.99,1500.0,1500.0,nan,nan,nan,nan,nan,nan,nan,nan,nan,nan
42672000,6,1498.98,1492.68,1497.67,1494.44,1500.0,1500.0,nan,nan,nan,nan,nan,nan,nan,nan,nan,nan
42772000,6,1491.39,1493.54,1491.94,1487.55,1500.0,1500.0,nan,nan,nan,nan,nan,nan,nan,nan,nan,nan
42868000,6,1484.98,1487.33,1488.19,1487.41,1500.0,1500.0,nan,nan,nan,nan,nan,nan,nan,nan,nan,nan
42964000,6,1494.26,1494.29,1497.4,1492.44,1500.0,1500.0,nan,nan,nan,nan,nan,nan,nan,nan,nan,nan
43064000,6,1491.93,1491.39,1489.51,1494.8,1500.0,1500.0,nan,nan,nan,nan,nan,nan,nan,nan,nan,nan
43160000,6,1518.52,1504.14,1513.83,1515.41,1500.0,1500.0,nan,nan,nan,nan,nan,nan,nan,nan,nan,nan
43256000,6,1561.59,1555.49,1557.57,1559.62,1500.0,1500.0,nan,nan,nan,nan,nan,nan,nan,nan,nan,nan
43352000,6,1589.0,1587.24,1582.07,1596.43,1500.0,1500.0,nan,nan,nan,nan,nan,nan,nan,nan,nan,nan
43448000,6,1656.42,1640.72,1653.76,1641.55,1500.0,1500.0,nan,nan,nan,nan,nan,nan,nan,nan,nan,nan
43544000,6,1660.76,1660.41,1661.77,1656.89,1500.0,1500.0,nan,nan,nan,nan,nan,nan,nan,nan,nan,nan
43640000,6,1630.41,1637.27,1633.46,1632.46,1500.0,1500.0,nan,nan,nan,nan,nan,nan,nan,nan,nan,nan
43736000,6,1622.96,1615.13,1618.69,1621.23,1500.0,1500.0,nan,nan,nan,nan,nan,nan,nan,nan,nan,nan
43832000,6,1534.82,1538.59,1526.52,1545.17,1500.0,1500.0,nan,nan,nan,nan,nan,nan,nan,nan,nan,nan
43928000,6,1502.89,1503.27,1498.49,1505.32,1500.0,1500.0,nan,nan,nan,nan,nan,nan,nan,nan,nan,nan
44024000,6,1501.13,1497.02,1501.57,1500.09,1500.0,1500.0,nan,nan,nan,nan,nan,nan,nan,nan,nan,nan
44120000,6,1498.21,1501.1,1499.57,1498.89,1500.0,1500.0,nan,nan,nan,nan,nan,nan,nan,nan,nan,nan
44216000,6,1498.69,1502.53,1498.99,1492.78,1500.0,1500.0,nan,nan,nan,nan,nan,nan,nan,nan,nan,nan
44312000,6,1497.01,1496.79,1495.07,1496.11,1500.0,1500.0,nan,nan,nan,nan,nan,nan,nan,nan,nan,nan
44412000,6,1496.85,1489.98,1496.8,1492.69,1500.0,1500.0,nan,nan,nan,nan,nan,nan,nan,nan,nan,nan
44508000,6,1494.16,1492.99,1491.52,1493.77,1500.0,1500.0,nan,nan,nan,nan,nan,nan,nan,nan,nan,nan
44608000,6,1490.51,1495.46,1487.11,1499.1,1500.0,1500.0,nan,nan,nan,nan,nan,nan,nan,nan,nan,nan
44704000,6,1493.98,1493.97,1495.31,1489.18,1500.0,1500.0,nan,nan,nan,nan,nan,nan,nan,nan,nan,nan
44800000,6,1487.19,1495.85,1491.07,1496.93,1500.0,1500.0,nan,nan,nan,nan,nan,nan,nan,nan,nan,nan
44896000,6,1495.38,1488.59,1494.45,1493.98,1500.0,1500.0,nan,nan,nan,nan,nan,nan,nan,nan,nan,nan
44992000,6,1488.04,1499.12,1489.03,1501.52,1500.0,1500.0,nan,nan,nan,nan,nan,nan,nan,nan,nan,nan
45088000,6,1482.11,1492.64,1482.54,1490.8,1500.0,1500.0,nan,nan,nan,nan,nan,nan,nan,nan,nan,nan
45184000,6,1500.5,1494.7,1501.3,1493.44,1500.0,1500.0,nan,nan,nan,nan,nan,nan,nan,nan,nan,nan
45280000,6,1496.74,1488.47,1497.16,1489.66,1500.0,1500.0,nan,nan,nan,nan,nan,nan,nan,nan,nan,nan
45380000,6,1493.5,1483.15,1487.84,1481.1,1500.0,1500.0,nan,nan,nan,nan,nan,nan,nan,nan,nan,nan
45480000,6,1486.35,1487.72,1486.92,1485.57,1500.0,1500.0,nan,nan,nan,nan,nan,nan,nan,nan,nan,nan
45576000,6,1507.05,1497.63,1502.79,1499.91,1500.0,1500.0,nan,nan,nan,nan,nan,nan,nan,nan,nan,nan
45672000,6,1496.74,1491.93,1495.18,1495.2,1500.0,1500.0,nan,nan,nan,nan,nan,nan,nan,nan,nan,nan
45772000,6,1490.22,1486.73,1489.8,1488.95,1500.0,1500.0,nan,nan,nan,nan,nan,nan,nan,nan,nan,nan
45868000,6,1486.52,1490.63,1488.95,1489.78,1500.0,1500.0,nan,nan,nan,nan,nan,nan,nan,nan,nan,nan
45964000,6,1505.66,1504.24,1500.37,1505.08,1500.0,1500.0,nan,nan,nan,nan,nan,nan,nan,nan,nan,nan
46060000,6,1494.08,1496.62,1493.51,1505.93,1500.0,1500.0,nan,nan,nan,nan,nan,nan,nan,nan,nan,nan
46160000,6,1491.48,1489.92,1484.67,1492.33,1500.0,1500.0,nan,nan,nan,nan,nan,nan,nan,nan,nan,nan
46256000,6,1495.52,1510.13,1499.2,1507.33,1500.0,1500.0,nan,nan,nan,nan,nan,nan,nan,nan,nan,nan
46352000,6,1495.11,1495.49,1489.24,1499.26,1500.0,1500.0,nan,nan,nan,nan,nan,nan,nan,nan,nan,nan
46448000,6,1494.02,1500.44,1493.82,1495.69,1500.0,1500.0,nan,nan,nan,nan,nan,nan,nan,nan,nan,nan
46544000,6,1476.51,1497.73,1481.99,1488.36,1500.0,1500.0,nan,nan,nan,nan,nan,nan,nan,nan,nan,nan
46640000,6,1505.36,1491.8,1499.41,1495.59,1500.0,1500.0,nan,nan,nan,nan,nan,nan,nan,nan,nan,nan
46740000,6,1493.66,1489.17,1492.97,1487.38,1500.0,1500.0,nan,nan,nan,nan,nan,nan,nan,nan,nan,nan
46836000,6,1488.66,1492.9,1490.88,1491.4,1500.0,1500.0,nan,nan,nan,nan,nan,nan,nan,nan,nan,nan
46936000,6,1485.74,1485.46,1487.08,1483.97,1500.0,1500.0,nan,nan,nan,nan,nan,nan,nan,nan,nan,nan
47032000,6,1503.8,1493.46,1505.07,1498.73,1500.0,1500.0,nan,nan,nan,nan,nan,nan,nan,nan,nan,nan
47132000,6,1498.3,1488.63,1496.42,1490.13,1500.0,1500.0,nan,nan,nan,nan,nan,nan,nan,nan,nan,nan
47232000,6,1489.2,1499.68,1495.39,1490.92,1500.0,1500.0,nan,nan,nan,nan,nan,nan,nan,nan,nan,nan
47328000,6,1483.89,1491.38,1488.03,1485.49,1500.0,1500.0,nan,nan,nan,nan,nan,nan,nan,nan,nan,nan
47428000,6,1497.3,1503.5,1498.63,1504.31,1500.0,1500.0,nan,nan,nan,nan,nan,nan,nan,nan,nan,nan
47524000,6,1493.09,1494.58,1497.33,1488.44,1500.0,1500.0,nan,nan,nan,nan,nan,nan,nan,nan,nan,nan
47620000,6,1492.85,1484.31,1489.98,1485.53,1500.0,1500.0,nan,nan,nan,nan,nan,nan,nan,nan,nan,nan
47716000,6,1485.88,1491.05,1485.72,1493.08,1500.0,1500.0,nan,nan,nan,nan,nan,nan,nan,nan,nan,nan
47816000,6,1508.55,1494.87,1505.96,1500.15,1500.0,1500.0,nan,nan,nan,nan,nan,nan,nan,nan,nan,nan
47912000,6,1500.55,1488.19,1499.16,1492.99,1500.0,1500.0,nan,nan,nan,nan,nan,nan,nan,nan,nan,nan
48008000,6,1490.16,1492.02,1486.75,1491.51,1500.0,1500.0,nan,nan,nan,nan,nan,nan,nan,nan,nan,nan
48104000,6,1505.0,1501.33,1505.45,1499.68,1500.0,1500.0,nan,nan,nan,nan,nan,nan,nan,nan,nan,nan
48200000,6,1496.9,1492.06,1495.34,1495.15,1500.0,1500.0,nan,nan,nan,nan,nan,nan,nan,nan,nan,nan
48296000,6,1494.48,1496.66,1494.4,1495.31,1500.0,1500.0,nan,nan,nan,nan,nan,nan,nan,nan,nan,nan
48396000,6,1491.44,1485.34,1490.14,1489.22,1500.0,1500.0,nan,nan,nan,nan,nan,nan,nan,nan,nan,nan
48492000,6,1499.25,1508.98,1502.39,1507.02,1500.0,1500.0,nan,nan,nan,nan,nan,nan,nan,nan,nan,nan
48592000,6,1503.95,1507.32,1501.29,1505.03,1500.0,1500.0,nan,nan,nan,nan,nan,nan,nan,nan,nan,nan
48692000,6,1493.09,1496.94,1496.78,1497.22,1500.0,1500.0,nan,nan,nan,nan,nan,nan,nan,nan,nan,nan
48788000,6,1489.24,1498.87,1484.22,1496.74,1500.0,1500.0,nan,nan,nan,nan,nan,nan,nan,nan,nan,nan
48884000,6,1505.82,1506.91,1513.64,1498.45,1500.0,1500.0,nan,nan,nan,nan,nan,nan,nan,nan,nan,nan
48980000,6,1497.11,1499.83,1497.47,1499.17,1500.0,1500.0,nan,nan,nan,nan,nan,nan,nan,nan,nan,nan
49080000,6,1495.03,1500.65,1498.4,1494.88,1500.0,1500.0,nan,nan,nan,nan,nan,nan,nan,nan,nan,nan
49176000,6,1491.77,1489.75,1485.91,1493.45,1500.0,1500.0,nan,nan,nan,nan,nan,nan,nan,nan,nan,nan
49272000,6,1505.92,1504.4,1509.33,1500.18,1500.0,1500.0,nan,nan,nan,nan,nan,nan,nan,nan,nan,nan
49368000,6,1488.46,1506.02,1496.46,1502.68,1500.0,1500.0,nan,nan,nan,nan,nan,nan,nan,nan,nan,nan
49468000,6,1497.7,1500.59,1495.03,1501.16,1500.0,1500.0,nan,nan,nan,nan,nan,nan,nan,nan,nan,nan
49564000,6,1492.94,1494.34,1492.49,1489.2,1500.0,1500.0,nan,nan,nan,nan,nan,nan,nan,nan,nan,nan
49660000,6,1507.73,1504.39,1502.69,1508.48,1500.0,1500.0,nan,nan,nan,nan,nan,nan,nan,nan,nan,nan
49756000,6,1495.74,1500.44,1497.36,1498.42,1500.0,1500.0,nan,nan,nan,nan,nan,nan,nan,nan,nan,nan
49852000,6,1489.03,1490.12,1491.38,1497.13,1500.0,1500.0,nan,nan,nan,nan,nan,nan,nan,nan,nan,nan
49948000,6,1505.67,1502.86,1502.14,1504.78,1500.0,1500.0,nan,nan,nan,nan,nan,nan,nan,nan,nan,nan
50044000,6,1503.38,1488.83,1502.97,1489.42,1500.0,1500.0,nan,nan,nan,nan,nan,nan,nan,nan,nan,nan
50140000,6,1496.15,1496.97,1492.42,1499.66,1500.0,1500.0,nan,nan,nan,nan,nan,nan,nan,nan,nan,nan
50240000,6,1492.29,1483.39,1484.57,1491.63,1500.0,1500.0,nan,nan,nan,nan,nan,nan,nan,nan,nan,nan
50340000,6,1503.73,1501.17,1504.85,1497.75,1500.0,1500.0,nan,nan,nan,nan,nan,nan,nan,nan,nan,nan
50436000,6,1496.64,1495.18,1496.57,1495.94,1500.0,1500.0,nan,nan,nan,nan,nan,nan,nan,nan,nan,nan
50532000,6,1490.61,1493.38,1488.54,1492.15,1500.0,1500.0,nan,nan,nan,nan,nan,nan,nan,nan,nan,nan
50628000,6,1486.89,1490.95,1490.76,1490.75,1500.0,1500.0,nan,nan,nan,nan,nan,nan,nan,nan,nan,nan
50724000,6,1502.1,1502.38,1504.13,1502.59,1500.0,1500.0,nan,nan,nan,nan,nan,nan,nan,nan,nan,nan
50820000,6,1494.07,1494.84,1494.57,1496.46,1500.0,1500.0,nan,nan,nan,nan,nan,nan,nan,nan,nan,nan
50920000,6,1495.0,1483.8,1492.69,1485.7,1500.0,1500.0,nan,nan,nan,nan,nan,nan,nan,nan,nan,nan
51016000,6,1502.95,1502.93,1506.2,1500.31,1500.0,1500.0,nan,nan,nan,nan,nan,nan,nan,nan,nan,nan
51112000,6,1489.14,1499.88,1488.7,1503.21,1500.0,1500.0,nan,nan,nan,nan,nan,nan,nan,nan,nan,nan
51212000,6,1494.29,1498.58,1490.69,1494.13,1500.0,1500.0,nan,nan,nan,nan,nan,nan,nan,nan,nan,nan
51308000,6,1489.09,1485.76,1488.1,1489.79,1500.0,1500.0,nan,nan,nan,nan,nan,nan,nan,nan,nan,nan
51404000,6,1502.54,1501.05,1498.28,1507.33,1500.0,1500.0,nan,nan,nan,nan,nan,nan,nan,nan,nan,nan
51500000,6,1492.74,1495.23,1496.2,1493.78,1500.0,1500.0,nan,nan,nan,nan,nan,nan,nan,nan,nan,nan
51596000,6,1496.42,1493.49,1497.29,1494.68,1500.0,1500.0,nan,nan,nan,nan,nan,nan,nan,nan,nan,nan
51696000,6,1489.28,1492.15,1491.3,1489.3,1500.0,1500.0,nan,nan,nan,nan,nan,nan,nan,nan,nan,nan
51792000,6,1497.75,1506.4,1499.3,1503.94,1500.0,1500.0,nan,nan,nan,nan,nan,nan,nan,nan,nan,nan
51892000,6,1497.08,1498.91,1498.83,1500.73,1500.0,1500.0,nan,nan,nan,nan,nan,nan,nan,nan,nan,nan
51988000,6,1504.0,1494.75,1505.25,1496.36,1500.0,1500.0,nan,nan,nan,nan,nan,nan,nan,nan,nan,nan
52084000,6,1500.98,1499.01,1496.97,1503.8,1500.0,1500.0,nan,nan,nan,nan,nan,nan,nan,nan,nan,nan
52180000,6,1492.67,1490.69,1497.36,1491.36,1500.0,1500.0,nan,nan,nan,nan,nan,nan,nan,nan,nan,nan
52276000,6,1498.63,1499.22,1498.24,1500.29,1500.0,1500.0,nan,nan,nan,nan,nan,nan,nan,nan,nan,nan
52376000,6,1502.13,1494.26,1500.75,1494.31,1500.0,1500.0,nan,nan,nan,nan,nan,nan,nan,nan,nan,nan
52476000,6,1488.89,1495.95,1495.18,1492.48,1500.0,1500.0,nan,nan,nan,nan,nan,nan,nan,nan,nan,nan
52572000,6,1497.32,1493.06,1489.1,1498.72,1500.0,1500.0,nan,nan,nan,nan,nan,nan,nan,nan,nan,nan
52668000,6,1495.17,1502.43,1489.86,1503.61,1500.0,1500.0,nan,nan,nan,nan,nan,nan,nan,nan,nan,nan
52764000,6,1493.98,1503.6,1488.7,1501.85,1500.0,1500.0,nan,nan,nan,nan,nan,nan,nan,nan,nan,nan
52864000,6,1488.63,1489.99,1490.03,1487.59,1500.0,1500.0,nan,nan,nan,nan,nan,nan,nan,nan,nan,nan
52960000,6,1499.29,1503.86,1499.62,1501.66,1500.0,1500.0,nan,nan,nan,nan,nan,nan,nan,nan,nan,nan
53056000,6,1503.01,1496.45,1504.52,1495.22,1500.0,1500.0,nan,nan,nan,nan,nan,nan,nan,nan,nan,nan
53156000,6,1494.72,1485.48,1496.11,1491.17,1500.0,1500.0,nan,nan,nan,nan,nan,nan,nan,nan,nan,nan
53252000,6,1489.56,1484.26,1493.44,1484.57,1500.0,1500.0,nan,nan,nan,nan,nan,nan,nan,nan,nan,nan
53348000,6,1504.63,1500.17,1507.37,1501.48,1500.0,1500.0,nan,nan,nan,nan,nan,nan,nan,nan,nan,nan
53448000,6,1495.62,1490.78,1496.64,1489.77,1500.0,1500.0,nan,nan,nan,nan,nan,nan,nan,nan,nan,nan
53548000,6,1497.11,1491.62,1493.04,1498.02,1500.0,1500.0,nan,nan,nan,nan,nan,nan,nan,nan,nan,nan
53648000,6,1492.86,1487.96,1489.27,1491.56,1500.0,1500.0,nan,nan,nan,nan,nan,nan,nan,nan,nan,nan
53744000,6,1505.74,1500.59,1503.4,1507.13,1500.0,1500.0,nan,nan,nan,nan,nan,nan,nan,nan,nan,nan
53844000,6,1500.96,1503.94,1502.7,1503.97,1500.0,1500.0,nan,nan,nan,nan,nan,nan,nan,nan,nan,nan
53940000,6,1495.83,1488.98,1503.35,1486.68,1500.0,1500.0,nan,nan,nan,nan,nan,nan,nan,nan,nan,nan
54036000,6,1487.78,1486.7,1488.62,1490.92,1500.0,1500.0,nan,nan,nan,nan,nan,nan,nan,nan,nan,nan
54132000,6,1500.11,1502.01,1503.04,1494.92,1500.0,1500.0,nan,nan,nan,nan,nan,nan,nan,nan,nan,nan
54228000,6,1501.85,1482.98,1502.95,1482.42,1500.0,1500.0,nan,nan,nan,nan,nan,nan,nan,nan,nan,nan
54324000,6,1496.46,1491.31,1498.33,1488.9,1500.0,1500.0,nan,nan,nan,nan,nan,nan,nan,nan,nan,nan
54420000,6,1492.17,1483.81,1491.44,1484.7,1500.0,1500.0,nan,nan,nan,nan,nan,nan,nan,nan,nan,nan
54516000,6,1495.79,1506.75,1496.92,1506.88,1500.0,1500.0,nan,nan,nan,nan,nan,nan,nan,nan,nan,nan
54612000,6,1489.32,1496.38,1489.13,1498.66,1500.0,1500.0,nan,nan,nan,nan,nan,nan,nan,nan,nan,nan
54708000,6,1488.46,1486.91,1491.31,1486.67,1500.0,1500.0,nan,nan,nan,nan,nan,nan,nan,nan,nan,nan
54804000,6,1498.78,1506.08,1505.62,1499.74,1500.0,1500.0,nan,nan,nan,nan,nan,nan,nan,nan,nan,nan
54900000,6,1495.57,1493.87,1499.63,1492.76,1500.0,1500.0,nan,nan,nan,nan,nan,nan,nan,nan,nan,nan
54996000,6,1487.26,1488.76,1487.11,1493.49,1500.0,1500.0,nan,nan,nan,nan,nan,nan,nan,nan,nan,nan
55092000,6,1486.52,1491.96,1488.53,1490.42,1500.0,1500.0,nan,nan,nan,nan,nan,nan,nan,nan,nan,nan
55192000,6,1503.84,1501.23,1508.26,1492.66,1500.0,1500.0,nan,nan,nan,nan,nan,nan,nan,nan,nan,nan
55288000,6,1497.39,1491.24,1496.48,1492.19,1500.0,1500.0,nan,nan,nan,nan,nan,nan,nan,nan,nan,nan
55384000,6,1486.2,1489.4,1485.35,1490.31,1500.0,1500.0,nan,nan,nan,nan,nan,nan,nan,nan,nan,nan
55480000,6,1499.44,1503.39,1500.2,1500.43,1500.0,1500.0,nan,nan,nan,nan,nan,nan,nan,nan,nan,nan
55580000,6,1496.28,1506.0,1498.85,1504.52,1500.0,1500.0,nan,nan,nan,nan,nan,nan,nan,nan,nan,nan
55680000,6,1493.27,1499.0,1492.41,1492.42,1500.0,1500.0,nan,nan,nan,nan,nan,nan,nan,nan,nan,nan
55776000,6,1491.48,1485.53,1490.57,1489.12,1500.0,1500.0,nan,nan,nan,nan,nan,nan,nan,nan,nan,nan
55872000,6,1507.85,1498.46,1505.19,1503.44,1500.0,1500.0,nan,nan,nan,nan,nan,nan,nan,nan,nan,nan
55968000,6,1493.89,1499.43,1493.53,1500.14,1500.0,1500.0,nan,nan,nan,nan,nan,nan,nan,nan,nan,nan
56064000,6,1499.8,1493.99,1494.55,1499.15,1500.0,1500.0,nan,nan,nan,nan,nan,nan,nan,nan,nan,nan
56160000,6,1484.65,1491.61,1491.02,1488.87,1500.0,1500.0,nan,nan,nan,nan,nan,nan,nan,nan,nan,nan
56256000,6,1508.51,1498.42,1509.24,1499.02,1500.0,1500.0,nan,nan,nan,nan,nan,nan,nan,nan,nan,nan
56352000,6,1504.02,1490.17,1500.54,1491.61,1500.0,1500.0,nan,nan,nan,nan,nan,nan,nan,nan,nan,nan
56448000,6,1486.38,1490.93,1486.82,1489.61,1500.0,1500.0,nan,nan,nan,nan,nan,nan,nan,nan,nan,nan
56544000,6,1501.75,1503.14,1498.9,1505.11,1500.0,1500.0,nan,nan,nan,nan,nan,nan,nan,nan,nan,nan
56644000,6,1508.13,1498.76,1504.55,1499.17,1500.0,1500.0,nan,nan,nan,nan,nan,nan,nan,nan,nan,nan
56744000,6,1495.23,1496.05,1497.33,1494.21,1500.0,1500.0,nan,nan,nan,nan,nan,nan,nan,nan,nan,nan
56840000,6,1488.09,1492.55,1490.52,1485.77,1500.0,1500.0,nan,nan,nan,nan,nan,nan,nan,nan,nan,nan
56940000,6,1487.81,1490.44,1487.51,1493.77,1500.0,1500.0,nan,nan,nan,nan,nan,nan,nan,nan,nan,nan
57036000,6,1504.3,1505.23,1504.03,1504.44,1500.0,1500.0,nan,nan,nan,nan,nan,nan,nan,nan,nan,nan
57132000,6,1494.58,1503.92,1492.32,1492.94,1500.0,1500.0,nan,nan,nan,nan,nan,nan,nan,nan,nan,nan
57228000,6,1492.8,1485.34,1495.39,1489.71,1500.0,1500.0,nan,nan,nan,nan,nan,nan,nan,nan,nan,nan
57324000,6,1507.35,1497.84,1508.12,1503.86,1500.0,1500.0,nan,nan,nan,nan,nan,nan,nan,nan,nan,nan
57420000,6,1494.08,1497.4,1489.27,1503.36,1500.0,1500.0,nan,nan,nan,nan,nan,nan,nan,nan,nan,nan
57520000,6,1501.35,1491.23,1498.64,1496.12,1500.0,1500.0,nan,nan,nan,nan,nan,nan,nan,nan,nan,nan
57616000,6,1489.75,1489.72,1492.96,1488.76,1500.0,1500.0,nan,nan,nan,nan,nan,nan,nan,nan,nan,nan
57712000,6,1501.12,1510.34,1498.55,1506.22,1500.0,1500.0,nan,nan,nan,nan,nan,nan,nan,nan,nan,nan
57808000,6,1493.42,1499.53,1495.95,1497.64,1500.0,1500.0,nan,nan,nan,nan,nan,nan,nan,nan,nan,nan
57908000,6,1486.85,1491.2,1489.68,1490.24,1500.0,1500.0,nan,nan,nan,nan,nan,nan,nan,nan,nan,nan
58004000,6,1493.62,1482.96,1494.18,1487.61,1500.0,1500.0,nan,nan,nan,nan,nan,nan,nan,nan,nan,nan
58100000,6,1505.74,1502.2,1505.15,1498.86,1500.0,1500.0,nan,nan,nan,nan,nan,nan,nan,nan,nan,nan
58196000,6,1500.66,1493.27,1496.69,1496.56,1500.0,1500.0,nan,nan,nan,nan,nan,nan,nan,nan,nan,nan
58292000,6,1492.84,1490.6,1490.91,1491.81,1500.0,1500.0,nan,nan,nan,nan,nan,nan,nan,nan,nan,nan
58392000,6,1503.91,1507.9,1500.58,1506.5,1500.0,1500.0,nan,nan,nan,nan,nan,nan,nan,nan,nan,nan
58488000,6,1493.28,1501.49,1499.63,1496.82,1500.0,1500.0,nan,nan,nan,nan,nan,nan,nan,nan,nan,nan
58584000,6,1494.72,1498.14,1501.34,1497.96,1500.0,1500.0,nan,nan,nan,nan,nan,nan,nan,nan,nan,nan
58680000,6,1496.69,1486.68,1497.22,1484.35,1500.0,1500.0,nan,nan,nan,nan,nan,nan,nan,nan,nan,nan
58780000,6,1507.43,1498.31,1505.05,1503.01,1500.0,1500.0,nan,nan,nan,nan,nan,nan,nan,nan,nan,nan
58876000,6,1494.84,1497.03,1498.67,1492.49,1500.0,1500.0,nan,nan,nan,nan,nan,nan,nan,nan,nan,nan
58972000,6,1489.78,1497.69,1497.44,1494.74,1500.0,1500.0,nan,nan,nan,nan,nan,nan,nan,nan,nan,nan
59068000,6,1483.81,1496.59,1487.83,1492.85,1500.0,1500.0,nan,nan,nan,nan,nan,nan,nan,nan,nan,nan
59164000,6,1504.3,1503.34,1507.14,1499.92,1500.0,1500.0,nan,nan,nan,nan,nan,nan,nan,nan,nan,nan
59260000,6,1494.83,1497.29,1492.94,1497.54,1500.0,1500.0,nan,nan,nan,nan,nan,nan,nan,nan,nan,nan
59356000,6,1490.93,1491.01,1493.38,1486.52,1500.0,1500.0,nan,nan,nan,nan,nan,nan,nan,nan,nan,nan
59452000,6,1497.13,1509.77,1497.91,1505.15,1500.0,1500.0,nan,nan,nan,nan,nan,nan,nan,nan,nan,nan
59548000,6,1491.8,1498.06,1494.28,1494.72,1500.0,1500.0,nan,nan,nan,nan,nan,nan,nan,nan,nan,nan
59644000,6,1488.27,1492.23,1486.45,1488.54,1500.0,1500.0,nan,nan,nan,nan,nan,nan,nan,nan,nan,nan
59740000,6,1488.85,1491.34,1482.56,1488.66,1500.0,1500.0,nan,nan,nan,nan,nan,nan,nan,nan,nan,nan
59836000,6,1499.88,1508.83,1507.31,1500.35,1500.0,1500.0,nan,nan,nan,nan,nan,nan,nan,nan,nan,nan
59936000,6,1496.32,1495.67,1493.7,1498.11,1500.0,1500.0,nan,nan,nan,nan,nan,nan,nan,nan,nan,nan
60036000,6,1490.15,1499.99,1497.91,1492.82,1500.0,1500.0,nan,nan,nan,nan,nan,nan,nan,nan,nan,nan
60132000,6,1486.43,1490.56,1492.3,1488.33,1500.0,1500.0,nan,nan,nan,nan,nan,nan,nan,nan,nan,nan
60228000,6,1491.06,1489.68,1486.6,1492.48,1500.0,1500.0,nan,nan,nan,nan,nan,nan,nan,nan,nan,nan
60324000,6,1454.19,1461.32,1454.65,1462.4,1500.0,1500.0,nan,nan,nan,nan,nan,nan,nan,nan,nan,nan
60420000,6,1444.34,1450.06,1444.71,1441.67,1500.0,1500.0,nan,nan,nan,nan,nan,nan,nan,nan,nan,nan
60516000,6,1449.78,1458.14,1448.06,1457.25,1500.0,1500.0,nan,nan,nan,nan,nan,nan,nan,nan,nan,nan
60612000,6,1450.18,1445.75,1450.29,1445.23,1500.0,1500.0,nan,nan,nan,nan,nan,nan,nan,nan,nan,nan
60708000,6,1448.08,1441.09,1444.91,1451.7,1500.0,1500.0,nan,nan,nan,nan,nan,nan,nan,nan,nan,nan
60804000,6,1446.52,1448.05,1445.73,1451.56,1500.0,1500.0,nan,nan,nan,nan,nan,nan,nan,nan,nan,nan
60900000,6,1454.09,1460.57,1449.99,1456.59,1500.0,1500.0,nan,nan,nan,nan,nan,nan,nan,nan,nan,nan
60996000,6,1452.31,1452.15,1451.52,1456.45,1500.0,1500.0,nan,nan,nan,nan,nan,nan,nan,nan,nan,nan
61092000,6,1451.0,1453.28,1442.71,1456.25,1500.0,1500.0,nan,nan,nan,nan,nan,nan,nan,nan,nan,nan
61192000,6,1453.56,1458.46,1452.92,1465.51,1500.0,1500.0,nan,nan,nan,nan,nan,nan,nan,nan,nan,nan
61292000,6,1460.9,1456.46,1453.46,1460.29,1500.0,1500.0,nan,nan,nan,nan,nan,nan,nan,nan,nan,nan
61392000,6,1453.33,1457.47,1456.74,1459.79,1500.0,1500.0,nan,nan,nan,nan,nan,nan,nan,nan,nan,nan
61488000,6,1448.06,1462.62,1455.33,1457.68,1500.0,1500.0,nan,nan,nan,nan,nan,nan,nan,nan,nan,nan
61584000,6,1465.59,1458.96,1466.34,1460.18,1500.0,1500.0,nan,nan,nan,nan,nan,nan,nan,nan,nan,nan
61684000,6,1460.91,1464.52,1462.07,1466.46,1500.0,1500.0,nan,nan,nan,nan,nan,nan,nan,nan,nan,nan
61780000,6,1462.41,1461.18,1466.27,1462.08,1500.0,1500.0,nan,nan,nan,nan,nan,nan,nan,nan,nan,nan
61876000,6,1460.7,1463.11,1466.54,1459.47,1500.0,1500.0,nan,nan,nan,nan,nan,nan,nan,nan,nan,nan
61972000,6,1470.87,1468.04,1464.21,1466.74,1500.0,1500.0,nan,nan,nan,nan,nan,nan,nan,nan,nan,nan
62068000,6,1467.97,1466.97,1463.34,1470.08,1500.0,1500.0,nan,nan,nan,nan,nan,nan,nan,nan,nan,nan
62164000,6,1468.29,1462.78,1463.88,1468.52,1500.0,1500.0,nan,nan,nan,nan,nan,nan,nan,nan,nan,nan
62260000,6,1468.84,1464.94,1469.23,1461.18,1500.0,1500.0,nan,nan,nan,nan,nan,nan,nan,nan,nan,nan
62356000,6,1464.06,1475.94,1467.38,1472.72,1500.0,1500.0,nan,nan,nan,nan,nan,nan,nan,nan,nan,nan
62452000,6,1466.47,1472.26,1470.05,1469.71,1500.0,1500.0,nan,nan,nan,nan,nan,nan,nan,nan,nan,nan
62548000,6,1462.5,1472.03,1466.03,1470.49,1500.0,1500.0,nan,nan,nan,nan,nan,nan,nan,nan,nan,nan
62644000,6,1476.62,1472.75,1476.69,1468.34,1500.0,1500.0,nan,nan,nan,nan,nan,nan,nan,nan,nan,nan
62740000,6,1471.34,1471.63,1473.91,1471.99,1500.0,1500.0,nan,nan,nan,nan,nan,nan,nan,nan,nan,nan
62840000,6,1471.56,1470.42,1469.41,1471.92,1500.0,1500.0,nan,nan,nan,nan,nan,nan,nan,nan,nan,nan
62936000,6,1462.05,1478.42,1469.97,1472.85,1500.0,1500.0,nan,nan,nan,nan,nan,nan,nan,nan,nan,nan
63032000,6,1466.41,1479.49,1476.0,1479.1,1500.0,1500.0,nan,nan,nan,nan,nan,nan,nan,nan,nan,nan
63128000,6,1483.15,1466.23,1481.43,1468.39,1500.0,1500.0,nan,nan,nan,nan,nan,nan,nan,nan,nan,nan
63228000,6,1476.19,1473.46,1472.45,1473.31,1500.0,1500.0,nan,nan,nan,nan,nan,nan,nan,nan,nan,nan
63324000,6,1471.72,1479.17,1467.11,1484.16,1500.0,1500.0,nan,nan,nan,nan,nan,nan,nan,nan,nan,nan
63420000,6,1476.11,1477.9,1478.13,1478.31,1500.0,1500.0,nan,nan,nan,nan,nan,nan,nan,nan,nan,nan
63516000,6,1477.25,1470.19,1481.48,1473.9,1500.0,1500.0,nan,nan,nan,nan,nan,nan,nan,nan,nan,nan
63616000,6,1477.48,1470.87,1481.65,1464.72,1500.0,1500.0,nan,nan,nan,nan,nan,nan,nan,nan,nan,nan
