timestamp,magnetometer_ga[0],magnetometer_ga[1],magnetometer_ga[2]
124000,0.897,0.023,1.784
132000,0.9,0.033,1.795
136000,0.899,0.038,1.786
140000,0.897,0.03,1.791
144000,0.896,0.035,1.782
148000,0.892,0.042,1.783
152000,0.888,0.031,1.795
160000,0.899,0.035,1.785
164000,0.894,0.032,1.793
168000,0.895,0.033,1.778
172000,0.903,0.032,1.79
176000,0.897,0.028,1.787
184000,0.902,0.035,1.79
188000,0.909,0.036,1.791
196000,0.891,0.034,1.789
200000,0.9,0.03,1.782
208000,0.896,0.032,1.782
212000,0.893,0.034,1.786
216000,0.892,0.034,1.787
220000,0.901,0.031,1.792
224000,0.894,0.028,1.786
228000,0.903,0.037,1.786
232000,0.898,0.028,1.788
236000,0.894,0.034,1.786
244000,0.898,0.029,1.79
252000,0.906,0.036,1.785
260000,0.902,0.03,1.794
264000,0.9,0.035,1.784
272000,0.909,0.035,1.787
276000,0.894,0.033,1.792
280000,0.9,0.037,1.786
284000,0.897,0.035,1.783
288000,0.895,0.042,1.791
292000,0.892,0.04,1.79
296000,0.897,0.04,1.78
304000,0.899,0.033,1.787
308000,0.898,0.028,1.789
312000,0.9,0.048,1.78
316000,0.891,0.032,1.772
320000,0.9,0.024,1.789
324000,0.901,0.023,1.783
328000,0.901,0.032,1.774
332000,0.896,0.036,1.782
336000,0.886,0.031,1.787
340000,0.897,0.031,1.788
344000,0.896,0.032,1.786
352000,0.899,0.037,1.783
356000,0.893,0.042,1.783
360000,0.898,0.039,1.786
364000,0.895,0.031,1.785
368000,0.905,0.033,1.794
372000,0.894,0.039,1.795
376000,0.899,0.028,1.78
380000,0.891,0.04,1.784
384000,0.891,0.035,1.791
392000,0.898,0.043,1.776
396000,0.9,0.028,1.783
400000,0.904,0.032,1.788
404000,0.89,0.049,1.789
408000,0.899,0.031,1.787
412000,0.899,0.038,1.789
416000,0.904,0.032,1.791
420000,0.897,0.032,1.783
424000,0.909,0.04,1.787
428000,0.9,0.027,1.785
436000,0.893,0.038,1.788
444000,0.906,0.033,1.791
452000,0.895,0.027,1.783
456000,0.899,0.04,1.785
460000,0.887,0.035,1.789
464000,0.902,0.036,1.787
472000,0.901,0.034,1.783
480000,0.901,0.036,1.783
484000,0.892,0.027,1.797
488000,0.901,0.034,1.784
492000,0.894,0.039,1.784
500000,0.901,0.026,1.786
504000,0.898,0.03,1.787
508000,0.891,0.03,1.794
516000,0.9,0.033,1.787
520000,0.902,0.037,1.784
524000,0.905,0.033,1.787
528000,0.903,0.034,1.787
532000,0.892,0.038,1.789
536000,0.896,0.036,1.782
544000,0.893,0.034,1.8
548000,0.904,0.029,1.781
556000,0.906,0.04,1.79
560000,0.907,0.036,1.786
568000,0.898,0.034,1.786
572000,0.897,0.037,1.794
576000,0.889,0.031,1.79
580000,0.896,0.041,1.789
584000,0.903,0.029,1.787
588000,0.893,0.024,1.775
592000,0.901,0.031,1.785
600000,0.895,0.037,1.786
608000,0.895,0.034,1.796
612000,0.906,0.032,1.788
620000,0.9,0.027,1.779
628000,0.9,0.027,1.792
632000,0.895,0.04,1.79
636000,0.88,0.042,1.783
640000,0.902,0.041,1.787
644000,0.89,0.041,1.781
648000,0.908,0.027,1.787
652000,0.903,0.035,1.781
660000,0.902,0.026,1.796
664000,0.896,0.03,1.792
668000,0.901,0.035,1.783
672000,0.89,0.027,1.78
676000,0.892,0.023,1.783
680000,0.893,0.04,1.785
684000,0.894,0.04,1.788
688000,0.898,0.032,1.79
692000,0.897,0.03,1.778
696000,0.897,0.027,1.785
700000,0.907,0.026,1.79
708000,0.898,0.029,1.787
712000,0.904,0.034,1.793
720000,0.886,0.032,1.784
724000,0.898,0.034,1.785
728000,0.882,0.035,1.784
732000,0.891,0.037,1.779
736000,0.898,0.037,1.78
740000,0.894,0.044,1.787
744000,0.901,0.036,1.788
748000,0.887,0.035,1.797
756000,0.89,0.03,1.786
760000,0.897,0.026,1.784
768000,0.895,0.037,1.789
772000,0.895,0.027,1.787
776000,0.9,0.033,1.791
780000,0.894,0.036,1.787
784000,0.894,0.034,1.782
792000,0.896,0.037,1.792
796000,0.889,0.031,1.786
800000,0.892,0.041,1.786
804000,0.912,0.026,1.778
808000,0.895,0.032,1.787
812000,0.897,0.034,1.786
816000,0.889,0.038,1.785
824000,0.895,0.036,1.784
828000,0.894,0.034,1.786
836000,0.895,0.033,1.78
840000,0.89,0.024,1.785
844000,0.894,0.03,1.786
848000,0.903,0.032,1.792
852000,0.895,0.027,1.777
856000,0.903,0.033,1.79
864000,0.899,0.034,1.784
868000,0.9,0.029,1.788
872000,0.896,0.034,1.792
876000,0.902,0.037,1.785
880000,0.898,0.036,1.801
884000,0.901,0.03,1.789
888000,0.893,0.032,1.784
896000,0.903,0.036,1.79
900000,0.896,0.041,1.79
904000,0.898,0.038,1.785
908000,0.898,0.031,1.789
912000,0.904,0.028,1.787
920000,0.906,0.041,1.789
924000,0.893,0.032,1.798
932000,0.894,0.031,1.787
936000,0.904,0.04,1.786
940000,0.89,0.025,1.785
944000,0.896,0.035,1.781
948000,0.888,0.036,1.784
952000,0.894,0.029,1.789
956000,0.897,0.025,1.791
960000,0.895,0.037,1.787
964000,0.899,0.036,1.78
968000,0.894,0.024,1.783
972000,0.896,0.041,1.783
976000,0.9,0.032,1.782
980000,0.892,0.034,1.785
984000,0.895,0.024,1.796
988000,0.895,0.033,1.785
992000,0.896,0.033,1.787
996000,0.896,0.032,1.785
1000000,0.901,0.031,1.791
1008000,0.904,0.036,1.791
1012000,0.895,0.023,1.784
1020000,0.891,0.035,1.784
1024000,0.9,0.041,1.783
1028000,0.887,0.036,1.792
1036000,0.901,0.036,1.786
1044000,0.901,0.032,1.783
1048000,0.893,0.033,1.784
1052000,0.887,0.03,1.782
1060000,0.9,0.035,1.798
1064000,0.888,0.035,1.787
1072000,0.9,0.031,1.787
1076000,0.896,0.033,1.791
1084000,0.896,0.043,1.782
1088000,0.893,0.031,1.792
1092000,0.891,0.028,1.784
1100000,0.898,0.035,1.786
1104000,0.893,0.034,1.786
1108000,0.911,0.037,1.78
1112000,0.894,0.036,1.787
1116000,0.9,0.036,1.783
1120000,0.897,0.033,1.786
1124000,0.891,0.025,1.782
1128000,0.898,0.027,1.795
1136000,0.895,0.031,1.79
1140000,0.891,0.037,1.793
1144000,0.9,0.032,1.794
1148000,0.896,0.044,1.788
1152000,0.891,0.034,1.796
1156000,0.891,0.032,1.788
1160000,0.905,0.032,1.782
1168000,0.896,0.033,1.789
1172000,0.899,0.027,1.789
1176000,0.893,0.037,1.779
1180000,0.895,0.034,1.785
1188000,0.895,0.026,1.785
1192000,0.902,0.038,1.777
1196000,0.899,0.038,1.792
1204000,0.891,0.037,1.787
1208000,0.884,0.026,1.792
1216000,0.898,0.035,1.791
1220000,0.899,0.041,1.782
1224000,0.899,0.034,1.785
1228000,0.904,0.038,1.782
1232000,0.906,0.033,1.797
1236000,0.894,0.029,1.793
1240000,0.895,0.033,1.782
1248000,0.892,0.039,1.78
1252000,0.897,0.037,1.789
1256000,0.899,0.039,1.789
1260000,0.9,0.035,1.789
1264000,0.898,0.03,1.789
1272000,0.9,0.031,1.787
1280000,0.894,0.038,1.787
1284000,0.893,0.038,1.79
1288000,0.896,0.035,1.789
1292000,0.887,0.041,1.788
1300000,0.901,0.038,1.795
1304000,0.89,0.04,1.783
1308000,0.896,0.034,1.793
1312000,0.904,0.044,1.792
1316000,0.891,0.031,1.785
1320000,0.889,0.024,1.783
1328000,0.899,0.026,1.784
1332000,0.898,0.025,1.787
1336000,0.911,0.036,1.779
1340000,0.895,0.036,1.782
1344000,0.891,0.036,1.787
1352000,0.899,0.029,1.788
1360000,0.895,0.032,1.779
1364000,0.898,0.024,1.778
1368000,0.898,0.042,1.791
1372000,0.898,0.037,1.779
1380000,0.895,0.029,1.789
1384000,0.902,0.038,1.783
1388000,0.897,0.035,1.789
1392000,0.89,0.034,1.79
1400000,0.899,0.034,1.786
1404000,0.896,0.028,1.798
1412000,0.904,0.042,1.787
1416000,0.895,0.039,1.789
1420000,0.907,0.03,1.786
1424000,0.902,0.038,1.77
1428000,0.899,0.035,1.795
1436000,0.9,0.043,1.786
1440000,0.891,0.028,1.793
1444000,0.899,0.029,1.782
1452000,0.891,0.028,1.787
1460000,0.898,0.036,1.791
1464000,0.896,0.038,1.791
1472000,0.906,0.039,1.779
1476000,0.892,0.03,1.789
1480000,0.898,0.022,1.791
1484000,0.899,0.041,1.784
1488000,0.902,0.03,1.783
1492000,0.887,0.034,1.793
1496000,0.89,0.031,1.781
1500000,0.892,0.035,1.781
1504000,0.898,0.04,1.791
1512000,0.89,0.033,1.783
1520000,0.889,0.023,1.785
1528000,0.902,0.032,1.781
1532000,0.899,0.034,1.787
1540000,0.903,0.03,1.784
1544000,0.901,0.03,1.779
1548000,0.9,0.033,1.785
1552000,0.903,0.025,1.79
1556000,0.897,0.032,1.782
1564000,0.898,0.024,1.782
1568000,0.898,0.036,1.79
1572000,0.897,0.027,1.784
1576000,0.897,0.036,1.783
1580000,0.896,0.032,1.785
1588000,0.889,0.037,1.78
1592000,0.904,0.024,1.79
1596000,0.897,0.039,1.789
1600000,0.891,0.034,1.786
1608000,0.9,0.04,1.794
1612000,0.896,0.024,1.784
1620000,0.899,0.025,1.782
1624000,0.895,0.037,1.787
1628000,0.901,0.032,1.782
1632000,0.899,0.033,1.791
1636000,0.894,0.033,1.785
1644000,0.897,0.032,1.786
1648000,0.897,0.032,1.793
1652000,0.9,0.032,1.791
1656000,0.902,0.038,1.793
1660000,0.894,0.037,1.789
1664000,0.901,0.027,1.785
1668000,0.894,0.038,1.777
1676000,0.895,0.033,1.778
1680000,0.898,0.035,1.778
1684000,0.897,0.031,1.783
1692000,0.9,0.036,1.787
1696000,0.899,0.036,1.788
1704000,0.897,0.037,1.779
1708000,0.9,0.035,1.778
1712000,0.894,0.034,1.787
1716000,0.903,0.023,1.787
1720000,0.893,0.035,1.785
1728000,0.888,0.037,1.786
1736000,0.889,0.037,1.79
1744000,0.895,0.036,1.785
1748000,0.896,0.031,1.785
1752000,0.891,0.038,1.781
1756000,0.898,0.036,1.785
1760000,0.894,0.037,1.777
1764000,0.896,0.034,1.794
1768000,0.887,0.038,1.798
1776000,0.891,0.043,1.787
1780000,0.9,0.032,1.788
1792000,0.899,0.026,1.784
1800000,0.9,0.032,1.791
1808000,0.892,0.028,1.784
1816000,0.897,0.025,1.79
1820000,0.899,0.034,1.786
1828000,0.892,0.027,1.783
1832000,0.889,0.03,1.78
1836000,0.901,0.038,1.784
1840000,0.896,0.031,1.794
1844000,0.902,0.038,1.804
1852000,0.898,0.04,1.783
1856000,0.897,0.032,1.791
1864000,0.902,0.033,1.792
1868000,0.901,0.036,1.791
1872000,0.888,0.025,1.79
1876000,0.89,0.035,1.781
1884000,0.895,0.031,1.784
1892000,0.907,0.031,1.783
1896000,0.891,0.036,1.788
1900000,0.894,0.034,1.782
1904000,0.899,0.041,1.795
1908000,0.9,0.028,1.78
1916000,0.902,0.029,1.782
1920000,0.891,0.033,1.789
1924000,0.896,0.033,1.774
1932000,0.903,0.041,1.786
1936000,0.893,0.038,1.783
1940000,0.896,0.027,1.782
1948000,0.898,0.032,1.777
1952000,0.894,0.031,1.793
1956000,0.894,0.022,1.797
1960000,0.898,0.034,1.775
1972000,0.905,0.025,1.785
1976000,0.895,0.03,1.784
1984000,0.894,0.034,1.794
1992000,0.89,0.039,1.779
2000000,0.889,0.027,1.794
2008000,0.893,0.03,1.793
2016000,0.899,0.032,1.783
2020000,0.892,0.03,1.784
2024000,0.895,0.035,1.788
2028000,0.897,0.031,1.789
2032000,0.903,0.018,1.782
2036000,0.898,0.036,1.783
2040000,0.903,0.031,1.787
2044000,0.897,0.036,1.787
2048000,0.902,0.033,1.786
2052000,0.904,0.032,1.795
2056000,0.901,0.027,1.776
2060000,0.898,0.034,1.79
2068000,0.896,0.046,1.792
2080000,0.896,0.033,1.789
2084000,0.897,0.036,1.779
2088000,0.897,0.038,1.789
2092000,0.902,0.028,1.791
2096000,0.901,0.025,1.785
2100000,0.903,0.033,1.787
2104000,0.893,0.021,1.791
2108000,0.892,0.029,1.79
2112000,0.89,0.038,1.787
2116000,0.887,0.03,1.794
2124000,0.896,0.036,1.789
2128000,0.899,0.038,1.782
2132000,0.895,0.045,1.784
2136000,0.899,0.028,1.792
2140000,0.894,0.029,1.783
2144000,0.9,0.033,1.788
2148000,0.887,0.039,1.79
2152000,0.889,0.03,1.782
2156000,0.895,0.036,1.786
2164000,0.898,0.036,1.784
2168000,0.893,0.035,1.779
2176000,0.897,0.031,1.787
2180000,0.902,0.032,1.784
2184000,0.897,0.029,1.788
2188000,0.896,0.046,1.779
2196000,0.892,0.034,1.794
2200000,0.893,0.033,1.787
2204000,0.896,0.041,1.787
2212000,0.891,0.033,1.792
2216000,0.897,0.036,1.789
2220000,0.897,0.037,1.783
2228000,0.895,0.034,1.774
2232000,0.895,0.027,1.789
2236000,0.896,0.04,1.783
2240000,0.888,0.03,1.79
2248000,0.896,0.029,1.791
2252000,0.893,0.04,1.794
2256000,0.907,0.043,1.782
2264000,0.893,0.024,1.778
2272000,0.896,0.04,1.787
2276000,0.895,0.034,1.791
2280000,0.897,0.026,1.786
2288000,0.892,0.034,1.785
2296000,0.893,0.032,1.788
2304000,0.901,0.045,1.784
2308000,0.899,0.023,1.777
2312000,0.896,0.029,1.787
2320000,0.899,0.031,1.793
2324000,0.903,0.028,1.787
2328000,0.9,0.029,1.782
2336000,0.892,0.028,1.78
2344000,0.891,0.034,1.788
2348000,0.898,0.028,1.795
2352000,0.896,0.023,1.794
2356000,0.897,0.027,1.779
2360000,0.89,0.032,1.788
2368000,0.894,0.023,1.798
2376000,0.901,0.035,1.779
2380000,0.911,0.037,1.79
2384000,0.9,0.036,1.787
2388000,0.904,0.039,1.79
2396000,0.906,0.027,1.792
2404000,0.892,0.033,1.772
2408000,0.89,0.026,1.781
2412000,0.905,0.03,1.793
2420000,0.887,0.039,1.789
2424000,0.903,0.024,1.79
2428000,0.896,0.026,1.782
2436000,0.896,0.036,1.79
2440000,0.898,0.029,1.782
2448000,0.897,0.036,1.789
2452000,0.889,0.028,1.784
2460000,0.894,0.039,1.786
2464000,0.891,0.035,1.782
2468000,0.903,0.033,1.783
2472000,0.905,0.027,1.785
2476000,0.889,0.032,1.788
2480000,0.902,0.041,1.788
2488000,0.901,0.037,1.787
2492000,0.896,0.042,1.782
2496000,0.894,0.046,1.787
2504000,0.897,0.033,1.794
2508000,0.899,0.026,1.786
2512000,0.895,0.033,1.785
2516000,0.901,0.039,1.792
2520000,0.894,0.026,1.782
2524000,0.897,0.028,1.784
2532000,0.891,0.03,1.784
2536000,0.898,0.038,1.782
2544000,0.888,0.033,1.784
2548000,0.894,0.028,1.778
2552000,0.897,0.029,1.789
2560000,0.906,0.037,1.79
2568000,0.897,0.033,1.795
2576000,0.894,0.034,1.786
2580000,0.902,0.027,1.784
2584000,0.895,0.033,1.779
2588000,0.906,0.029,1.787
2596000,0.898,0.04,1.783
2600000,0.896,0.029,1.786
2608000,0.896,0.023,1.786
2612000,0.895,0.031,1.791
2616000,0.898,0.025,1.793
2620000,0.894,0.028,1.788
2628000,0.893,0.028,1.786
2632000,0.896,0.03,1.787
2636000,0.899,0.034,1.793
2640000,0.892,0.035,1.781
2644000,0.891,0.034,1.78
2648000,0.897,0.035,1.783
2652000,0.895,0.035,1.791
2656000,0.894,0.041,1.781
2660000,0.904,0.025,1.783
2664000,0.895,0.026,1.784
2668000,0.905,0.035,1.789
2676000,0.893,0.026,1.787
2680000,0.888,0.03,1.787
2684000,0.902,0.031,1.78
2692000,0.897,0.041,1.794
2696000,0.9,0.024,1.798
2700000,0.896,0.036,1.781
2704000,0.898,0.034,1.788
2708000,0.897,0.031,1.786
2712000,0.888,0.033,1.79
2716000,0.894,0.032,1.797
2720000,0.898,0.033,1.787
2724000,0.899,0.041,1.784
2732000,0.902,0.037,1.789
2740000,0.894,0.036,1.788
2748000,0.893,0.036,1.777
2752000,0.892,0.03,1.781
2760000,0.895,0.034,1.783
2764000,0.897,0.027,1.784
2768000,0.891,0.035,1.785
2780000,0.891,0.028,1.793
2788000,0.897,0.032,1.793
2796000,0.911,0.034,1.79
2800000,0.901,0.034,1.782
2808000,0.889,0.036,1.787
2812000,0.895,0.035,1.79
2816000,0.892,0.045,1.788
2820000,0.894,0.042,1.791
2828000,0.897,0.031,1.805
2836000,0.892,0.03,1.784
2840000,0.884,0.03,1.781
2848000,0.896,0.025,1.793
2852000,0.902,0.031,1.786
2860000,0.898,0.034,1.784
2864000,0.902,0.043,1.791
2872000,0.896,0.029,1.789
2876000,0.902,0.031,1.788
2880000,0.902,0.035,1.788
2884000,0.898,0.041,1.79
2892000,0.908,0.042,1.788
2896000,0.886,0.038,1.783
2900000,0.899,0.033,1.788
2912000,0.903,0.028,1.775
2916000,0.899,0.04,1.785
2920000,0.903,0.032,1.789
2924000,0.902,0.035,1.785
2932000,0.894,0.037,1.785
2936000,0.893,0.029,1.779
2940000,0.891,0.033,1.777
2944000,0.897,0.03,1.787
2948000,0.896,0.037,1.786
2952000,0.891,0.036,1.776
2956000,0.897,0.029,1.787
2964000,0.9,0.028,1.782
2968000,0.886,0.04,1.793
2972000,0.895,0.034,1.789
2976000,0.886,0.032,1.778
2980000,0.891,0.035,1.791
2988000,0.904,0.03,1.788
2996000,0.893,0.036,1.787
3000000,0.894,0.036,1.776
3004000,0.895,0.03,1.782
3012000,0.903,0.036,1.785
3016000,0.894,0.032,1.788
3020000,0.893,0.032,1.791
3024000,0.897,0.027,1.787
3028000,0.894,0.029,1.786
3032000,0.899,0.041,1.786
3036000,0.895,0.04,1.789
3040000,0.909,0.033,1.79
3044000,0.901,0.031,1.788
3052000,0.899,0.027,1.788
3056000,0.901,0.031,1.79
3060000,0.882,0.036,1.782
3064000,0.9,0.027,1.779
3068000,0.901,0.03,1.781
3072000,0.891,0.031,1.784
3080000,0.887,0.026,1.784
3088000,0.901,0.04,1.793
3096000,0.89,0.032,1.781
3100000,0.895,0.031,1.795
3108000,0.899,0.031,1.783
3112000,0.9,0.035,1.794
3116000,0.895,0.022,1.801
3124000,0.894,0.038,1.791
3128000,0.903,0.033,1.788
3132000,0.902,0.027,1.792
3136000,0.905,0.037,1.789
3140000,0.897,0.037,1.792
3148000,0.901,0.03,1.791
3152000,0.904,0.034,1.786
3160000,0.881,0.032,1.791
3164000,0.907,0.024,1.794
3172000,0.901,0.022,1.789
3180000,0.893,0.02,1.784
3184000,0.898,0.036,1.782
3188000,0.896,0.045,1.794
3192000,0.898,0.042,1.782
3200000,0.891,0.036,1.79
3208000,0.901,0.035,1.79
3216000,0.888,0.035,1.796
3220000,0.905,0.043,1.78
3228000,0.896,0.032,1.79
3236000,0.901,0.037,1.788
3240000,0.906,0.038,1.782
3244000,0.899,0.029,1.781
3248000,0.894,0.031,1.786
3252000,0.906,0.03,1.783
3256000,0.894,0.038,1.787
3260000,0.89,0.038,1.79
3264000,0.892,0.037,1.795
3272000,0.89,0.036,1.776
3276000,0.889,0.039,1.779
3284000,0.893,0.034,1.791
3288000,0.898,0.037,1.783
3296000,0.891,0.039,1.792
3304000,0.892,0.036,1.793
3312000,0.903,0.033,1.783
3316000,0.9,0.034,1.783
3320000,0.896,0.023,1.786
3328000,0.905,0.03,1.789
3332000,0.901,0.036,1.789
3336000,0.898,0.034,1.791
3340000,0.898,0.044,1.784
3344000,0.901,0.038,1.788
3348000,0.899,0.024,1.783
3356000,0.9,0.032,1.779
3360000,0.894,0.046,1.786
3368000,0.9,0.028,1.786
3372000,0.898,0.037,1.791
3380000,0.908,0.031,1.793
3384000,0.894,0.035,1.789
3388000,0.903,0.034,1.788
3396000,0.893,0.032,1.787
3400000,0.896,0.031,1.774
3404000,0.895,0.031,1.777
3412000,0.896,0.037,1.78
3416000,0.903,0.045,1.792
3424000,0.893,0.033,1.791
3428000,0.9,0.041,1.786
3432000,0.902,0.041,1.78
3436000,0.896,0.028,1.789
3440000,0.891,0.031,1.788
3448000,0.899,0.035,1.786
3452000,0.893,0.028,1.792
3456000,0.903,0.035,1.783
3460000,0.894,0.035,1.792
3468000,0.9,0.037,1.783
3472000,0.901,0.029,1.788
3476000,0.898,0.034,1.786
3480000,0.9,0.038,1.79
3484000,0.891,0.036,1.79
3488000,0.897,0.04,1.787
3496000,0.903,0.031,1.781
3504000,0.893,0.031,1.779
3512000,0.907,0.031,1.788
3516000,0.907,0.034,1.79
3520000,0.889,0.035,1.795
3524000,0.895,0.022,1.785
3528000,0.893,0.043,1.786
3532000,0.894,0.033,1.794
3540000,0.895,0.037,1.784
3544000,0.894,0.031,1.789
3548000,0.894,0.039,1.786
3552000,0.891,0.03,1.789
3560000,0.9,0.035,1.788
3564000,0.901,0.038,1.789
3568000,0.894,0.034,1.782
3572000,0.892,0.035,1.779
3576000,0.898,0.039,1.782
3584000,0.895,0.035,1.789
3592000,0.889,0.039,1.792
3596000,0.902,0.038,1.786
3600000,0.901,0.031,1.787
3604000,0.892,0.037,1.786
3608000,0.886,0.025,1.781
3612000,0.902,0.027,1.794
3616000,0.904,0.04,1.783
3628000,0.898,0.019,1.78
3632000,0.899,0.037,1.79
3640000,0.897,0.038,1.779
3648000,0.893,0.037,1.779
3652000,0.888,0.029,1.782
3656000,0.892,0.033,1.792
3660000,0.902,0.044,1.793
3668000,0.897,0.039,1.784
3672000,0.898,0.037,1.786
3676000,0.904,0.033,1.787
3680000,0.898,0.03,1.779
3684000,0.896,0.027,1.797
3692000,0.898,0.036,1.782
3696000,0.904,0.03,1.778
3700000,0.9,0.023,1.786
3704000,0.896,0.039,1.788
3712000,0.892,0.04,1.777
3720000,0.891,0.023,1.778
3724000,0.899,0.038,1.786
3728000,0.894,0.034,1.791
3732000,0.889,0.035,1.784
3736000,0.899,0.039,1.786
3744000,0.899,0.035,1.793
3752000,0.903,0.034,1.791
3760000,0.896,0.031,1.789
3764000,0.902,0.032,1.792
3772000,0.892,0.033,1.796
3776000,0.89,0.031,1.783
3780000,0.896,0.039,1.785
3784000,0.899,0.032,1.788
3788000,0.89,0.035,1.783
3792000,0.906,0.035,1.788
3796000,0.897,0.04,1.793
3800000,0.892,0.028,1.795
3808000,0.894,0.029,1.784
3812000,0.89,0.029,1.784
3816000,0.894,0.034,1.789
3824000,0.9,0.038,1.787
3828000,0.906,0.035,1.785
3836000,0.899,0.031,1.789
3840000,0.899,0.029,1.795
3848000,0.893,0.037,1.79
3852000,0.889,0.023,1.783
3860000,0.902,0.029,1.777
3864000,0.904,0.028,1.791
3868000,0.894,0.027,1.788
3872000,0.891,0.031,1.785
3880000,0.896,0.026,1.784
3884000,0.902,0.03,1.789
3892000,0.893,0.028,1.784
3900000,0.897,0.037,1.789
3908000,0.892,0.025,1.792
3912000,0.907,0.04,1.791
3916000,0.904,0.041,1.786
3928000,0.903,0.026,1.785
3932000,0.897,0.032,1.788
3936000,0.903,0.03,1.788
3940000,0.888,0.032,1.791
3948000,0.89,0.044,1.791
3956000,0.903,0.025,1.781
3960000,0.891,0.034,1.798
3964000,0.888,0.034,1.79
3972000,0.904,0.034,1.786
3976000,0.891,0.038,1.786
3980000,0.89,0.032,1.779
3984000,0.891,0.036,1.79
3988000,0.897,0.029,1.78
3996000,0.894,0.039,1.785
4000000,0.898,0.038,1.803
4004000,0.896,0.042,1.781
4008000,0.899,0.041,1.785
4016000,0.901,0.028,1.784
4020000,0.903,0.03,1.79
4024000,0.899,0.037,1.79
4028000,0.896,0.029,1.789
4032000,0.898,0.031,1.789
4036000,0.902,0.033,1.79
4040000,0.896,0.032,1.788
4048000,0.899,0.033,1.783
4052000,0.891,0.03,1.785
4060000,0.894,0.032,1.782
4064000,0.898,0.038,1.79
4068000,0.902,0.037,1.788
4072000,0.89,0.033,1.778
4076000,0.895,0.035,1.792
4084000,0.899,0.036,1.788
4088000,0.899,0.028,1.79
4096000,0.886,0.033,1.796
4100000,0.898,0.028,1.788
4104000,0.894,0.033,1.79
4108000,0.9,0.033,1.781
4116000,0.897,0.029,1.788
4120000,0.898,0.036,1.789
4128000,0.901,0.035,1.783
4136000,0.892,0.039,1.783
4140000,0.904,0.039,1.783
4144000,0.899,0.036,1.782
4152000,0.899,0.039,1.781
4160000,0.9,0.032,1.788
4164000,0.899,0.032,1.786
4168000,0.894,0.034,1.784
4172000,0.906,0.031,1.788
4176000,0.904,0.03,1.783
4180000,0.896,0.035,1.794
4184000,0.9,0.033,1.787
4188000,0.902,0.027,1.781
4196000,0.895,0.028,1.784
4200000,0.901,0.026,1.79
4208000,0.897,0.032,1.784
4212000,0.899,0.035,1.784
4216000,0.905,0.023,1.782
4224000,0.911,0.026,1.785
4228000,0.898,0.033,1.786
4232000,0.904,0.033,1.777
4236000,0.899,0.026,1.789
4240000,0.894,0.028,1.788
4244000,0.903,0.027,1.787
4252000,0.898,0.034,1.788
4256000,0.889,0.036,1.791
4260000,0.897,0.036,1.791
4264000,0.899,0.033,1.793
4268000,0.891,0.027,1.779
4276000,0.882,0.031,1.784
4280000,0.901,0.029,1.781
4284000,0.895,0.037,1.786
4292000,0.906,0.03,1.79
4300000,0.889,0.035,1.784
4308000,0.906,0.03,1.796
4312000,0.908,0.03,1.781
4316000,0.895,0.034,1.794
4328000,0.901,0.036,1.784
4332000,0.898,0.042,1.789
4344000,0.895,0.032,1.78
4348000,0.9,0.032,1.787
4356000,0.896,0.029,1.782
4360000,0.891,0.032,1.791
4364000,0.906,0.032,1.779
4368000,0.898,0.029,1.785
4376000,0.895,0.028,1.781
4380000,0.894,0.039,1.788
4384000,0.902,0.03,1.788
4388000,0.898,0.036,1.784
4396000,0.895,0.035,1.789
4400000,0.894,0.027,1.786
4408000,0.9,0.041,1.788
4412000,0.893,0.04,1.782
4416000,0.895,0.03,1.779
4420000,0.906,0.029,1.789
4424000,0.902,0.031,1.781
4428000,0.898,0.034,1.782
4436000,0.89,0.034,1.793
4444000,0.903,0.039,1.79
4448000,0.895,0.029,1.786
4452000,0.896,0.034,1.783
4456000,0.899,0.036,1.785
4464000,0.889,0.036,1.784
4468000,0.897,0.034,1.79
4472000,0.9,0.037,1.787
4480000,0.897,0.032,1.79
4488000,0.906,0.031,1.785
4492000,0.896,0.034,1.785
4496000,0.889,0.037,1.776
4504000,0.906,0.038,1.79
4508000,0.903,0.035,1.784
4512000,0.896,0.033,1.783
4524000,0.893,0.04,1.795
4528000,0.896,0.034,1.78
4532000,0.896,0.037,1.787
4540000,0.907,0.034,1.783
4548000,0.889,0.036,1.787
4552000,0.893,0.04,1.793
4556000,0.896,0.03,1.787
4564000,0.898,0.031,1.787
4572000,0.899,0.029,1.782
4580000,0.901,0.034,1.79
4584000,0.892,0.041,1.785
4588000,0.899,0.035,1.785
4592000,0.903,0.038,1.791
4596000,0.896,0.04,1.784
4604000,0.893,0.031,1.791
4612000,0.892,0.028,1.787
4616000,0.897,0.033,1.781
4620000,0.898,0.036,1.799
4624000,0.897,0.038,1.788
4628000,0.901,0.035,1.793
4632000,0.897,0.032,1.792
4636000,0.898,0.039,1.771
4640000,0.889,0.03,1.79
4644000,0.888,0.041,1.788
4648000,0.904,0.026,1.785
4660000,0.898,0.04,1.786
4664000,0.899,0.028,1.794
4672000,0.897,0.035,1.786
4676000,0.892,0.036,1.784
4680000,0.898,0.035,1.784
4684000,0.894,0.032,1.787
4688000,0.897,0.028,1.782
4696000,0.898,0.037,1.781
4700000,0.896,0.034,1.783
4704000,0.9,0.028,1.785
4708000,0.903,0.034,1.788
4712000,0.899,0.038,1.776
4720000,0.895,0.032,1.784
4724000,0.896,0.03,1.785
4728000,0.903,0.037,1.783
4736000,0.899,0.033,1.782
4744000,0.895,0.03,1.778
4748000,0.898,0.034,1.786
4752000,0.891,0.031,1.785
4760000,0.895,0.025,1.789
4764000,0.905,0.031,1.793
4772000,0.889,0.037,1.793
4776000,0.901,0.03,1.791
4780000,0.902,0.027,1.785
4784000,0.896,0.033,1.785
4788000,0.9,0.039,1.795
4796000,0.902,0.038,1.79
4800000,0.896,0.031,1.787
4804000,0.897,0.034,1.793
4812000,0.895,0.028,1.791
4816000,0.893,0.032,1.79
4820000,0.893,0.022,1.79
4824000,0.894,0.032,1.777
4828000,0.901,0.034,1.783
4832000,0.895,0.041,1.785
4836000,0.893,0.036,1.792
4840000,0.897,0.041,1.789
4844000,0.894,0.038,1.783
4852000,0.894,0.031,1.791
4856000,0.899,0.026,1.788
4864000,0.9,0.025,1.781
4868000,0.9,0.028,1.787
4872000,0.896,0.03,1.787
4876000,0.896,0.032,1.787
4880000,0.897,0.037,1.791
4884000,0.897,0.036,1.793
4888000,0.898,0.023,1.783
4896000,0.907,0.038,1.795
4900000,0.897,0.038,1.78
4904000,0.9,0.042,1.784
4908000,0.897,0.04,1.789
4912000,0.894,0.039,1.798
4920000,0.894,0.028,1.786
4924000,0.895,0.034,1.788
4928000,0.895,0.034,1.785
4932000,0.903,0.032,1.783
4936000,0.896,0.037,1.79
4940000,0.908,0.037,1.787
4944000,0.896,0.033,1.786
4948000,0.897,0.027,1.792
4952000,0.89,0.022,1.782
4956000,0.897,0.027,1.782
4960000,0.892,0.044,1.778
4964000,0.899,0.031,1.781
4972000,0.899,0.031,1.786
4976000,0.896,0.039,1.773
4980000,0.896,0.028,1.783
4984000,0.906,0.039,1.79
4988000,0.899,0.032,1.781
4992000,0.9,0.019,1.785
4996000,0.896,0.033,1.784
5000000,0.899,0.032,1.778
5008000,0.901,0.025,1.783
5012000,0.899,0.033,1.784
5020000,0.9,0.042,1.787
5024000,0.892,0.029,1.782
5028000,0.897,0.036,1.777
5032000,0.895,0.03,1.783
5040000,0.901,0.034,1.796
5048000,0.891,0.028,1.793
5052000,0.889,0.03,1.789
5056000,0.897,0.036,1.793
5060000,0.899,0.046,1.787
5064000,0.889,0.029,1.788
5068000,0.896,0.041,1.785
5072000,0.9,0.033,1.787
5080000,0.902,0.035,1.79
5084000,0.895,0.042,1.797
5088000,0.91,0.033,1.793
5096000,0.891,0.033,1.787
5100000,0.897,0.033,1.793
5104000,0.898,0.034,1.783
5108000,0.898,0.032,1.786
5112000,0.9,0.035,1.778
5116000,0.899,0.038,1.782
5124000,0.89,0.036,1.784
5128000,0.896,0.036,1.781
5132000,0.896,0.033,1.793
5136000,0.897,0.027,1.791
5140000,0.907,0.04,1.786
5144000,0.895,0.026,1.788
5148000,0.9,0.031,1.793
5152000,0.89,0.037,1.793
5156000,0.892,0.035,1.788
5164000,0.9,0.037,1.79
5168000,0.902,0.028,1.787
5172000,0.894,0.033,1.786
5176000,0.908,0.029,1.787
5180000,0.896,0.035,1.79
5184000,0.898,0.034,1.791
5188000,0.896,0.046,1.779
5196000,0.896,0.029,1.786
5200000,0.9,0.04,1.788
5204000,0.898,0.032,1.786
5208000,0.908,0.04,1.783
5212000,0.896,0.037,1.784
5216000,0.894,0.036,1.783
5224000,0.899,0.029,1.79
5228000,0.898,0.032,1.792
5232000,0.887,0.038,1.79
5236000,0.905,0.027,1.794
5240000,0.896,0.025,1.791
5244000,0.89,0.022,1.787
5252000,0.895,0.029,1.795
5260000,0.888,0.03,1.794
5264000,0.9,0.036,1.785
5272000,0.903,0.037,1.78
5280000,0.896,0.021,1.779
5284000,0.897,0.034,1.784
5292000,0.897,0.031,1.794
5296000,0.893,0.041,1.788
5300000,0.893,0.031,1.786
5304000,0.902,0.028,1.794
5312000,0.889,0.038,1.783
5316000,0.893,0.037,1.787
5320000,0.9,0.036,1.778
5328000,0.895,0.026,1.794
5336000,0.901,0.024,1.789
5340000,0.887,0.033,1.786
5344000,0.908,0.028,1.782
5348000,0.889,0.033,1.789
5356000,0.896,0.032,1.789
5364000,0.894,0.033,1.786
5368000,0.904,0.028,1.782
5376000,0.892,0.037,1.793
5380000,0.902,0.027,1.784
5384000,0.896,0.028,1.783
5388000,0.889,0.026,1.783
5396000,0.896,0.035,1.782
5404000,0.883,0.023,1.791
5408000,0.899,0.03,1.784
5416000,0.893,0.033,1.783
5420000,0.895,0.034,1.779
5428000,0.886,0.034,1.787
5432000,0.899,0.039,1.788
5436000,0.903,0.043,1.784
5444000,0.893,0.025,1.788
5448000,0.903,0.024,1.78
5452000,0.899,0.037,1.785
5456000,0.886,0.035,1.777
5460000,0.899,0.035,1.794
5464000,0.893,0.043,1.78
5468000,0.898,0.033,1.794
5472000,0.906,0.037,1.787
5476000,0.902,0.041,1.789
5480000,0.898,0.035,1.79
5488000,0.901,0.028,1.796
5492000,0.897,0.035,1.783
5496000,0.896,0.034,1.792
5500000,0.898,0.032,1.787
5508000,0.893,0.028,1.785
5516000,0.903,0.033,1.788
5520000,0.895,0.039,1.787
5528000,0.898,0.039,1.792
5532000,0.89,0.035,1.779
5540000,0.897,0.037,1.781
5544000,0.894,0.033,1.789
5548000,0.895,0.036,1.79
5552000,0.897,0.03,1.79
5556000,0.896,0.03,1.788
5560000,0.894,0.035,1.785
5564000,0.9,0.039,1.78
5568000,0.895,0.033,1.784
5572000,0.896,0.032,1.786
5580000,0.897,0.041,1.79
5584000,0.896,0.026,1.786
5592000,0.893,0.038,1.796
5596000,0.91,0.027,1.785
5600000,0.9,0.036,1.786
5608000,0.902,0.03,1.781
5612000,0.887,0.042,1.786
5616000,0.9,0.033,1.786
5620000,0.886,0.034,1.787
5628000,0.89,0.033,1.792
5632000,0.903,0.036,1.786
5636000,0.895,0.027,1.787
5644000,0.894,0.038,1.773
5652000,0.902,0.031,1.785
5656000,0.904,0.03,1.774
5660000,0.901,0.038,1.787
5664000,0.892,0.041,1.778
5668000,0.894,0.037,1.784
5672000,0.898,0.035,1.785
5676000,0.9,0.03,1.779
5684000,0.88,0.035,1.779
5688000,0.906,0.031,1.78
5692000,0.897,0.038,1.785
5696000,0.897,0.026,1.784
5700000,0.895,0.03,1.793
5704000,0.911,0.037,1.772
5712000,0.897,0.028,1.797
5716000,0.898,0.04,1.788
5724000,0.891,0.025,1.791
5732000,0.89,0.02,1.785
5736000,0.896,0.035,1.782
5740000,0.9,0.034,1.786
5748000,0.899,0.024,1.782
5752000,0.892,0.037,1.779
5756000,0.893,0.027,1.782
5760000,0.893,0.035,1.78
5764000,0.895,0.03,1.787
5768000,0.895,0.032,1.794
5772000,0.893,0.039,1.784
5776000,0.902,0.034,1.786
5780000,0.893,0.043,1.78
5784000,0.901,0.033,1.779
5792000,0.903,0.043,1.787
5796000,0.892,0.031,1.788
5800000,0.895,0.027,1.785
5804000,0.904,0.042,1.793
5808000,0.901,0.03,1.78
5812000,0.902,0.026,1.785
5820000,0.893,0.039,1.778
5824000,0.898,0.027,1.782
5828000,0.893,0.037,1.79
5832000,0.897,0.028,1.79
5836000,0.895,0.034,1.788
5844000,0.904,0.031,1.782
5848000,0.894,0.026,1.794
5852000,0.896,0.033,1.779
5856000,0.893,0.033,1.79
5860000,0.9,0.02,1.786
5864000,0.896,0.029,1.788
5868000,0.897,0.032,1.783
5872000,0.893,0.032,1.792
5876000,0.892,0.036,1.785
5884000,0.898,0.037,1.79
5888000,0.902,0.03,1.784
5892000,0.899,0.029,1.783
5900000,0.905,0.034,1.792
5904000,0.898,0.032,1.785
5908000,0.896,0.04,1.791
5912000,0.895,0.047,1.784
5916000,0.898,0.029,1.793
5920000,0.892,0.033,1.787
5924000,0.896,0.034,1.792
5928000,0.899,0.037,1.806
5932000,0.904,0.029,1.783
5936000,0.905,0.018,1.783
5940000,0.895,0.039,1.793
5944000,0.903,0.029,1.785
5948000,0.896,0.033,1.782
5952000,0.898,0.035,1.788
5960000,0.897,0.035,1.786
5964000,0.9,0.039,1.787
5968000,0.897,0.025,1.782
5972000,0.886,0.033,1.79
5976000,0.896,0.029,1.783
5984000,0.896,0.036,1.788
5988000,0.901,0.032,1.785
5992000,0.896,0.029,1.781
6000000,0.896,0.035,1.792
6004000,0.897,0.025,1.783
6012000,0.892,0.035,1.793
6016000,0.887,0.036,1.787
6020000,0.9,0.035,1.78
6024000,0.901,0.035,1.786
6028000,0.899,0.029,1.781
6032000,0.891,0.032,1.784
6036000,0.903,0.031,1.789
6044000,0.895,0.03,1.784
6048000,0.891,0.031,1.779
6052000,0.892,0.041,1.795
6056000,0.896,0.039,1.79
6064000,0.892,0.023,1.788
6068000,0.895,0.029,1.782
6072000,0.893,0.033,1.785
6076000,0.902,0.029,1.785
6080000,0.895,0.036,1.775
6084000,0.882,0.033,1.793
6088000,0.9,0.037,1.785
6092000,0.901,0.031,1.789
6100000,0.895,0.039,1.782
6104000,0.893,0.032,1.782
6108000,0.896,0.032,1.787
6112000,0.901,0.038,1.794
6116000,0.901,0.031,1.774
6120000,0.897,0.03,1.789
6128000,0.901,0.037,1.783
6132000,0.897,0.031,1.787
6136000,0.9,0.031,1.785
6140000,0.891,0.04,1.794
6144000,0.898,0.037,1.796
6148000,0.899,0.031,1.793
6156000,0.893,0.029,1.786
6160000,0.898,0.024,1.785
6164000,0.898,0.033,1.783
6168000,0.904,0.027,1.782
6172000,0.896,0.029,1.789
6176000,0.892,0.033,1.798
6180000,0.902,0.022,1.789
6188000,0.902,0.036,1.785
6192000,0.901,0.029,1.786
6196000,0.9,0.036,1.791
6200000,0.897,0.034,1.791
6208000,0.895,0.03,1.789
6212000,0.899,0.03,1.789
6216000,0.906,0.043,1.783
6224000,0.893,0.027,1.79
6232000,0.9,0.03,1.782
6240000,0.9,0.033,1.786
6244000,0.898,0.034,1.787
6248000,0.902,0.041,1.784
6256000,0.902,0.033,1.782
6260000,0.89,0.041,1.793
6264000,0.904,0.021,1.782
6268000,0.895,0.033,1.775
6272000,0.894,0.026,1.785
6276000,0.908,0.042,1.784
6280000,0.901,0.037,1.791
6284000,0.893,0.031,1.789
6292000,0.897,0.022,1.782
6296000,0.901,0.035,1.784
6300000,0.897,0.035,1.786
6308000,0.895,0.028,1.787
6312000,0.892,0.035,1.784
6316000,0.895,0.03,1.785
6320000,0.897,0.026,1.787
6324000,0.899,0.036,1.786
6328000,0.896,0.032,1.783
6332000,0.903,0.037,1.78
6340000,0.894,0.041,1.791
6344000,0.899,0.034,1.785
6348000,0.894,0.025,1.783
6352000,0.901,0.04,1.792
6356000,0.902,0.034,1.794
6360000,0.902,0.024,1.784
6364000,0.898,0.043,1.793
6372000,0.906,0.032,1.786
6376000,0.896,0.034,1.78
6380000,0.903,0.023,1.784
6384000,0.894,0.029,1.784
6392000,0.899,0.032,1.785
6396000,0.895,0.032,1.783
6404000,0.892,0.035,1.79
6412000,0.892,0.031,1.79
6416000,0.888,0.03,1.787
6420000,0.891,0.033,1.784
6424000,0.902,0.025,1.786
6428000,0.9,0.042,1.785
6432000,0.903,0.034,1.794
6436000,0.902,0.04,1.789
6440000,0.899,0.034,1.782
6444000,0.894,0.038,1.778
6448000,0.896,0.033,1.793
6452000,0.901,0.036,1.785
6456000,0.899,0.035,1.786
6460000,0.888,0.031,1.787
6464000,0.899,0.025,1.784
6468000,0.891,0.032,1.79
6472000,0.89,0.035,1.79
6480000,0.903,0.043,1.777
6484000,0.892,0.033,1.781
6488000,0.894,0.032,1.778
6492000,0.902,0.033,1.781
6496000,0.894,0.033,1.782
6500000,0.899,0.03,1.788
6504000,0.899,0.036,1.782
6512000,0.9,0.032,1.784
6520000,0.9,0.027,1.789
6524000,0.898,0.034,1.781
6532000,0.896,0.035,1.785
6536000,0.896,0.033,1.793
6544000,0.9,0.046,1.785
6552000,0.897,0.038,1.787
6556000,0.904,0.029,1.781
6560000,0.905,0.039,1.785
6564000,0.897,0.031,1.795
6568000,0.895,0.035,1.789
6576000,0.896,0.038,1.79
6580000,0.902,0.033,1.786
6584000,0.893,0.035,1.781
6588000,0.896,0.028,1.79
6592000,0.893,0.03,1.78
6596000,0.893,0.037,1.783
6604000,0.897,0.034,1.787
6608000,0.903,0.033,1.789
6612000,0.901,0.034,1.796
6616000,0.903,0.03,1.783
6620000,0.889,0.033,1.786
6628000,0.898,0.039,1.786
6632000,0.893,0.026,1.789
6636000,0.895,0.033,1.794
6640000,0.903,0.028,1.787
6644000,0.894,0.044,1.783
6652000,0.895,0.03,1.787
6660000,0.895,0.026,1.786
6664000,0.9,0.033,1.783
6668000,0.895,0.034,1.779
6672000,0.893,0.032,1.787
6680000,0.896,0.027,1.789
6684000,0.895,0.034,1.781
6688000,0.899,0.026,1.793
6692000,0.895,0.033,1.785
6696000,0.892,0.041,1.789
6700000,0.898,0.033,1.787
6708000,0.897,0.034,1.787
6716000,0.903,0.029,1.784
6720000,0.894,0.038,1.783
6724000,0.893,0.029,1.788
6732000,0.887,0.035,1.787
6736000,0.894,0.035,1.782
6740000,0.902,0.023,1.79
6748000,0.899,0.034,1.789
6752000,0.889,0.031,1.788
6756000,0.89,0.031,1.789
6760000,0.893,0.041,1.782
6764000,0.9,0.037,1.782
6772000,0.899,0.028,1.778
6776000,0.896,0.035,1.793
6780000,0.891,0.033,1.787
6784000,0.891,0.043,1.783
6792000,0.901,0.036,1.784
6796000,0.898,0.032,1.784
6800000,0.905,0.033,1.792
6804000,0.9,0.032,1.784
6808000,0.895,0.038,1.79
6812000,0.891,0.04,1.787
6820000,0.897,0.027,1.788
6824000,0.895,0.03,1.784
6828000,0.898,0.026,1.792
6832000,0.903,0.026,1.778
6840000,0.896,0.032,1.79
6844000,0.9,0.026,1.786
6848000,0.89,0.031,1.783
6852000,0.901,0.036,1.788
6856000,0.895,0.032,1.779
6860000,0.901,0.034,1.785
6864000,0.901,0.033,1.792
6872000,0.898,0.031,1.785
6876000,0.897,0.029,1.787
6880000,0.893,0.03,1.781
6884000,0.904,0.035,1.787
6888000,0.899,0.026,1.799
6892000,0.892,0.033,1.783
6896000,0.903,0.016,1.791
6904000,0.897,0.039,1.794
6908000,0.895,0.032,1.781
6912000,0.894,0.031,1.79
6916000,0.897,0.032,1.786
6920000,0.889,0.036,1.792
6924000,0.896,0.035,1.79
6936000,0.893,0.025,1.784
6940000,0.898,0.03,1.782
6948000,0.9,0.044,1.785
6952000,0.896,0.035,1.778
6956000,0.899,0.028,1.774
6964000,0.9,0.027,1.771
6968000,0.893,0.032,1.776
6972000,0.889,0.036,1.789
6976000,0.894,0.034,1.777
6980000,0.907,0.03,1.779
6984000,0.894,0.039,1.79
6988000,0.901,0.031,1.789
6996000,0.893,0.029,1.795
7000000,0.895,0.034,1.781
7004000,0.883,0.028,1.789
7008000,0.899,0.034,1.794
7012000,0.893,0.028,1.784
7016000,0.91,0.038,1.788
7020000,0.893,0.035,1.785
7024000,0.897,0.03,1.793
7028000,0.909,0.031,1.784
7032000,0.903,0.033,1.787
7036000,0.903,0.029,1.788
7040000,0.894,0.035,1.789
7044000,0.9,0.034,1.787
7048000,0.897,0.027,1.779
7056000,0.896,0.024,1.779
7060000,0.902,0.03,1.776
7064000,0.893,0.028,1.797
7072000,0.894,0.04,1.783
7076000,0.889,0.036,1.792
7080000,0.893,0.033,1.781
7084000,0.9,0.024,1.792
7088000,0.91,0.036,1.79
7092000,0.896,0.032,1.781
7096000,0.897,0.026,1.785
7100000,0.898,0.03,1.788
7108000,0.904,0.038,1.78
7112000,0.893,0.029,1.787
7116000,0.901,0.032,1.787
7120000,0.897,0.036,1.79
7124000,0.896,0.037,1.79
7132000,0.896,0.027,1.78
7136000,0.882,0.028,1.786
7140000,0.895,0.033,1.786
7144000,0.89,0.04,1.782
7152000,0.897,0.03,1.781
7156000,0.9,0.034,1.783
7160000,0.893,0.033,1.789
7164000,0.907,0.031,1.794
7168000,0.895,0.034,1.787
7172000,0.888,0.024,1.775
7180000,0.902,0.034,1.789
7188000,0.897,0.034,1.789
7192000,0.905,0.025,1.783
7196000,0.899,0.032,1.784
7200000,0.892,0.022,1.793
7204000,0.902,0.024,1.794
7208000,0.906,0.038,1.79
7212000,0.891,0.035,1.787
7216000,0.899,0.031,1.786
7220000,0.892,0.024,1.792
7224000,0.896,0.042,1.789
7228000,0.907,0.035,1.79
7236000,0.9,0.04,1.785
7240000,0.894,0.027,1.789
7248000,0.896,0.037,1.778
7252000,0.897,0.04,1.789
7260000,0.902,0.033,1.789
7264000,0.899,0.037,1.798
7268000,0.894,0.03,1.787
7272000,0.893,0.033,1.789
7276000,0.904,0.029,1.793
7280000,0.909,0.032,1.779
7288000,0.912,0.032,1.79
7292000,0.894,0.029,1.781
7296000,0.894,0.031,1.785
7300000,0.901,0.042,1.779
7308000,0.892,0.032,1.788
7312000,0.892,0.036,1.782
7316000,0.897,0.028,1.783
7324000,0.9,0.019,1.791
7332000,0.899,0.027,1.788
7336000,0.902,0.023,1.782
7340000,0.896,0.031,1.789
7348000,0.894,0.032,1.781
7352000,0.896,0.044,1.786
7360000,0.896,0.038,1.791
7364000,0.9,0.029,1.791
7368000,0.892,0.034,1.784
7372000,0.895,0.037,1.79
7376000,0.892,0.036,1.784
7384000,0.895,0.042,1.784
7388000,0.892,0.029,1.791
7392000,0.901,0.033,1.789
7396000,0.892,0.039,1.774
7400000,0.897,0.046,1.789
7404000,0.896,0.038,1.782
7408000,0.896,0.03,1.788
7412000,0.894,0.036,1.791
7416000,0.894,0.042,1.783
7420000,0.899,0.032,1.784
7428000,0.899,0.034,1.792
7436000,0.904,0.025,1.797
7440000,0.902,0.03,1.785
7444000,0.891,0.034,1.789
7448000,0.892,0.04,1.788
7452000,0.896,0.038,1.783
7456000,0.896,0.035,1.784
7460000,0.887,0.036,1.785
7464000,0.89,0.038,1.788
7472000,0.889,0.026,1.784
7476000,0.897,0.031,1.783
7484000,0.893,0.035,1.782
7488000,0.881,0.043,1.784
7492000,0.9,0.03,1.79
7496000,0.901,0.03,1.79
7500000,0.889,0.036,1.79
7504000,0.895,0.027,1.786
7512000,0.894,0.028,1.785
7516000,0.905,0.032,1.781
7524000,0.906,0.041,1.779
7528000,0.897,0.032,1.773
7532000,0.897,0.037,1.787
7540000,0.899,0.033,1.784
7544000,0.898,0.023,1.788
7548000,0.903,0.029,1.783
7552000,0.885,0.029,1.787
7560000,0.894,0.032,1.786
7564000,0.896,0.026,1.791
7572000,0.902,0.046,1.783
7576000,0.889,0.027,1.79
7580000,0.894,0.035,1.776
7584000,0.897,0.042,1.789
7588000,0.9,0.029,1.787
7592000,0.902,0.024,1.779
7596000,0.903,0.035,1.784
7604000,0.886,0.039,1.789
7608000,0.902,0.037,1.789
7616000,0.905,0.035,1.783
7624000,0.901,0.03,1.789
7628000,0.896,0.031,1.78
7632000,0.897,0.031,1.789
7636000,0.893,0.038,1.78
7640000,0.892,0.039,1.797
7644000,0.905,0.037,1.78
7648000,0.899,0.027,1.786
7652000,0.899,0.039,1.786
7656000,0.898,0.034,1.789
7660000,0.905,0.036,1.793
7664000,0.895,0.029,1.789
7672000,0.894,0.044,1.787
7676000,0.884,0.029,1.782
7680000,0.896,0.027,1.786
7684000,0.895,0.04,1.783
7688000,0.909,0.027,1.786
7692000,0.89,0.035,1.791
7696000,0.901,0.029,1.791
7700000,0.9,0.041,1.789
7704000,0.897,0.044,1.794
7712000,0.902,0.033,1.787
7716000,0.899,0.027,1.791
7720000,0.905,0.031,1.789
7728000,0.901,0.041,1.78
7732000,0.9,0.046,1.79
7736000,0.897,0.031,1.787
7740000,0.888,0.021,1.793
7744000,0.887,0.028,1.785
7748000,0.897,0.029,1.789
7752000,0.896,0.039,1.788
7760000,0.899,0.034,1.784
7768000,0.893,0.036,1.792
7772000,0.897,0.031,1.791
7776000,0.899,0.025,1.786
7784000,0.893,0.04,1.783
7788000,0.903,0.036,1.781
7792000,0.893,0.044,1.787
7800000,0.889,0.039,1.782
7804000,0.897,0.028,1.785
7812000,0.9,0.027,1.792
7816000,0.894,0.036,1.794
7820000,0.89,0.041,1.786
7824000,0.888,0.035,1.79
7828000,0.89,0.03,1.787
7836000,0.899,0.033,1.78
7840000,0.894,0.027,1.786
7844000,0.888,0.036,1.79
7848000,0.894,0.043,1.788
7852000,0.897,0.034,1.785
7856000,0.904,0.032,1.788
7864000,0.9,0.025,1.785
7868000,0.896,0.033,1.784
7872000,0.9,0.027,1.793
7880000,0.896,0.038,1.778
7884000,0.902,0.035,1.788
7888000,0.895,0.041,1.783
7892000,0.893,0.03,1.783
7896000,0.905,0.029,1.791
7900000,0.898,0.037,1.788
7904000,0.897,0.031,1.786
7908000,0.897,0.037,1.778
7916000,0.899,0.034,1.779
7924000,0.896,0.03,1.788
7928000,0.891,0.031,1.786
7932000,0.89,0.031,1.787
7940000,0.896,0.03,1.775
7944000,0.893,0.029,1.788
7948000,0.9,0.032,1.781
7952000,0.897,0.025,1.782
7956000,0.901,0.043,1.795
7960000,0.897,0.03,1.784
7964000,0.896,0.022,1.79
7968000,0.89,0.034,1.78
7972000,0.895,0.029,1.786
7976000,0.902,0.033,1.79
7980000,0.9,0.022,1.799
7984000,0.898,0.024,1.787
7992000,0.892,0.028,1.788
7996000,0.899,0.032,1.781
8000000,0.897,0.037,1.779
8004000,0.9,0.029,1.792
8008000,0.905,0.029,1.784
8012000,0.894,0.03,1.788
8020000,0.89,0.038,1.783
8024000,0.895,0.03,1.78
8028000,0.899,0.03,1.795
8032000,0.895,0.034,1.795
8036000,0.894,0.027,1.788
8044000,0.892,0.033,1.783
8048000,0.892,0.035,1.782
8052000,0.898,0.028,1.778
8056000,0.897,0.033,1.786
8064000,0.895,0.035,1.788
8068000,0.892,0.025,1.782
8072000,0.903,0.031,1.794
8076000,0.897,0.033,1.785
8080000,0.903,0.031,1.794
8084000,0.897,0.032,1.781
8092000,0.895,0.025,1.784
8096000,0.9,0.038,1.783
8100000,0.899,0.033,1.788
8108000,0.897,0.038,1.778
8112000,0.906,0.029,1.785
8116000,0.897,0.034,1.794
8120000,0.897,0.032,1.789
8124000,0.898,0.034,1.773
8128000,0.89,0.034,1.786
8132000,0.9,0.034,1.782
8140000,0.894,0.031,1.785
8144000,0.899,0.033,1.784
8148000,0.903,0.031,1.782
8156000,0.892,0.03,1.79
8160000,0.9,0.028,1.793
8168000,0.894,0.035,1.784
8172000,0.892,0.025,1.792
8176000,0.898,0.03,1.789
8180000,0.895,0.035,1.787
8184000,0.901,0.027,1.786
8192000,0.893,0.036,1.784
8196000,0.897,0.032,1.792
8200000,0.892,0.031,1.787
8204000,0.904,0.033,1.794
8208000,0.904,0.032,1.78
8212000,0.892,0.044,1.795
8216000,0.904,0.035,1.785
8220000,0.895,0.03,1.785
8228000,0.904,0.028,1.775
8232000,0.903,0.029,1.791
8236000,0.902,0.038,1.781
8244000,0.902,0.036,1.788
8248000,0.896,0.038,1.785
8252000,0.892,0.036,1.786
8260000,0.902,0.04,1.787
8268000,0.889,0.025,1.78
8276000,0.897,0.033,1.79
8280000,0.891,0.047,1.786
8288000,0.9,0.034,1.779
8292000,0.903,0.03,1.788
8296000,0.888,0.034,1.793
8304000,0.9,0.024,1.784
8308000,0.898,0.031,1.794
8312000,0.903,0.038,1.786
8320000,0.899,0.034,1.783
8324000,0.898,0.024,1.788
8328000,0.889,0.034,1.784
8332000,0.89,0.015,1.789
8340000,0.902,0.028,1.777
8344000,0.89,0.032,1.78
8352000,0.904,0.043,1.79
8356000,0.882,0.03,1.784
8360000,0.907,0.033,1.783
8364000,0.898,0.042,1.786
8368000,0.895,0.036,1.79
8376000,0.908,0.027,1.787
8380000,0.894,0.029,1.785
8388000,0.897,0.024,1.781
8392000,0.89,0.036,1.794
8396000,0.902,0.027,1.784
8400000,0.901,0.034,1.789
8404000,0.895,0.043,1.782
8408000,0.894,0.038,1.783
8416000,0.9,0.04,1.784
8420000,0.901,0.034,1.789
8428000,0.893,0.04,1.793
8432000,0.897,0.037,1.789
8440000,0.894,0.04,1.797
8444000,0.892,0.034,1.779
8448000,0.892,0.037,1.786
8456000,0.9,0.026,1.79
8460000,0.89,0.037,1.792
8464000,0.907,0.037,1.791
8468000,0.901,0.039,1.789
8472000,0.9,0.028,1.784
8476000,0.894,0.035,1.794
8480000,0.896,0.023,1.794
8484000,0.889,0.03,1.791
8492000,0.898,0.034,1.784
8496000,0.89,0.034,1.789
8504000,0.895,0.029,1.79
8508000,0.899,0.03,1.788
8512000,0.901,0.029,1.788
8516000,0.89,0.042,1.791
8524000,0.89,0.032,1.783
8528000,0.893,0.03,1.783
8532000,0.893,0.033,1.785
8536000,0.905,0.031,1.789
8540000,0.896,0.026,1.787
8544000,0.905,0.029,1.787
8548000,0.894,0.026,1.781
8552000,0.901,0.03,1.79
8556000,0.904,0.031,1.78
8564000,0.904,0.039,1.786
8568000,0.892,0.022,1.784
8576000,0.905,0.03,1.776
8580000,0.894,0.026,1.786
8584000,0.902,0.028,1.787
8592000,0.895,0.029,1.795
8596000,0.902,0.03,1.793
8600000,0.893,0.02,1.782
8608000,0.898,0.031,1.782
8616000,0.893,0.035,1.777
8620000,0.893,0.037,1.781
8624000,0.905,0.029,1.792
8628000,0.903,0.031,1.787
8632000,0.892,0.035,1.784
8640000,0.896,0.029,1.78
8648000,0.897,0.027,1.787
8652000,0.895,0.039,1.773
8660000,0.898,0.038,1.786
8664000,0.896,0.028,1.789
8668000,0.901,0.033,1.784
8676000,0.889,0.033,1.792
8680000,0.897,0.028,1.78
8688000,0.902,0.037,1.785
8696000,0.892,0.034,1.783
8700000,0.889,0.029,1.785
8704000,0.907,0.028,1.794
8708000,0.894,0.04,1.773
8716000,0.899,0.023,1.789
8720000,0.897,0.028,1.781
8728000,0.896,0.03,1.785
8732000,0.904,0.037,1.789
8736000,0.898,0.024,1.789
8740000,0.897,0.041,1.793
8744000,0.894,0.028,1.782
8748000,0.9,0.034,1.78
8756000,0.898,0.036,1.787
8760000,0.899,0.034,1.783
8764000,0.885,0.041,1.779
8768000,0.898,0.034,1.786
8772000,0.892,0.033,1.789
8780000,0.898,0.031,1.788
8788000,0.893,0.03,1.778
8792000,0.901,0.023,1.782
8796000,0.897,0.029,1.782
8800000,0.895,0.028,1.786
8808000,0.9,0.027,1.788
8812000,0.889,0.033,1.786
8816000,0.896,0.028,1.788
8820000,0.903,0.035,1.787
8824000,0.896,0.032,1.792
8828000,0.902,0.033,1.785
8836000,0.906,0.045,1.783
8840000,0.9,0.024,1.782
8844000,0.904,0.023,1.779
8848000,0.9,0.033,1.783
8852000,0.897,0.025,1.781
8856000,0.895,0.044,1.784
8860000,0.896,0.035,1.787
8864000,0.906,0.032,1.79
8868000,0.899,0.035,1.784
8872000,0.901,0.037,1.788
8876000,0.894,0.026,1.786
8884000,0.901,0.041,1.795
8888000,0.893,0.029,1.782
8892000,0.898,0.035,1.783
8896000,0.897,0.035,1.783
8900000,0.897,0.023,1.78
8904000,0.896,0.025,1.79
8908000,0.901,0.025,1.793
8912000,0.903,0.033,1.789
8916000,0.897,0.033,1.793
8920000,0.9,0.032,1.793
8924000,0.91,0.034,1.799
8928000,0.897,0.039,1.778
8932000,0.898,0.041,1.788
8936000,0.904,0.037,1.78
8940000,0.897,0.026,1.786
8944000,0.893,0.036,1.783
8952000,0.897,0.049,1.782
8956000,0.902,0.032,1.787
8960000,0.894,0.036,1.783
8964000,0.901,0.032,1.79
8972000,0.89,0.03,1.79
8976000,0.891,0.023,1.791
8980000,0.902,0.028,1.783
8984000,0.89,0.036,1.791
8988000,0.898,0.037,1.786
8992000,0.905,0.028,1.787
8996000,0.903,0.04,1.791
9000000,0.899,0.036,1.785
9004000,0.895,0.039,1.783
9012000,0.904,0.039,1.787
9016000,0.903,0.039,1.781
9020000,0.891,0.033,1.784
9028000,0.893,0.041,1.785
9032000,0.902,0.031,1.782
9036000,0.901,0.025,1.79
9040000,0.907,0.028,1.784
9044000,0.893,0.036,1.794
9048000,0.899,0.032,1.797
9052000,0.902,0.042,1.782
9056000,0.906,0.038,1.779
9060000,0.901,0.022,1.789
9064000,0.892,0.031,1.792
9068000,0.895,0.029,1.794
9072000,0.892,0.034,1.793
9076000,0.895,0.032,1.787
9080000,0.903,0.035,1.791
9084000,0.897,0.036,1.792
9088000,0.898,0.037,1.786
9092000,0.896,0.025,1.789
9100000,0.89,0.024,1.787
9104000,0.898,0.027,1.785
9108000,0.902,0.039,1.791
9112000,0.893,0.027,1.783
9116000,0.9,0.019,1.792
9120000,0.896,0.032,1.789
9124000,0.901,0.025,1.789
9128000,0.894,0.035,1.79
9132000,0.905,0.034,1.786
9136000,0.9,0.032,1.779
9144000,0.903,0.035,1.792
9148000,0.891,0.036,1.785
9152000,0.905,0.037,1.79
9156000,0.901,0.031,1.786
9164000,0.887,0.037,1.783
9168000,0.9,0.038,1.792
9172000,0.894,0.035,1.777
9176000,0.897,0.031,1.79
9180000,0.908,0.044,1.782
9184000,0.899,0.038,1.791
9188000,0.905,0.028,1.789
9192000,0.889,0.036,1.781
9196000,0.89,0.029,1.789
9200000,0.895,0.03,1.8
9204000,0.9,0.035,1.801
9208000,0.888,0.035,1.785
9212000,0.884,0.022,1.789
9220000,0.902,0.03,1.783
9224000,0.899,0.03,1.791
9232000,0.9,0.039,1.778
9236000,0.895,0.038,1.788
9240000,0.891,0.032,1.782
9244000,0.892,0.031,1.788
9252000,0.901,0.031,1.79
9256000,0.901,0.033,1.78
9260000,0.894,0.027,1.786
9268000,0.902,0.037,1.788
9276000,0.895,0.033,1.786
9284000,0.899,0.039,1.789
9288000,0.898,0.027,1.793
9292000,0.901,0.036,1.786
9296000,0.899,0.032,1.785
9304000,0.899,0.033,1.785
9308000,0.894,0.032,1.796
9312000,0.894,0.031,1.784
9320000,0.902,0.031,1.785
9324000,0.9,0.037,1.782
9328000,0.898,0.04,1.793
9336000,0.894,0.039,1.785
9340000,0.894,0.038,1.792
9344000,0.913,0.041,1.784
9352000,0.891,0.038,1.785
9356000,0.893,0.041,1.781
9360000,0.901,0.03,1.793
9364000,0.899,0.031,1.79
9372000,0.905,0.035,1.788
9376000,0.902,0.029,1.781
9380000,0.895,0.037,1.788
9384000,0.883,0.036,1.785
9392000,0.886,0.025,1.785
9396000,0.902,0.041,1.793
9400000,0.891,0.029,1.786
9404000,0.892,0.035,1.78
9408000,0.899,0.038,1.785
9412000,0.895,0.03,1.797
9420000,0.895,0.03,1.786
9424000,0.904,0.029,1.789
9432000,0.898,0.035,1.786
9436000,0.898,0.032,1.786
9440000,0.9,0.028,1.785
9444000,0.892,0.03,1.781
9452000,0.898,0.032,1.793
9456000,0.89,0.034,1.78
9460000,0.892,0.032,1.782
9464000,0.896,0.037,1.782
9468000,0.887,0.042,1.784
9472000,0.901,0.026,1.789
9476000,0.897,0.035,1.789
9480000,0.893,0.024,1.792
9484000,0.897,0.03,1.783
9492000,0.896,0.025,1.788
9496000,0.891,0.037,1.79
9500000,0.896,0.031,1.784
9504000,0.895,0.038,1.783
9508000,0.897,0.033,1.794
9516000,0.897,0.035,1.786
9520000,0.898,0.026,1.791
9524000,0.892,0.028,1.792
9528000,0.89,0.031,1.795
9532000,0.894,0.024,1.782
9536000,0.896,0.03,1.802
9540000,0.892,0.036,1.786
9548000,0.9,0.027,1.785
9556000,0.901,0.031,1.779
9560000,0.895,0.041,1.791
9564000,0.896,0.027,1.79
9568000,0.889,0.036,1.785
9572000,0.888,0.03,1.789
9576000,0.902,0.042,1.788
9580000,0.896,0.026,1.783
9584000,0.901,0.041,1.791
9592000,0.899,0.031,1.78
9596000,0.901,0.03,1.793
9604000,0.9,0.032,1.784
9612000,0.892,0.032,1.786
9616000,0.895,0.029,1.789
9620000,0.898,0.031,1.782
9624000,0.896,0.035,1.784
9628000,0.898,0.037,1.782
9632000,0.898,0.029,1.783
9640000,0.895,0.043,1.788
9644000,0.9,0.034,1.786
9648000,0.894,0.033,1.782
9652000,0.899,0.03,1.791
9656000,0.894,0.033,1.792
9660000,0.898,0.036,1.785
9664000,0.894,0.026,1.79
9672000,0.898,0.04,1.784
9676000,0.899,0.029,1.778
9680000,0.894,0.038,1.783
9684000,0.894,0.031,1.788
9688000,0.893,0.031,1.8
9692000,0.894,0.028,1.788
9700000,0.894,0.034,1.784
9704000,0.891,0.027,1.792
9708000,0.892,0.04,1.796
9712000,0.889,0.034,1.778
9716000,0.897,0.043,1.784
9720000,0.894,0.033,1.786
9724000,0.902,0.031,1.781
9732000,0.901,0.04,1.783
9736000,0.903,0.03,1.785
9740000,0.897,0.029,1.788
9744000,0.891,0.036,1.794
9748000,0.903,0.033,1.787
9756000,0.887,0.033,1.783
9760000,0.895,0.039,1.782
9764000,0.898,0.021,1.787
9772000,0.896,0.031,1.78
9776000,0.9,0.039,1.791
9780000,0.896,0.025,1.783
9784000,0.895,0.035,1.789
9792000,0.897,0.038,1.787
9796000,0.901,0.032,1.783
9800000,0.901,0.03,1.786
9804000,0.895,0.041,1.792
9812000,0.889,0.032,1.79
9816000,0.897,0.034,1.789
9820000,0.889,0.028,1.781
9824000,0.893,0.03,1.781
9832000,0.899,0.025,1.792
9836000,0.894,0.028,1.791
9840000,0.896,0.038,1.793
9844000,0.895,0.035,1.79
9848000,0.897,0.032,1.791
9856000,0.895,0.03,1.789
9864000,0.89,0.037,1.79
9868000,0.893,0.035,1.786
9872000,0.902,0.027,1.787
9876000,0.898,0.032,1.786
9880000,0.905,0.031,1.783
9884000,0.897,0.031,1.79
9888000,0.891,0.034,1.791
9892000,0.905,0.038,1.776
9896000,0.899,0.032,1.785
9900000,0.906,0.029,1.787
9904000,0.897,0.025,1.784
9912000,0.897,0.036,1.786
9916000,0.905,0.031,1.787
9924000,0.892,0.04,1.788
9928000,0.89,0.03,1.782
9936000,0.895,0.035,1.776
9940000,0.905,0.027,1.789
9948000,0.899,0.034,1.784
9952000,0.894,0.034,1.776
9956000,0.89,0.026,1.784
9964000,0.889,0.022,1.794
9968000,0.9,0.035,1.788
9972000,0.894,0.03,1.779
9976000,0.89,0.027,1.781
9984000,0.891,0.031,1.782
9988000,0.904,0.041,1.795
9996000,0.896,0.032,1.783
10000000,0.901,0.034,1.791
10004000,0.902,0.034,1.784
10012000,0.9,0.027,1.788
10016000,0.89,0.04,1.789
10020000,0.898,0.045,1.776
10024000,0.897,0.034,1.795
10028000,0.906,0.026,1.787
10032000,0.899,0.036,1.795
10040000,0.901,0.035,1.784
10044000,0.903,0.04,1.784
10048000,0.902,0.029,1.785
10052000,0.89,0.035,1.783
10056000,0.886,0.032,1.792
10064000,0.898,0.035,1.789
10068000,0.9,0.037,1.788
10072000,0.89,0.033,1.785
10076000,0.896,0.03,1.788
10084000,0.896,0.038,1.787
10092000,0.898,0.04,1.778
10100000,0.893,0.018,1.777
10104000,0.899,0.027,1.786
10108000,0.893,0.038,1.775
10112000,0.89,0.036,1.779
10120000,0.895,0.037,1.793
10128000,0.883,0.041,1.782
10136000,0.892,0.025,1.788
10140000,0.893,0.027,1.79
10144000,0.897,0.03,1.782
10148000,0.891,0.036,1.788
10152000,0.893,0.031,1.789
10156000,0.897,0.033,1.794
10164000,0.901,0.032,1.782
10172000,0.899,0.029,1.79
10176000,0.886,0.038,1.793
10180000,0.901,0.038,1.793
10188000,0.898,0.032,1.785
10192000,0.901,0.035,1.788
10196000,0.892,0.034,1.786
10200000,0.902,0.032,1.784
10204000,0.893,0.043,1.793
10208000,0.905,0.036,1.785
10212000,0.892,0.023,1.779
10220000,0.899,0.031,1.788
10224000,0.898,0.028,1.789
10232000,0.895,0.036,1.791
10236000,0.892,0.035,1.788
10240000,0.898,0.036,1.788
10244000,0.888,0.028,1.788
10248000,0.896,0.037,1.788
10252000,0.885,0.034,1.789
10256000,0.89,0.036,1.783
10260000,0.893,0.035,1.791
10264000,0.892,0.032,1.794
10268000,0.887,0.026,1.79
10276000,0.896,0.034,1.788
10280000,0.89,0.039,1.787
10284000,0.899,0.031,1.792
10288000,0.9,0.034,1.792
10296000,0.9,0.034,1.783
10300000,0.896,0.035,1.787
10308000,0.897,0.038,1.788
10312000,0.887,0.039,1.782
10316000,0.895,0.037,1.779
10324000,0.899,0.036,1.787
10328000,0.9,0.037,1.785
10332000,0.897,0.039,1.787
10336000,0.894,0.035,1.783
10340000,0.903,0.028,1.79
10344000,0.903,0.029,1.79
10348000,0.903,0.037,1.79
10352000,0.895,0.033,1.775
10356000,0.896,0.033,1.793
10360000,0.891,0.036,1.792
10364000,0.903,0.031,1.783
10372000,0.894,0.034,1.783
10376000,0.907,0.036,1.8
10380000,0.902,0.033,1.793
10384000,0.893,0.04,1.782
10388000,0.896,0.032,1.772
10392000,0.89,0.037,1.779
10396000,0.895,0.028,1.773
10400000,0.894,0.029,1.788
10404000,0.886,0.042,1.789
10412000,0.894,0.032,1.791
10420000,0.89,0.035,1.778
10424000,0.896,0.037,1.788
10428000,0.896,0.031,1.786
10432000,0.901,0.02,1.779
10440000,0.893,0.022,1.784
10444000,0.905,0.032,1.789
10448000,0.896,0.039,1.78
10452000,0.891,0.022,1.788
10456000,0.903,0.032,1.799
10460000,0.906,0.035,1.787
10464000,0.897,0.034,1.778
10468000,0.892,0.027,1.785
10472000,0.893,0.028,1.784
10476000,0.898,0.034,1.787
10480000,0.902,0.028,1.787
10488000,0.903,0.023,1.778
10492000,0.898,0.033,1.789
10496000,0.893,0.03,1.785
10500000,0.895,0.039,1.786
10504000,0.903,0.031,1.788
10508000,0.897,0.035,1.785
10512000,0.9,0.032,1.791
10520000,0.895,0.028,1.79
10524000,0.907,0.032,1.783
10528000,0.894,0.026,1.778
10532000,0.903,0.027,1.791
10540000,0.902,0.034,1.788
10544000,0.894,0.035,1.782
10548000,0.894,0.032,1.786
10556000,0.892,0.021,1.777
10564000,0.891,0.022,1.784
10568000,0.893,0.031,1.795
10572000,0.898,0.029,1.79
10580000,0.899,0.033,1.788
10584000,0.896,0.033,1.791
10588000,0.903,0.026,1.787
10592000,0.891,0.039,1.784
10596000,0.904,0.03,1.783
10604000,0.902,0.034,1.792
10608000,0.897,0.036,1.786
10612000,0.895,0.029,1.792
10616000,0.898,0.029,1.788
10620000,0.897,0.041,1.783
10628000,0.895,0.03,1.781
10632000,0.894,0.029,1.798
10636000,0.897,0.037,1.786
10640000,0.903,0.034,1.794
10644000,0.898,0.031,1.783
10648000,0.897,0.03,1.781
10652000,0.889,0.033,1.791
10656000,0.897,0.032,1.782
10664000,0.89,0.032,1.789
10668000,0.899,0.033,1.787
10672000,0.887,0.032,1.784
10680000,0.892,0.031,1.785
10688000,0.89,0.022,1.785
10696000,0.902,0.032,1.791
10700000,0.888,0.031,1.782
10704000,0.9,0.036,1.792
10708000,0.893,0.02,1.781
10712000,0.898,0.035,1.783
10720000,0.904,0.024,1.782
10724000,0.89,0.034,1.788
10728000,0.886,0.037,1.786
10732000,0.897,0.034,1.789
10736000,0.899,0.033,1.783
10740000,0.896,0.028,1.782
10744000,0.899,0.028,1.781
10748000,0.902,0.022,1.782
10756000,0.899,0.036,1.79
10764000,0.901,0.038,1.781
10768000,0.902,0.028,1.797
10772000,0.89,0.037,1.799
10776000,0.897,0.03,1.784
10780000,0.894,0.026,1.782
10784000,0.901,0.03,1.791
10792000,0.897,0.035,1.787
10796000,0.895,0.035,1.789
10804000,0.898,0.029,1.783
10808000,0.896,0.027,1.796
10812000,0.899,0.035,1.782
10816000,0.896,0.036,1.798
10820000,0.906,0.036,1.794
10828000,0.905,0.032,1.789
10832000,0.902,0.027,1.793
10836000,0.9,0.02,1.78
10844000,0.891,0.036,1.783
10848000,0.891,0.029,1.79
10856000,0.891,0.042,1.786
10860000,0.894,0.038,1.784
10864000,0.9,0.036,1.784
10868000,0.895,0.026,1.797
10872000,0.891,0.036,1.785
10876000,0.905,0.033,1.782
10884000,0.905,0.037,1.786
10888000,0.902,0.032,1.781
10892000,0.893,0.034,1.787
10896000,0.894,0.03,1.791
10900000,0.897,0.031,1.788
10908000,0.901,0.033,1.794
10916000,0.904,0.036,1.784
10920000,0.902,0.029,1.791
10928000,0.892,0.036,1.796
10932000,0.892,0.032,1.783
10936000,0.889,0.032,1.796
10940000,0.897,0.031,1.793
10944000,0.903,0.035,1.783
10952000,0.901,0.041,1.778
10956000,0.893,0.027,1.794
10960000,0.9,0.029,1.784
10964000,0.898,0.039,1.787
10972000,0.895,0.034,1.788
10976000,0.9,0.027,1.782
10980000,0.895,0.026,1.787
10988000,0.893,0.026,1.788
10992000,0.898,0.035,1.774
10996000,0.892,0.027,1.781
11004000,0.906,0.033,1.782
11008000,0.904,0.034,1.798
11012000,0.897,0.032,1.792
11020000,0.901,0.038,1.789
11028000,0.897,0.03,1.789
11032000,0.896,0.023,1.788
11036000,0.897,0.028,1.786
11044000,0.896,0.035,1.789
11048000,0.896,0.036,1.789
11052000,0.905,0.025,1.779
11056000,0.898,0.034,1.786
11060000,0.896,0.041,1.78
11064000,0.899,0.036,1.792
11068000,0.886,0.041,1.784
11072000,0.898,0.031,1.787
11080000,0.897,0.029,1.788
11084000,0.886,0.035,1.786
11088000,0.894,0.036,1.783
11092000,0.9,0.032,1.782
11096000,0.901,0.042,1.789
11100000,0.905,0.035,1.783
11104000,0.89,0.037,1.783
11112000,0.904,0.026,1.796
11116000,0.894,0.034,1.788
11120000,0.896,0.036,1.787
11128000,0.899,0.034,1.785
11132000,0.892,0.039,1.785
11136000,0.902,0.033,1.795
11144000,0.902,0.031,1.785
11148000,0.894,0.024,1.782
11152000,0.898,0.035,1.79
11156000,0.901,0.035,1.789
11160000,0.896,0.028,1.794
11164000,0.896,0.031,1.784
11172000,0.889,0.036,1.789
11176000,0.896,0.03,1.793
11180000,0.902,0.037,1.801
11184000,0.895,0.038,1.783
11188000,0.901,0.033,1.788
11196000,0.893,0.037,1.788
11200000,0.896,0.036,1.782
11204000,0.903,0.028,1.789
11212000,0.893,0.035,1.781
11216000,0.896,0.034,1.797
11220000,0.894,0.039,1.795
11224000,0.894,0.034,1.786
11228000,0.899,0.033,1.781
11232000,0.896,0.037,1.786
11236000,0.892,0.029,1.788
11244000,0.892,0.021,1.799
11252000,0.897,0.035,1.78
11260000,0.896,0.024,1.785
11264000,0.907,0.034,1.789
11268000,0.893,0.037,1.79
11276000,0.893,0.038,1.788
11280000,0.903,0.021,1.786
11284000,0.901,0.035,1.784
11288000,0.897,0.035,1.779
11296000,0.891,0.026,1.788
11300000,0.898,0.032,1.784
11308000,0.9,0.036,1.786
11312000,0.902,0.028,1.783
11316000,0.901,0.023,1.784
11320000,0.892,0.035,1.791
11324000,0.892,0.033,1.792
11328000,0.905,0.039,1.777
11332000,0.891,0.03,1.785
11336000,0.889,0.033,1.792
11340000,0.886,0.033,1.786
11344000,0.9,0.022,1.79
11352000,0.896,0.034,1.782
11356000,0.891,0.033,1.79
11360000,0.901,0.037,1.794
11364000,0.908,0.038,1.782
11368000,0.899,0.023,1.798
11372000,0.908,0.039,1.784
11376000,0.902,0.04,1.792
11384000,0.895,0.029,1.782
11388000,0.904,0.034,1.785
11392000,0.902,0.036,1.792
11396000,0.91,0.029,1.792
11404000,0.9,0.031,1.796
11408000,0.896,0.028,1.785
11412000,0.896,0.026,1.782
11416000,0.89,0.033,1.789
11424000,0.898,0.034,1.79
11428000,0.891,0.037,1.776
11432000,0.896,0.039,1.788
11440000,0.905,0.03,1.788
11444000,0.903,0.028,1.788
11448000,0.897,0.036,1.781
11452000,0.899,0.036,1.787
11456000,0.891,0.029,1.788
11460000,0.9,0.036,1.786
11464000,0.889,0.033,1.788
11472000,0.896,0.026,1.787
11476000,0.904,0.034,1.781
11480000,0.896,0.034,1.784
11484000,0.896,0.031,1.782
11488000,0.899,0.039,1.796
11492000,0.904,0.035,1.793
11496000,0.895,0.029,1.792
11500000,0.896,0.034,1.791
11504000,0.9,0.031,1.781
11508000,0.901,0.039,1.793
11512000,0.896,0.033,1.791
11520000,0.9,0.028,1.789
11524000,0.903,0.031,1.78
11528000,0.901,0.029,1.789
11532000,0.894,0.04,1.79
11536000,0.898,0.035,1.783
11540000,0.894,0.027,1.789
11548000,0.895,0.039,1.784
11552000,0.893,0.028,1.79
11556000,0.896,0.025,1.794
11564000,0.895,0.039,1.791
11568000,0.899,0.035,1.788
11572000,0.888,0.041,1.788
11576000,0.896,0.026,1.779
11580000,0.893,0.024,1.791
11584000,0.894,0.035,1.785
11588000,0.897,0.038,1.787
11592000,0.895,0.036,1.789
11600000,0.891,0.031,1.783
11604000,0.903,0.045,1.784
11608000,0.9,0.034,1.78
11612000,0.892,0.026,1.792
11616000,0.902,0.023,1.778
11620000,0.9,0.035,1.784
11624000,0.893,0.04,1.784
11632000,0.893,0.03,1.792
11636000,0.896,0.026,1.781
11644000,0.899,0.036,1.785
11648000,0.907,0.041,1.791
11652000,0.897,0.045,1.781
11656000,0.89,0.029,1.789
11664000,0.904,0.034,1.792
11668000,0.904,0.04,1.788
11676000,0.9,0.036,1.779
11680000,0.892,0.038,1.797
11684000,0.899,0.038,1.792
11688000,0.889,0.034,1.784
11692000,0.905,0.033,1.788
11700000,0.891,0.041,1.783
11704000,0.894,0.031,1.786
11708000,0.906,0.033,1.788
11712000,0.901,0.037,1.785
11720000,0.906,0.032,1.788
11728000,0.896,0.026,1.794
11732000,0.895,0.044,1.786
11736000,0.895,0.029,1.786
11740000,0.898,0.025,1.791
11744000,0.9,0.036,1.779
11748000,0.902,0.035,1.784
11756000,0.894,0.03,1.779
11760000,0.906,0.035,1.791
11764000,0.891,0.032,1.789
11768000,0.899,0.036,1.796
11772000,0.897,0.033,1.792
11780000,0.892,0.039,1.783
11784000,0.889,0.026,1.787
11788000,0.897,0.031,1.785
11792000,0.897,0.029,1.795
11796000,0.896,0.035,1.785
11800000,0.895,0.043,1.787
11804000,0.898,0.033,1.778
11808000,0.898,0.04,1.782
11816000,0.892,0.044,1.787
11824000,0.895,0.032,1.788
11828000,0.901,0.026,1.783
11832000,0.899,0.038,1.792
11836000,0.897,0.04,1.782
11840000,0.901,0.031,1.777
11848000,0.892,0.036,1.784
