timestamp,lat,lon,alt,alt_ellipsoid,delta_alt,vel_n,vel_e,vel_d,yaw,eph,epv,terrain_alt,lat_lon_reset_counter,alt_reset_counter,terrain_alt_valid,dead_reckoning
15884000,47.3977419022,8.54559398849,487.996,0.00836182,-0.0,-0.00131543,-0.00124301,-0.00637041,0.00721496,2.30111,2.40137,0.0,2,0,0,0
16076000,47.3977418982,8.54559401455,487.997,0.00860596,-0.0,-0.00240062,-0.000765349,-0.00820265,0.00675826,2.30014,2.40141,0.0,2,0,0,0
16268000,47.3977418973,8.54559402318,487.998,0.0100403,-0.0,-0.00367107,0.000832553,-0.00759152,0.00687451,2.30053,2.40161,0.0,2,0,0,0
16460000,47.3977418971,8.54559402135,487.999,0.0101624,-0.0,-0.00449016,0.0013207,-0.00813795,0.00692718,2.29997,2.40159,0.0,2,0,0,0
16652000,47.3977418915,8.54559402399,487.997,0.00891113,-0.0,-0.00679051,0.00425587,-0.0072974,0.00678322,2.29956,2.4017,0.0,2,0,0,0
16844000,47.3977418789,8.54559402938,487.997,0.00796509,-0.0,-0.00793361,0.00419795,-0.00647156,0.00704601,2.29925,2.40163,0.0,2,0,0,0
17036000,47.3977418692,8.5455940478,487.997,0.00823975,-0.0,-0.008742,0.00434361,-0.00501503,0.0066499,2.29902,2.40153,0.0,2,0,0,0
17228000,47.3977418728,8.54559407064,487.997,0.00772095,-0.0,-0.0103749,0.00637579,-0.00699652,0.00693967,2.29884,2.40156,0.0,2,0,0,0
17420000,47.3977418766,8.54559408702,487.997,0.00741577,-0.0,-0.0150131,0.00419017,-0.00776023,0.00694328,2.2987,2.40143,0.0,2,0,0,0
17612000,47.39774187,8.54559408309,487.996,0.00662231,-0.0,-0.0204512,0.00381181,-0.0077203,0.00683082,2.29859,2.40128,0.0,2,0,0,0
17804000,47.3977418531,8.54559406815,487.997,0.00732422,-0.0,-0.0226458,0.00359157,-0.00753493,0.00683816,2.29851,2.40112,0.0,2,0,0,0
17996000,47.3977418367,8.54559404911,487.998,0.00836182,-0.0,-0.0258097,0.00248583,-0.00810415,0.00678076,2.29844,2.40111,0.0,2,0,0,0
18188000,47.3977418158,8.54559402308,487.999,0.00976562,-0.0,-0.0316415,-0.00264598,-0.00818129,0.00666016,2.29838,2.40095,0.0,2,0,0,0
18380000,47.3977417898,8.54559398589,488.0,0.0102539,-0.0,-0.0355712,-0.00400912,-0.00805758,0.00678698,2.29834,2.40079,0.0,2,0,0,0
18572000,47.397741758,8.54559396436,487.999,0.00875854,-0.0,-0.0380629,-0.00411426,-0.00562028,0.00686444,2.2983,2.40064,0.0,2,0,0,0
18764000,47.3977417396,8.54559393818,487.998,0.00747681,-0.0,-0.0375104,-0.00503553,-0.00396666,0.00682464,2.29915,2.40072,0.0,2,0,0,0
18956000,47.3977417368,8.54559390753,487.997,0.00665283,-0.0,-0.0351219,-0.00724535,-0.00289541,0.00683,2.29912,2.40057,0.0,2,0,0,0
19148000,47.3977417432,8.54559387947,487.996,0.00518799,-0.0,-0.0351727,-0.00871937,-0.000237291,0.00705907,2.29909,2.40043,0.0,2,0,0,0
19340000,47.3977417457,8.54559387706,487.995,0.00396729,-0.0,-0.0360067,-0.00786211,0.0014872,0.00742314,2.29905,2.40031,0.0,2,0,0,0
19532000,47.3977417388,8.54559386115,487.994,0.00292969,-0.0,-0.0326086,-0.00861404,0.00340278,0.00725396,2.29901,2.40032,0.0,2,0,0,0
19724000,47.397741732,8.54559383696,487.993,0.00183105,-0.0,-0.0312199,-0.00909836,0.00327783,0.00735677,2.29897,2.40021,0.0,2,0,0,0
19916000,47.3977417224,8.5455938081,487.991,0.000701904,-0.0,-0.0295054,-0.0110267,0.00434056,0.00741041,2.29892,2.40012,0.0,2,0,0,0
20108000,47.3977417207,8.54559378354,487.99,-0.00100708,-0.0,-0.0264136,-0.010404,0.00594937,0.00731959,2.29887,2.40016,0.0,2,0,0,0
20300000,47.3977417244,8.54559375686,487.987,-0.00384521,-0.0,-0.0244464,-0.0101678,0.00796506,0.00745318,2.29881,2.40008,0.0,2,0,0,0
20500000,47.3977417339,8.54559374755,487.985,-0.00543213,-0.0,-0.02068,-0.00814223,0.00858336,0.00722869,2.29883,2.40007,0.0,2,0,0,0
20692000,47.3977417632,8.54559375358,487.985,-0.00585938,-0.0,-0.0178385,-0.00758905,0.00709288,0.00667055,2.29876,2.40001,0.0,2,0,0,0
20884000,47.3977417957,8.54559376668,487.984,-0.0067749,-0.0,-0.0130527,-0.00591945,0.00746925,0.00663036,2.29869,2.39996,0.0,2,0,0,0
21076000,47.3977418139,8.54559378029,487.983,-0.00735474,-0.0,-0.00912984,-0.00627791,0.00830863,0.00629414,2.29861,2.40004,0.0,2,0,0,0
21268000,47.3977418275,8.5455937949,487.983,-0.0067749,-0.0,-0.00953922,-0.00541103,0.00745367,0.00615765,2.29949,2.4001,0.0,2,0,0,0
21468000,47.3977418434,8.54559381422,487.984,-0.00585938,-0.0,-0.00833644,-0.00443427,0.00787096,0.00608869,2.29948,2.40012,0.0,2,0,0,0
21660000,47.3977418583,8.54559383232,487.985,-0.00527954,-0.0,-0.00568027,-0.00224615,0.00687466,0.00559304,2.29938,2.4001,0.0,2,0,0,0
21852000,47.3977418709,8.54559384751,487.983,-0.00637817,-0.0,-0.0068247,-0.00169756,0.00797242,0.00542565,2.29929,2.40008,0.0,2,0,0,0
22052000,47.3977418795,8.54559385455,487.982,-0.00802612,-0.0,-0.00442544,-0.00238949,0.00997308,0.00598536,2.29926,2.40012,0.0,2,0,0,0
22244000,47.397741879,8.54559387482,487.981,-0.00796509,-0.0,-0.00521521,0.000105786,0.00786711,0.00622658,2.29917,2.4001,0.0,2,0,0,0
22436000,47.397741869,8.54559388862,487.983,-0.00634766,-0.0,-0.00630027,0.00151031,0.00512886,0.00619551,2.29907,2.40021,0.0,2,0,0,0
22628000,47.3977418655,8.54559389859,487.984,-0.00537109,-0.0,-0.00868601,0.00303134,0.00532245,0.00596887,2.29897,2.40019,0.0,2,0,0,0
22820000,47.3977418708,8.54559391369,487.985,-0.00378418,-0.0,-0.0077208,0.00512999,0.00500813,0.00584926,2.29888,2.40018,0.0,2,0,0,0
23012000,47.3977418802,8.54559393452,487.986,-0.00332642,-0.0,-0.00766548,0.00738614,0.00546074,0.00627261,2.29878,2.40016,0.0,2,0,0,0
23204000,47.3977418905,8.54559396903,487.987,-0.0015564,-0.0,-0.0057755,0.0110289,0.00398524,0.00660191,2.29869,2.40027,0.0,2,0,0,0
23396000,47.3977419005,8.54559399875,487.989,-0.00012207,-0.0,-0.00417438,0.0108792,0.00319395,0.00688067,2.2986,2.40025,0.0,2,0,0,0
23588000,47.3977419126,8.54559402336,487.99,0.000579834,-0.0,-0.00380864,0.0115327,0.0007332,0.0070377,2.29851,2.40023,0.0,2,0,0,0
23780000,47.3977419256,8.54559404915,487.991,0.00192261,-0.0,-0.00333569,0.012029,-0.00115819,0.00702907,2.29842,2.40033,0.0,2,0,0,0
23972000,47.3977419304,8.54559407728,487.992,0.00250244,-0.0,-0.00243543,0.015076,0.000426851,0.00684929,2.29833,2.4003,0.0,2,0,0,0
24164000,47.3977419434,8.54559410514,487.991,0.00186157,-0.0,-6.01577e-05,0.0139809,5.98156e-05,0.00706734,2.29911,2.40038,0.0,2,0,0,0
24364000,47.3977419621,8.54559412782,487.99,0.00131226,-0.0,0.00322097,0.0145876,-0.000227791,0.00716801,2.29909,2.4004,0.0,2,0,0,0
24556000,47.3977419767,8.54559416011,487.991,0.00180054,-0.0,0.00227378,0.0147866,-0.000342575,0.00700226,2.29899,2.40037,0.0,2,0,0,0
24748000,47.3977419818,8.54559419065,487.991,0.00146484,-0.0,0.00320929,0.0148343,-0.00103971,0.00646855,2.2989,2.40046,0.0,2,0,0,0
24940000,47.3977419858,8.54559421017,487.989,-0.000183105,-0.0,0.00212002,0.0147197,-0.000177453,0.00615678,2.29882,2.40043,0.0,2,0,0,0
25132000,47.3977419886,8.54559421076,487.989,-0.000671387,-0.0,0.00046306,0.013082,0.0014478,0.00598915,2.29873,2.40039,0.0,2,0,0,0
25324000,47.3977419783,8.5455942043,487.988,-0.00112915,-0.0,0.000208228,0.0135063,0.00107311,0.00597104,2.29865,2.40035,0.0,2,0,0,0
25516000,47.3977419638,8.5455942022,487.988,-0.00152588,-0.0,-0.0012267,0.0136622,0.00106186,0.00614017,2.29856,2.40044,0.0,2,0,0,0
25708000,47.3977419509,8.54559419906,487.988,-0.0015564,-0.0,-0.00189269,0.0126387,0.00101676,0.00618488,2.29848,2.4004,0.0,2,0,0,0
25900000,47.3977419344,8.54559418748,487.987,-0.00186157,-0.0,-0.00406623,0.0121377,-0.00166566,0.00618452,2.29841,2.40035,0.0,2,0,0,0
26092000,47.3977419211,8.54559417123,487.987,-0.00238037,-0.0,-0.00367144,0.00914168,-0.00150559,0.00607252,2.29833,2.40031,0.0,2,0,0,0
26284000,47.3977419097,8.5455941465,487.986,-0.00259399,-0.0,-0.00394204,0.00598526,-0.00133413,0.00609241,2.29825,2.4004,0.0,2,0,0,0
26476000,47.3977418967,8.54559411494,487.988,-0.00100708,-0.0,-0.00523588,0.00597299,-0.00255804,0.00636064,2.29818,2.40035,0.0,2,0,0,0
26668000,47.3977418848,8.54559407003,487.991,0.00231934,-0.0,-0.00717589,0.000474434,-0.00457666,0.00612848,2.29893,2.40041,0.0,2,0,0,0
26860000,47.3977418721,8.54559402053,487.994,0.00527954,-0.0,-0.00692609,-0.00154812,-0.00587142,0.00652082,2.29885,2.40049,0.0,2,0,0,0
27052000,47.3977418703,8.54559399405,487.996,0.00692749,-0.0,-0.00669469,-0.00302915,-0.00351749,0.00681473,2.29877,2.40045,0.0,2,0,0,0
27244000,47.3977418714,8.54559398069,487.996,0.00692749,-0.0,-0.00708321,-0.00380941,-0.00284981,0.00681006,2.29869,2.4004,0.0,2,0,0,0
27436000,47.3977418732,8.54559396553,487.997,0.00759888,-0.0,-0.0101187,-0.00500512,-0.00306206,0.00692688,2.29862,2.40035,0.0,2,0,0,0
27628000,47.3977418735,8.54559394269,487.998,0.00796509,-0.0,-0.010315,-0.00745448,-0.00237698,0.00713077,2.29854,2.40043,0.0,2,0,0,0
27820000,47.3977418719,8.54559391414,487.997,0.00744629,-0.0,-0.0102422,-0.00772085,-0.0012628,0.00748452,2.29847,2.40038,0.0,2,0,0,0
28012000,47.3977418737,8.54559388564,487.998,0.00778198,-0.0,-0.00932333,-0.00839879,-0.00355941,0.00712575,2.2984,2.40033,0.0,2,0,0,0
28204000,47.3977418664,8.54559386845,487.998,0.00808716,-0.0,-0.01178,-0.00831015,-0.00173932,0.00689907,2.29833,2.40041,0.0,2,0,0,0
28396000,47.3977418631,8.5455938725,487.994,0.00378418,-0.0,-0.0113178,-0.00818663,-0.000321426,0.0067514,2.29826,2.40036,0.0,2,0,0,0
28588000,47.3977418685,8.5455938742,487.991,0.000915527,-0.0,-0.0115352,-0.0089651,0.00131577,0.0065931,2.29819,2.40032,0.0,2,0,0,0
28780000,47.3977418775,8.54559386917,487.989,-0.00170898,-0.0,-0.00651613,-0.00755847,0.000397439,0.00691728,2.29812,2.4004,0.0,2,0,0,0
28972000,47.3977418896,8.54559385343,487.987,-0.00274658,-0.0,-0.00553066,-0.00651057,0.00249308,0.00670626,2.29805,2.40035,0.0,2,0,0,0
29164000,47.3977418977,8.54559384483,487.987,-0.00357056,-0.0,-0.00640555,-0.00796792,0.00165685,0.00696208,2.29878,2.4004,0.0,2,0,0,0
29356000,47.397741902,8.545593834,487.985,-0.00500488,-0.0,-0.0057176,-0.00857532,0.00446875,0.00665433,2.29871,2.40035,0.0,2,0,0,0
29548000,47.3977419088,8.54559381992,487.984,-0.0062561,-0.0,-0.00549984,-0.0101779,0.00589618,0.00634382,2.29863,2.40044,0.0,2,0,0,0
29740000,47.3977419168,8.54559380909,487.984,-0.00610352,-0.0,-0.00435583,-0.0116743,0.00818115,0.00662938,2.29856,2.40039,0.0,2,0,0,0
29940000,47.3977419242,8.54559380814,487.983,-0.00683594,-0.0,-0.00487503,-0.0106464,0.00851241,0.00671354,2.29855,2.4004,0.0,2,0,0,0
30132000,47.3977419333,8.54559382791,487.979,-0.0102539,-0.0,-0.00449182,-0.00912744,0.00895681,0.00693197,2.29848,2.40035,0.0,2,0,0,0
30324000,47.3977419371,8.54559386401,487.979,-0.00991821,-0.0,-0.00639495,-0.00640535,0.00657932,0.00708412,2.29841,2.40043,0.0,2,0,0,0
30516000,47.3977419336,8.5455938983,487.98,-0.0090332,-0.0,-0.00540308,-0.00259846,0.00590593,0.00710004,2.29835,2.40039,0.0,2,0,0,0
30708000,47.3977419337,8.5455939312,487.982,-0.00750732,-0.0,-0.00294342,0.000798796,0.0056671,0.00733389,2.29828,2.40034,0.0,2,0,0,0
30900000,47.3977419437,8.54559396486,487.983,-0.00634766,-0.0,-0.00131615,0.00553809,0.0056558,0.00746888,2.29821,2.4003,0.0,2,0,0,0
31092000,47.3977419596,8.54559398044,487.984,-0.00497437,-0.0,0.00173009,0.00827722,0.00531576,0.00766833,2.29815,2.40038,0.0,2,0,0,0
31284000,47.3977419767,8.5455939939,487.985,-0.00350952,-0.0,0.00135997,0.0113441,0.00300148,0.00773077,2.29808,2.40034,0.0,2,0,0,0
31476000,47.3977419919,8.5455940061,487.988,-0.000976562,-0.0,0.00533203,0.0150644,0.0040723,0.00808647,2.29802,2.40029,0.0,2,0,0,0
31676000,47.3977420043,8.54559402044,487.989,0.000152588,-0.0,0.0084372,0.0183696,0.00382016,0.00836591,2.29801,2.4003,0.0,2,0,0,0
31868000,47.3977420101,8.54559404221,487.989,-9.15527e-05,-0.0,0.00721552,0.0209119,0.00478847,0.00912189,2.29873,2.40036,0.0,2,0,0,0
32060000,47.3977420105,8.54559408058,487.987,-0.00189209,-0.0,0.00936415,0.0246374,0.00475096,0.00937595,2.29866,2.40045,0.0,2,0,0,0
32252000,47.3977420059,8.54559411061,487.987,-0.00164795,-0.0,0.00795282,0.0257536,0.00202558,0.00921862,2.29859,2.4004,0.0,2,0,0,0
32444000,47.3977420039,8.54559414278,487.988,-0.000305176,-0.0,0.00658647,0.0262412,0.00141959,0.0092462,2.29852,2.40036,0.0,2,0,0,0
32636000,47.3977419995,8.54559417998,487.99,0.000915527,-0.0,0.00360628,0.0247624,-0.000361686,0.00894948,2.29845,2.40032,0.0,2,0,0,0
32828000,47.397741991,8.54559421325,487.99,0.0010376,-0.0,-0.00069044,0.0250244,-0.000919631,0.00862977,2.29839,2.4004,0.0,2,0,0,0
33020000,47.3977419806,8.54559424789,487.99,0.00180054,-0.0,7.73272e-05,0.0250378,-0.00283733,0.00891365,2.29832,2.40036,0.0,2,0,0,0
33212000,47.3977419795,8.54559426158,487.988,-0.000305176,-0.0,-0.00134982,0.0229753,-0.00408338,0.00965895,2.29825,2.40031,0.0,2,0,0,0
33404000,47.3977419829,8.5455942442,487.986,-0.0022583,-0.0,-0.00216445,0.0217703,-0.00445515,0.00964712,2.29819,2.4004,0.0,2,0,0,0
33596000,47.397741989,8.54559421932,487.985,-0.00311279,-0.0,-0.00121087,0.0204854,-0.00355668,0.00933636,2.29813,2.40035,0.0,2,0,0,0
33788000,47.3977419836,8.54559419687,487.987,-0.00152588,-0.0,-0.00121887,0.0199668,-0.00440439,0.00933281,2.29806,2.40031,0.0,2,0,0,0
33980000,47.3977419715,8.54559418432,487.988,-0.000549316,-0.0,-0.00270181,0.0185039,-0.00610598,0.00865442,2.298,2.40039,0.0,2,0,0,0
34172000,47.3977419539,8.54559416797,487.989,0.000305176,-0.0,-0.00388479,0.0171208,-0.00718006,0.008722,2.29794,2.40034,0.0,2,0,0,0
34364000,47.3977419463,8.54559414929,487.99,0.00112915,-0.0,-0.00289463,0.0151902,-0.00598393,0.00904015,2.29864,2.4004,0.0,2,0,0,0
34556000,47.3977419463,8.54559414413,487.991,0.00201416,-0.0,-0.00198742,0.0164496,-0.0051104,0.00889057,2.29857,2.40048,0.0,2,0,0,0
34748000,47.397741944,8.54559414264,487.992,0.00378418,-0.0,-0.000899627,0.0158321,-0.00716969,0.00861853,2.29851,2.40044,0.0,2,0,0,0
34940000,47.3977419412,8.54559414681,487.992,0.00341797,-0.0,0.000867511,0.0145617,-0.00749161,0.008681,2.29844,2.40039,0.0,2,0,0,0
35132000,47.3977419399,8.54559415657,487.991,0.00234985,-0.0,0.000163753,0.012735,-0.0082809,0.00847282,2.29838,2.40034,0.0,2,0,0,0
35324000,47.3977419387,8.54559415487,487.991,0.00170898,-0.0,0.000590503,0.0117836,-0.00701854,0.00865972,2.29831,2.40043,0.0,2,0,0,0
35516000,47.3977419431,8.54559415628,487.99,0.00134277,-0.0,0.00124369,0.00987412,-0.0071518,0.00851031,2.29825,2.40038,0.0,2,0,0,0
35708000,47.3977419496,8.54559415905,487.991,0.00228882,-0.0,0.000824777,0.00793873,-0.0102578,0.00865498,2.29819,2.40034,0.0,2,0,0,0
35900000,47.3977419528,8.54559414173,487.991,0.00247192,-0.0,-0.00125202,0.00998557,-0.0115953,0.00890683,2.29812,2.4003,0.0,2,0,0,0
36092000,47.3977419477,8.54559412244,487.992,0.00323486,-0.0,-0.00151416,0.00626941,-0.0110878,0.00922099,2.29806,2.40038,0.0,2,0,0,0
36284000,47.3977419373,8.54559411096,487.993,0.00439453,-0.0,-0.00134577,0.00716099,-0.0113329,0.00940721,2.298,2.40034,0.0,2,0,0,0
36476000,47.3977419263,8.5455940906,487.995,0.00634766,-0.0,-0.00147343,0.00523924,-0.011017,0.0087554,2.29794,2.4003,0.0,2,0,0,0
36668000,47.3977419164,8.54559406651,488.002,0.0125427,-0.0,-0.00321869,0.00122123,-0.0922582,0.00880991,2.29864,2.40035,0.0,2,0,0,0
36860000,47.3977419108,8.54559405079,488.045,0.0551758,-0.0,-0.00050525,0.00181526,-0.338626,0.00844378,2.29858,2.40044,0.0,2,0,0,0
37052000,47.3977419074,8.54559403601,488.132,0.139771,-0.0,0.00256871,0.0050824,-0.587135,0.00854287,2.29852,2.4004,0.0,2,0,0,0
37244000,47.397741907,8.5455940612,488.262,0.266266,-0.0,0.00357534,0.00820211,-0.841626,0.00827023,2.29846,2.40035,0.0,2,0,0,0
37436000,47.3977419151,8.54559407987,488.439,0.43515,-0.0,0.0037926,0.00930595,-1.09693,0.00859346,2.29841,2.40044,0.0,2,0,0,0
37628000,47.3977419314,8.54559410757,488.664,0.648254,-0.0,0.00642578,0.00980343,-1.35406,0.00867049,2.29836,2.4004,0.0,2,0,0,0
37820000,47.3977419609,8.54559414098,488.937,0.904785,-0.0,0.00380246,0.0107465,-1.60917,0.0082028,2.29832,2.40035,0.0,2,0,0,0
38012000,47.39774199,8.54559417296,489.259,1.21732,-0.0,0.00250294,0.00559804,-1.86261,0.00867263,2.29827,2.4003,0.0,2,0,0,0
38204000,47.3977420233,8.54559420818,489.634,1.57169,-0.0,0.000919893,0.00208496,-2.11511,0.00835479,2.29823,2.40039,0.0,2,0,0,0
38404000,47.3977420709,8.54559425987,490.079,1.99683,-0.0,0.00272334,0.00535613,-2.3731,0.00457356,2.29824,2.40039,0.0,2,0,0,0
38596000,47.3977421189,8.54559430988,490.554,2.45203,-0.0,0.000262473,0.00305835,-2.49953,0.00497627,2.29815,2.40035,0.0,2,0,0,0
38788000,47.3977421602,8.54559435562,491.018,2.89569,-0.0,-0.00509077,0.00358683,-2.30805,0.00608522,2.29804,2.40043,0.0,2,0,0,0
38980000,47.3977421959,8.54559439302,491.451,3.30872,-0.0,-0.00803768,-0.00152267,-2.13924,0.00770265,2.29794,2.40038,0.0,2,0,0,0
39172000,47.3977422262,8.54559442433,491.862,3.69952,-0.0,-0.010533,-0.00351226,-1.99078,0.00867968,2.29785,2.40033,0.0,2,0,0,0
39364000,47.3977422426,8.54559445742,492.246,4.06335,-0.0,-0.0140747,-0.00527797,-1.86782,0.0095659,2.29857,2.40038,0.0,2,0,0,0
39556000,47.3977422457,8.54559449354,492.609,4.4064,-0.0,-0.0167415,-0.00730478,-1.77251,0.00952714,2.2986,2.40047,0.0,2,0,0,0
39756000,47.3977422495,8.54559451673,492.969,4.74643,-0.0,-0.0172753,-0.00747993,-1.69025,0.00949414,2.29876,2.40047,0.0,2,0,0,0
39948000,47.397742252,8.54559455601,493.298,5.05609,-0.0,-0.0188398,-0.00969237,-1.62934,0.00908964,2.29887,2.40043,0.0,2,0,0,0
40140000,47.397742243,8.54559458041,493.615,5.35306,-0.0,-0.0200959,-0.0144004,-1.58634,0.00878608,2.29899,2.40038,0.0,2,0,0,0
40332000,47.3977422219,8.54559456317,493.924,5.64212,-0.0,-0.021342,-0.0155749,-1.56424,0.00875912,2.29911,2.40033,0.0,2,0,0,0
40524000,47.3977421991,8.54559455076,494.23,5.92786,-0.0,-0.0200012,-0.0174258,-1.54705,0.00809708,2.29919,2.40042,0.0,2,0,0,0
40724000,47.3977421564,8.54559454806,494.544,6.22192,-0.0,-0.0241401,-0.0171229,-1.5294,0.00801858,2.29935,2.40043,0.0,2,0,0,0
40916000,47.3977421009,8.54559455995,494.84,6.49792,-0.0,-0.0195414,-0.0171152,-1.5149,0.00806875,2.29938,2.40038,0.0,2,0,0,0
41108000,47.3977420486,8.54559457225,495.131,6.77817,-0.0,-0.0175157,-0.0159556,-1.50783,0.00853423,2.29937,2.40034,0.0,2,0,0,0
41300000,47.3977419954,8.54559455923,495.421,7.04849,-0.0,-0.0147806,-0.0173358,-1.50798,0.0089728,2.29934,2.4003,0.0,2,0,0,0
41492000,47.3977419423,8.54559456085,495.711,7.31873,-0.0,-0.01157,-0.0161451,-1.50284,0.00911821,2.29928,2.40038,0.0,2,0,0,0
41684000,47.3977418862,8.54559457623,496.0,7.58798,-0.0,-0.00675205,-0.0193143,-1.49764,0.00824826,2.29921,2.40034,0.0,2,0,0,0
41884000,47.3977418427,8.54559458817,496.302,7.86923,-0.0,-0.000680774,-0.0195996,-1.49452,0.00809398,2.29921,2.40035,0.0,2,0,0,0
42076000,47.3977418128,8.54559458948,496.587,8.1344,-0.0,0.00159496,-0.0215606,-1.49335,0.00811738,2.2991,2.40031,0.0,2,0,0,0
42268000,47.3977417931,8.54559459082,496.873,8.4007,-0.0,0.0072631,-0.0208692,-1.49416,0.00831574,2.3001,2.40036,0.0,2,0,0,0
42460000,47.3977417857,8.54559459726,497.159,8.66693,-0.0,0.010018,-0.0217468,-1.49097,0.0084502,2.29994,2.40045,0.0,2,0,0,0
42652000,47.3977417902,8.5455945854,497.444,8.93124,-0.0,0.0105955,-0.020798,-1.48967,0.00833642,2.29979,2.4004,0.0,2,0,0,0
42844000,47.3977417976,8.54559456582,497.73,9.19699,-0.0,0.0137793,-0.0212584,-1.49087,0.00770741,2.29963,2.40035,0.0,2,0,0,0
43036000,47.3977418159,8.54559455329,498.015,9.46246,-0.0,0.0144806,-0.0197864,-1.48614,0.00824921,2.29947,2.40044,0.0,2,0,0,0
43228000,47.3977418329,8.54559454179,498.3,9.72763,-0.0,0.0147634,-0.0197431,-1.53816,0.00919321,2.29931,2.40039,0.0,2,0,0,0
43420000,47.3977418475,8.54559454833,498.62,10.0277,-0.0,0.0107613,-0.0179013,-1.87031,0.00870773,2.29916,2.40035,0.0,2,0,0,0
43612000,47.3977418587,8.54559455979,499.03,10.4272,-0.0,0.011949,-0.0176947,-2.46577,0.0083484,2.29901,2.4003,0.0,2,0,0,0
43804000,47.397741875,8.54559456979,499.545,10.922,-0.0,0.0138442,-0.0147498,-2.94629,0.00844176,2.29887,2.40039,0.0,2,0,0,0
43996000,47.3977418891,8.54559459871,500.112,11.4696,-0.0,0.0144337,-0.00917254,-3.03697,0.00795655,2.29874,2.40034,0.0,2,0,0,0
44188000,47.397741907,8.54559465178,500.689,12.0262,-0.0,0.0122073,-0.0103454,-3.03995,0.00855957,2.29862,2.4003,0.0,2,0,0,0
44380000,47.3977419353,8.54559469879,501.273,12.5904,-0.0,0.0111847,-0.0146636,-3.0401,0.00843867,2.29849,2.40038,0.0,2,0,0,0
44572000,47.3977419498,8.54559473495,501.861,13.1584,-0.0,0.00833259,-0.0222439,-3.03283,0.0086978,2.29837,2.40034,0.0,2,0,0,0
44764000,47.3977419368,8.54559477029,502.45,13.7276,-0.0,0.00264779,-0.0265174,-3.02252,0.00869439,2.29911,2.40039,0.0,2,0,0,0
44956000,47.3977419095,8.54559481835,503.038,14.2955,-0.0,-0.000925247,-0.0298215,-3.01021,0.00867449,2.29897,2.40035,0.0,2,0,0,0
45148000,47.3977418767,8.54559486642,503.624,14.8609,-0.0,-0.00330038,-0.0333332,-3.00068,0.00871757,2.29884,2.40044,0.0,2,0,0,0
45340000,47.3977418509,8.54559490062,504.207,15.4241,-0.0,0.00150195,-0.0352495,-2.98702,0.00832626,2.29872,2.40039,0.0,2,0,0,0
45532000,47.3977418317,8.5455949328,504.787,15.984,-0.0,0.00408441,-0.0376887,-2.97868,0.00814925,2.2986,2.40035,0.0,2,0,0,0
45724000,47.3977418101,8.54559496502,505.363,16.5403,-0.0,0.00499026,-0.0421694,-2.97551,0.00845862,2.29849,2.40031,0.0,2,0,0,0
45916000,47.397741795,8.54559499186,505.938,17.0946,-0.0,0.00751291,-0.0448282,-2.97638,0.00884614,2.29839,2.40039,0.0,2,0,0,0
46116000,47.3977417838,8.54559499953,506.535,17.672,-0.0,0.0106051,-0.045529,-2.98142,0.00918421,2.29835,2.4004,0.0,2,0,0,0
46308000,47.3977417725,8.54559500517,507.111,18.2384,-0.0,0.0138701,-0.0421857,-2.98208,0.00926246,2.29825,2.40036,0.0,2,0,0,0
46500000,47.3977417654,8.54559500156,507.686,18.7932,-0.0,0.0150294,-0.0421597,-2.9839,0.00924002,2.29816,2.40032,0.0,2,0,0,0
46692000,47.3977417546,8.54559498685,508.26,19.347,-0.0,0.0165193,-0.0454591,-2.96956,0.00900912,2.29808,2.40027,0.0,2,0,0,0
46884000,47.39774174,8.54559496462,508.832,19.8995,-0.0,0.0170244,-0.0486099,-2.95381,0.00876354,2.298,2.40036,0.0,2,0,0,0
47076000,47.397741728,8.5455949285,509.4,20.4467,-0.0,0.0173558,-0.0445761,-2.93975,0.00875859,2.29793,2.40031,0.0,2,0,0,0
47268000,47.3977417315,8.54559489489,509.965,20.9923,-0.0,0.0211101,-0.0383679,-2.93379,0.00846283,2.2986,2.40037,0.0,2,0,0,0
47460000,47.3977417387,8.54559485983,510.531,21.5378,-0.0,0.0205096,-0.0376142,-2.9274,0.00888878,2.29853,2.40045,0.0,2,0,0,0
47652000,47.3977417342,8.54559481573,511.095,22.0822,-0.0,0.017511,-0.0404337,-2.91842,0.00884069,2.29846,2.40041,0.0,2,0,0,0
47844000,47.39774172,8.54559475237,511.658,22.6245,-0.0,0.0169745,-0.0374099,-2.91872,0.00901736,2.29839,2.40036,0.0,2,0,0,0
48036000,47.3977417142,8.54559467699,512.22,23.1666,-0.0,0.0170994,-0.0342764,-2.91556,0.00861419,2.29833,2.40044,0.0,2,0,0,0
48228000,47.3977417177,8.54559460237,512.782,23.709,-0.0,0.020735,-0.0308458,-2.91729,0.00906411,2.29826,2.40039,0.0,2,0,0,0
48420000,47.3977417211,8.54559453825,513.345,24.2521,-0.0,0.0226166,-0.0242492,-2.91611,0.00930532,2.29821,2.40035,0.0,2,0,0,0
48612000,47.3977417297,8.54559447111,513.907,24.8038,-0.0,0.0230836,-0.020807,-2.91896,0.00885223,2.29815,2.40043,0.0,2,0,0,0
48812000,47.3977417334,8.54559439854,514.491,25.3674,-0.0,0.0198631,-0.020139,-2.92632,0.00865133,2.29815,2.40031,0.0,2,0,0,0
49004000,47.3977417387,8.5455943275,515.052,25.9089,-0.0,0.0155972,-0.016296,-2.93776,0.00851662,2.2981,2.40039,0.0,2,0,0,0
49196000,47.39774175,8.54559425411,515.617,26.4541,-0.0,0.0185583,-0.0143829,-2.94312,0.00851546,2.29805,2.40035,0.0,2,0,0,0
49388000,47.3977417677,8.54559419033,516.184,27.0006,-0.0,0.0217089,-0.0104427,-2.94897,0.00872814,2.29799,2.4003,0.0,2,0,0,0
49580000,47.3977417804,8.54559413391,516.75,27.5472,-0.0,0.0177347,-0.0084519,-2.96154,0.0087764,2.29794,2.40038,0.0,2,0,0,0
49772000,47.3977417856,8.54559407396,517.318,28.0951,-0.0,0.0149691,-0.00514476,-2.97096,0.00881044,2.29789,2.40034,0.0,2,0,0,0
49964000,47.3977417871,8.54559400226,517.89,28.6465,-0.0,0.0135331,-0.00257633,-2.98015,0.00909905,2.29859,2.4004,0.0,2,0,0,0
50156000,47.3977417828,8.54559393869,518.462,29.1989,-0.0,0.0128604,-0.00102849,-2.98401,0.0089741,2.29854,2.40035,0.0,2,0,0,0
50356000,47.3977417814,8.54559386793,519.061,29.7776,-0.0,0.0114167,0.00330523,-2.98502,0.00861007,2.29854,2.40036,0.0,2,0,0,0
50548000,47.3977417858,8.54559379383,519.633,30.33,-0.0,0.0109249,0.00852226,-2.98483,0.00867068,2.29849,2.40045,0.0,2,0,0,0
50740000,47.3977417987,8.54559373323,520.209,30.8856,-0.0,0.0148941,0.0150514,-2.9883,0.00863587,2.29843,2.4004,0.0,2,0,0,0
50940000,47.3977418089,8.54559368309,520.807,31.4641,-0.0,0.0148079,0.0207774,-2.98673,0.00851756,2.29844,2.40041,0.0,2,0,0,0
51132000,47.3977418106,8.54559365103,521.382,32.0187,-0.0,0.014142,0.0243688,-2.98951,0.0085707,2.29838,2.40037,0.0,2,0,0,0
51332000,47.3977418106,8.54559361682,521.983,32.5996,-0.0,0.0139531,0.0251523,-2.98755,0.00872667,2.29838,2.40038,0.0,2,0,0,0
51524000,47.3977418038,8.54559359852,522.557,33.1539,-0.0,0.0116824,0.0270757,-2.9888,0.00894926,2.29832,2.40034,0.0,2,0,0,0
51716000,47.3977417942,8.5455936022,523.132,33.7081,-0.0,0.00932109,0.028461,-2.98674,0.00899265,2.29826,2.4003,0.0,2,0,0,0
51908000,47.3977417722,8.54559362003,523.703,34.2698,-0.0,0.00973619,0.0317121,-2.99072,0.00872218,2.2982,2.40038,0.0,2,0,0,0
52108000,47.3977417414,8.54559363764,524.299,34.8453,-0.0,0.0102772,0.0294483,-2.99853,0.00859999,2.2982,2.40039,0.0,2,0,0,0
52300000,47.3977417136,8.54559364426,524.872,35.3986,-0.0,0.0110862,0.0264679,-3.00332,0.00901595,2.29814,2.40035,0.0,2,0,0,0
52492000,47.397741694,8.54559366537,525.447,35.9532,-0.0,0.0128362,0.0269584,-3.00474,0.00876843,2.29808,2.40031,0.0,2,0,0,0
52684000,47.3977416741,8.54559368787,526.02,36.5066,-0.0,0.0161978,0.0249801,-3.00746,0.00857698,2.29802,2.40026,0.0,2,0,0,0
52876000,47.3977416519,8.54559370278,526.594,37.0608,-0.0,0.016851,0.0236017,-3.00197,0.0084062,2.29796,2.40035,0.0,2,0,0,0
53068000,47.3977416277,8.54559371241,527.169,37.6158,-0.0,0.0172062,0.0192759,-2.99271,0.00858156,2.29867,2.40041,0.0,2,0,0,0
53260000,47.3977416096,8.54559372381,527.744,38.1701,-0.0,0.015493,0.0150173,-2.97807,0.00887937,2.2986,2.40036,0.0,2,0,0,0
53460000,47.3977416044,8.54559374029,528.342,38.7484,-0.0,0.0191784,0.0168374,-2.9768,0.00895027,2.2986,2.40037,0.0,2,0,0,0
53652000,47.397741596,8.54559375551,528.915,39.3018,-0.0,0.0215131,0.0168023,-2.97381,0.00893676,2.29854,2.40033,0.0,2,0,0,0
53844000,47.3977415842,8.54559376371,529.487,39.853,-0.0,0.0203354,0.0149219,-2.97411,0.00850364,2.29847,2.40042,0.0,2,0,0,0
54036000,47.3977415719,8.54559379758,530.058,40.4041,-0.0,0.0230655,0.0192585,-2.96738,0.00872394,2.2984,2.40037,0.0,2,0,0,0
54228000,47.3977415666,8.54559383604,530.628,40.9541,-0.0,0.0265091,0.0204262,-2.96004,0.00888956,2.29834,2.40033,0.0,2,0,0,0
54420000,47.3977415699,8.54559384855,531.196,41.5023,-0.0,0.0298527,0.0171608,-2.95311,0.00902508,2.29828,2.40042,0.0,2,0,0,0
54612000,47.3977415784,8.5455938538,531.764,42.0604,-0.0,0.0286498,0.0141006,-2.94742,0.00864677,2.29821,2.40037,0.0,2,0,0,0
54804000,47.3977415862,8.54559385893,532.329,42.6057,-0.0,0.0273866,0.0134322,-2.94244,0.00866902,2.29815,2.40033,0.0,2,0,0,0
55004000,47.3977415948,8.54559387284,532.916,43.1727,-0.0,0.0264494,0.0135411,-2.94615,0.0086976,2.29815,2.40034,0.0,2,0,0,0
55204000,47.3977416079,8.54559388298,533.506,43.7422,-0.0,0.0282307,0.0136458,-2.94296,0.00852366,2.29814,2.40035,0.0,2,0,0,0
55396000,47.3977416242,8.54559388447,534.072,44.2883,-0.0,0.0290269,0.0124229,-2.94421,0.00852556,2.29808,2.40031,0.0,2,0,0,0
55588000,47.3977416381,8.54559387812,534.639,44.8356,-0.0,0.0259094,0.0103571,-2.93612,0.00868064,2.29802,2.40027,0.0,2,0,0,0
55780000,47.3977416436,8.54559387925,535.205,45.3813,-0.0,0.0231482,0.00930394,-2.93463,0.00859093,2.29796,2.40035,0.0,2,0,0,0
55972000,47.3977416463,8.54559385395,535.769,45.925,-0.0,0.0217067,0.00930244,-2.93138,0.00860783,2.2979,2.40031,0.0,2,0,0,0
56164000,47.3977416456,8.54559382011,536.333,46.4691,-0.0,0.024773,0.0088761,-2.93672,0.00878994,2.29859,2.40037,0.0,2,0,0,0
56356000,47.3977416608,8.54559379216,536.896,47.0123,-0.0,0.0264514,0.0140945,-2.93586,0.00869213,2.29853,2.40045,0.0,2,0,0,0
56548000,47.3977416934,8.54559377757,537.46,47.556,-0.0,0.0260368,0.0195479,-2.93764,0.0083517,2.29846,2.40041,0.0,2,0,0,0
56740000,47.3977417214,8.54559377842,538.025,48.1006,-0.0,0.0214722,0.0179432,-2.94044,0.00848732,2.2984,2.40036,0.0,2,0,0,0
56932000,47.3977417561,8.54559378059,538.589,48.6454,-0.0,0.0190974,0.0170377,-2.93906,0.00832393,2.29834,2.40032,0.0,2,0,0,0
57132000,47.3977417966,8.54559378592,539.177,49.213,-0.0,0.0164927,0.0154829,-2.9432,0.00834564,2.29834,2.40033,0.0,2,0,0,0
57324000,47.3977418272,8.54559378353,539.742,49.7579,-0.0,0.0139943,0.0174969,-2.94419,0.00896444,2.29827,2.40042,0.0,2,0,0,0
57516000,47.3977418501,8.54559378705,540.307,50.303,-0.0,0.00938304,0.0207941,-2.94905,0.00915403,2.29821,2.40038,0.0,2,0,0,0
57708000,47.3977418646,8.54559380113,540.873,50.8586,-0.0,0.0103536,0.0212823,-2.95047,0.00853731,2.29815,2.40033,0.0,2,0,0,0
57900000,47.3977418813,8.54559381716,541.439,51.4053,-0.0,0.00871796,0.0191204,-2.95605,0.00852808,2.29809,2.40029,0.0,2,0,0,0
58092000,47.3977418943,8.54559382585,542.007,51.9529,-0.0,0.00427996,0.0173083,-2.95532,0.00877238,2.29803,2.40038,0.0,2,0,0,0
58292000,47.397741903,8.54559384087,542.597,52.5229,-0.0,0.00268422,0.0179876,-2.95791,0.0083219,2.29803,2.40039,0.0,2,0,0,0
58484000,47.397741908,8.5455938578,543.164,53.07,-0.0,0.00384856,0.0160529,-2.96124,0.00831903,2.29797,2.40034,0.0,2,0,0,0
58676000,47.397741919,8.54559386738,543.733,53.6185,-0.0,0.00383004,0.0159497,-2.97045,0.00881364,2.29791,2.4003,0.0,2,0,0,0
58868000,47.3977419377,8.54559388543,544.304,54.1702,-0.0,0.00415506,0.0162307,-2.97626,0.00880527,2.29861,2.40036,0.0,2,0,0,0
59060000,47.3977419632,8.5455939138,544.877,54.7228,-0.0,0.00435274,0.0149283,-2.97672,0.0090461,2.29855,2.40044,0.0,2,0,0,0
59252000,47.3977419938,8.54559395826,545.45,55.2762,-0.0,0.0028579,0.0155587,-2.98124,0.00892968,2.29848,2.4004,0.0,2,0,0,0
59444000,47.3977420216,8.54559398908,546.025,55.8304,-0.0,-0.000827077,0.0118452,-2.98028,0.00852539,2.29842,2.40036,0.0,2,0,0,0
59636000,47.3977420416,8.54559400914,546.598,56.3842,-0.0,-0.00513167,0.0131386,-2.97933,0.00861717,2.29836,2.40031,0.0,2,0,0,0
59828000,47.3977420484,8.54559403345,547.17,56.936,-0.0,-0.00876733,0.0105538,-2.97571,0.00864902,2.29829,2.4004,0.0,2,0,0,0
60020000,47.39774205,8.54559406512,547.742,57.4877,-0.0,-0.00896857,0.0112975,-2.97865,0.00860212,2.29823,2.40036,0.0,2,0,0,0
60212000,47.3977420534,8.54559411049,548.315,58.0504,-0.0,-0.0114486,0.00852279,-2.97644,0.00883478,2.29817,2.40031,0.0,2,0,0,0
60412000,47.3977420558,8.54559413996,548.902,58.6172,-0.0,-0.00951076,0.0066158,-2.86249,0.00861535,2.29817,2.40033,0.0,2,0,0,0
60604000,47.3977420512,8.54559414817,549.435,59.1306,-0.0,-0.00786641,0.00130577,-2.68782,0.00883745,2.29811,2.40029,0.0,2,0,0,0
60796000,47.3977420432,8.54559414685,549.937,59.6124,-0.0,-0.0122405,-0.00310386,-2.51536,0.00870826,2.29805,2.40037,0.0,2,0,0,0
60988000,47.3977420272,8.54559412612,550.41,60.0652,-0.0,-0.0120274,-0.00513915,-2.35626,0.00871985,2.29798,2.40033,0.0,2,0,0,0
61188000,47.3977420114,8.54559409494,550.872,60.5076,-0.0,-0.0119609,-0.00497378,-2.19828,0.00831874,2.29797,2.40034,0.0,2,0,0,0
61380000,47.397742003,8.54559406717,551.288,60.9035,-0.0,-0.00802215,-0.00487045,-2.05311,0.00804449,2.29791,2.4003,0.0,2,0,0,0
61572000,47.3977420022,8.54559405169,551.676,61.2715,-0.0,-0.00573312,-0.00043757,-1.92261,0.00850785,2.29784,2.40026,0.0,2,0,0,0
61764000,47.3977419947,8.54559403981,552.038,61.614,-0.0,-0.00308576,0.0049674,-1.80417,0.00902092,2.29851,2.40044,0.0,2,0,0,0
61956000,47.3977419865,8.54559403505,552.377,61.9329,-0.0,-0.00353518,0.00699396,-1.69942,0.00888686,2.29843,2.4004,0.0,2,0,0,0
62148000,47.3977419901,8.54559403423,552.695,62.2307,-0.0,-0.00475105,0.00552785,-1.60199,0.00868075,2.29837,2.40036,0.0,2,0,0,0
62340000,47.3977419962,8.54559404377,552.995,62.5104,-0.0,-0.00546577,0.00569236,-1.51489,0.00882749,2.2983,2.40032,0.0,2,0,0,0
62532000,47.3977419964,8.54559405996,553.277,62.7728,-0.0,-0.00452402,0.00659314,-1.42859,0.00877514,2.29823,2.4004,0.0,2,0,0,0
62724000,47.3977419992,8.54559407278,553.543,63.0183,-0.0,-0.0033789,0.00546254,-1.34775,0.0086411,2.29817,2.40036,0.0,2,0,0,0
62916000,47.397742001,8.54559406488,553.793,63.2484,-0.0,-0.00501369,0.00410187,-1.27301,0.00876873,2.29811,2.40032,0.0,2,0,0,0
63108000,47.3977419976,8.54559404617,554.028,63.4737,-0.0,-0.0049521,0.00251883,-1.20465,0.00898758,2.29805,2.4004,0.0,2,0,0,0
63300000,47.3977419934,8.54559403493,554.248,63.6736,-0.0,-0.00497421,0.00706764,-1.14176,0.00831147,2.29799,2.40036,0.0,2,0,0,0
63492000,47.3977419907,8.54559403579,554.458,63.8634,-0.0,-0.00268468,0.00741234,-1.08384,0.0083304,2.29793,2.40032,0.0,2,0,0,0
63684000,47.3977419875,8.54559403532,554.657,64.0425,-0.0,-0.00236402,0.00754828,-1.02474,0.00862622,2.29788,2.40027,0.0,2,0,0,0
63876000,47.3977419753,8.54559403911,554.845,64.2103,-0.0,-0.00353489,0.00806768,-0.971783,0.00849845,2.29782,2.40036,0.0,2,0,0,0
64068000,47.3977419745,8.54559405548,555.022,64.3677,-0.0,-0.00362464,0.00760411,-0.9211,0.00811161,2.2985,2.40042,0.0,2,0,0,0
64268000,47.3977419863,8.54559406582,555.198,64.5233,-0.0,-0.00253662,0.00713043,-0.86644,0.00814542,2.29851,2.40043,0.0,2,0,0,0
64460000,47.3977419945,8.54559407894,555.356,64.6615,-0.0,-0.000599933,0.00846966,-0.815158,0.00850898,2.29845,2.40039,0.0,2,0,0,0
64652000,47.3977420007,8.54559409968,555.507,64.7925,-0.0,-0.000920039,0.00809619,-0.767656,0.00849916,2.29839,2.40035,0.0,2,0,0,0
64844000,47.3977419971,8.54559411835,555.648,64.9131,-0.0,-0.00393288,0.00534648,-0.72317,0.00871563,2.29834,2.40043,0.0,2,0,0,0
65044000,47.3977419977,8.54559415039,555.785,65.0298,-0.0,-0.00243326,0.0023686,-0.679583,0.00896959,2.29834,2.40032,0.0,2,0,0,0
65236000,47.3977420124,8.54559420593,555.908,65.1335,-0.0,-0.00302477,0.00322947,-0.643817,0.00854377,2.29828,2.4004,0.0,2,0,0,0
65428000,47.3977420117,8.54559427013,556.026,65.2316,-0.0,-0.00676633,0.00320214,-0.608185,0.00830808,2.29823,2.40036,0.0,2,0,0,0
65628000,47.3977419965,8.54559434136,556.141,65.3257,-0.0,-0.00791283,-0.000553693,-0.572144,0.00854847,2.29823,2.40037,0.0,2,0,0,0
65820000,47.3977419787,8.54559441309,556.242,65.4069,-0.0,-0.00850662,-0.0028154,-0.542475,0.00865761,2.29818,2.40033,0.0,2,0,0,0
66012000,47.3977419612,8.54559446909,556.338,65.4929,-0.0,-0.00547513,-0.00883998,-0.517258,0.00890783,2.29812,2.40029,0.0,2,0,0,0
66204000,47.3977419443,8.54559449517,556.43,65.5648,-0.0,-0.00296799,-0.0134776,-0.489396,0.00837046,2.29807,2.40037,0.0,2,0,0,0
66404000,47.3977419261,8.54559452098,556.52,65.6353,-0.0,-0.00135994,-0.014529,-0.461771,0.00821681,2.29807,2.40039,0.0,2,0,0,0
66596000,47.3977419095,8.54559454942,556.601,65.6963,-0.0,0.000461841,-0.0168381,-0.436534,0.00852721,2.29802,2.40034,0.0,2,0,0,0
66788000,47.3977418964,8.54559458313,556.677,65.7522,-0.0,0.00254415,-0.0196908,-0.413875,0.00887398,2.29796,2.4003,0.0,2,0,0,0
66980000,47.3977418919,8.5455946213,556.75,65.8046,-0.0,0.00401282,-0.0190488,-0.391413,0.00865396,2.29791,2.40026,0.0,2,0,0,0
67172000,47.3977418884,8.54559464507,556.82,65.8546,-0.0,0.0032975,-0.0190592,-0.368391,0.00854249,2.29785,2.40034,0.0,2,0,0,0
67364000,47.3977418904,8.54559467648,556.885,65.8996,-0.0,0.00493159,-0.0223538,-0.347933,0.00822388,2.29854,2.4004,0.0,2,0,0,0
67556000,47.3977418907,8.54559470832,556.946,65.941,-0.0,0.00411827,-0.0264143,-0.3259,0.00847025,2.29848,2.40036,0.0,2,0,0,0
67748000,47.3977418842,8.54559473398,557.004,65.9789,-0.0,0.00303328,-0.0285443,-0.309678,0.00872346,2.29842,2.40044,0.0,2,0,0,0
67940000,47.3977418768,8.54559475893,557.06,66.0147,-0.0,0.00409175,-0.0290895,-0.291707,0.00875771,2.29836,2.4004,0.0,2,0,0,0
68132000,47.3977418725,8.54559477164,557.114,66.0486,-0.0,0.00398618,-0.0338723,-0.272792,0.00834061,2.2983,2.40036,0.0,2,0,0,0
68324000,47.3977418838,8.54559477499,557.163,66.0781,-0.0,0.00523683,-0.0339345,-0.253283,0.00880669,2.29824,2.40031,0.0,2,0,0,0
68516000,47.3977419037,8.54559478425,557.211,66.1061,-0.0,0.00951889,-0.0322518,-0.239864,0.00859979,2.29818,2.4004,0.0,2,0,0,0
68708000,47.3977419308,8.54559479406,557.255,66.1399,-0.0,0.00674615,-0.0348253,-0.223012,0.00838799,2.29812,2.40036,0.0,2,0,0,0
68900000,47.3977419457,8.54559478417,557.296,66.1605,-0.0,0.00318916,-0.0356223,-0.21008,0.00818733,2.29806,2.40031,0.0,2,0,0,0
69092000,47.397741967,8.54559476495,557.334,66.1791,-0.0,0.00533123,-0.0328054,-0.198061,0.00865978,2.29801,2.40027,0.0,2,0,0,0
69284000,47.3977419962,8.54559473253,557.37,66.1953,-0.0,0.00484626,-0.0346236,-0.186455,0.00896308,2.29795,2.40036,0.0,2,0,0,0
69476000,47.3977420256,8.54559469303,557.405,66.2094,-0.0,0.00131741,-0.0346684,-0.178381,0.00918001,2.29789,2.40031,0.0,2,0,0,0
69668000,47.397742057,8.54559465338,557.439,66.2234,-0.0,-0.00132204,-0.0325186,-0.167157,0.00892997,2.29858,2.40037,0.0,2,0,0,0
69860000,47.3977420796,8.54559461237,557.469,66.2343,-0.0,-0.00524365,-0.0294106,-0.157972,0.00833956,2.29852,2.40046,0.0,2,0,0,0
70052000,47.3977421019,8.54559457674,557.497,66.2418,-0.0,-0.00756887,-0.0257496,-0.149085,0.00826445,2.29846,2.40041,0.0,2,0,0,0
70244000,47.3977421211,8.54559453966,557.526,66.2503,-0.0,-0.00950255,-0.0253783,-0.14195,0.00846161,2.2984,2.40037,0.0,2,0,0,0
70436000,47.3977421385,8.54559449702,557.554,66.2583,-0.0,-0.0103336,-0.0252566,-0.130568,0.00870031,2.29833,2.40033,0.0,2,0,0,0
70628000,47.3977421576,8.54559443241,557.579,66.2634,-0.0,-0.0120395,-0.0247154,-0.12193,0.00879115,2.29827,2.40041,0.0,2,0,0,0
70828000,47.3977421794,8.5455943647,557.601,66.2659,-0.0,-0.014682,-0.0213677,-0.114245,0.008969,2.29827,2.40042,0.0,2,0,0,0
71020000,47.3977422066,8.54559430673,557.621,66.2655,-0.0,-0.0152203,-0.0165881,-0.110944,0.00896765,2.29821,2.40038,0.0,2,0,0,0
71212000,47.3977422273,8.54559425149,557.639,66.2737,-0.0,-0.0155348,-0.01276,-0.107625,0.00886022,2.29815,2.40033,0.0,2,0,0,0
71404000,47.3977422284,8.54559418906,557.655,66.27,-0.0,-0.0225824,-0.00962482,-0.104486,0.00814943,2.29809,2.40041,0.0,2,0,0,0
71596000,47.3977422134,8.54559411507,557.672,66.2668,-0.0,-0.0243371,-0.00605553,-0.0970025,0.00807908,2.29803,2.40037,0.0,2,0,0,0
71788000,47.3977422113,8.54559403197,557.575,66.1497,-0.0,-0.0102964,-0.00466226,0.981157,0.00727096,2.29798,2.40032,0.0,2,0,0,0
71980000,47.3977422422,8.54559395259,557.386,65.9407,-0.0,0.00675147,-0.00122005,1.01257,0.00479537,2.29791,2.40028,0.0,2,0,0,0
72172000,47.3977422761,8.54559389695,557.205,65.7394,-0.0,0.00394785,0.00608926,1.01281,0.00168896,2.29783,2.40036,0.0,2,0,0,0
72364000,47.3977422977,8.54559385417,557.016,65.5302,-0.0,-0.000475148,0.00942179,1.01211,-0.000281195,2.29849,2.40042,0.0,2,0,0,0
72556000,47.3977423088,8.5455938007,556.824,65.3182,-0.0,-0.00462607,0.0121365,1.01111,-0.00125076,2.29842,2.40038,0.0,2,0,0,0
72748000,47.3977423278,8.54559374294,556.63,65.104,-0.0,-0.00596774,0.0172996,1.01324,-0.00089986,2.29835,2.40033,0.0,2,0,0,0
72940000,47.3977423394,8.54559369489,556.431,64.8855,-0.0,-0.00829697,0.0186856,1.01343,-0.000701512,2.29829,2.40042,0.0,2,0,0,0
73132000,47.3977423465,8.54559364356,556.232,64.666,-0.0,-0.0100625,0.0192038,1.01305,-0.000193164,2.29823,2.40037,0.0,2,0,0,0
73324000,47.3977423546,8.54559358383,556.031,64.4451,-0.0,-0.0109668,0.0202271,1.01228,0.000520024,2.29817,2.40033,0.0,2,0,0,0
73524000,47.3977423722,8.54559352159,555.823,64.2173,-0.0,-0.0112962,0.0217985,1.01126,0.000271339,2.29817,2.40034,0.0,2,0,0,0
73716000,47.3977423817,8.54559347744,555.624,63.998,-0.0,-0.0131612,0.0277529,1.00991,0.000559789,2.29811,2.4003,0.0,2,0,0,0
73908000,47.3977423743,8.54559345034,555.426,63.79,-0.0,-0.015248,0.0299018,1.00792,0.000384458,2.29806,2.40038,0.0,2,0,0,0
74108000,47.3977423603,8.54559342665,555.22,63.5646,-0.0,-0.01665,0.0332545,1.00733,-0.000170216,2.29807,2.40039,0.0,2,0,0,0
74300000,47.3977423441,8.54559342169,555.025,63.3495,-0.0,-0.0156051,0.0348217,1.00725,-0.000192938,2.29801,2.40035,0.0,2,0,0,0
74492000,47.3977423258,8.54559341375,554.83,63.1345,-0.0,-0.0148247,0.0347681,1.00821,0.0002499,2.29796,2.40031,0.0,2,0,0,0
74684000,47.3977423036,8.54559341957,554.634,62.9182,-0.0,-0.0134232,0.0366705,1.00736,0.000246888,2.29791,2.40039,0.0,2,0,0,0
74876000,47.3977422839,8.54559344713,554.437,62.7009,-0.0,-0.0122783,0.0394131,1.00934,0.000386276,2.29786,2.40034,0.0,2,0,0,0
75068000,47.3977422627,8.5455934832,554.242,62.4858,-0.0,-0.0121414,0.0404088,1.00791,0.000404159,2.29855,2.40039,0.0,2,0,0,0
75260000,47.397742238,8.54559352532,554.047,62.2715,-0.0,-0.00637832,0.0389116,1.00597,-0.000183829,2.29849,2.40048,0.0,2,0,0,0
75452000,47.3977422052,8.54559356175,553.852,62.0565,-0.0,-0.00610561,0.0371094,1.00629,-0.000427884,2.29844,2.40043,0.0,2,0,0,0
75644000,47.3977421706,8.54559359825,553.658,61.8422,-0.0,-0.00353194,0.0343453,1.00542,-0.000415212,2.29838,2.40038,0.0,2,0,0,0
75836000,47.3977421428,8.54559364629,553.463,61.627,-0.0,0.00136786,0.0336174,1.00617,0.000182661,2.29832,2.40046,0.0,2,0,0,0
76028000,47.3977421167,8.54559368217,553.269,61.4131,-0.0,0.00212913,0.0279405,1.00551,0.000335016,2.29827,2.40041,0.0,2,0,0,0
76220000,47.3977420916,8.54559371044,553.077,61.2014,-0.0,0.00459917,0.0276197,1.00563,0.00021023,2.29821,2.40036,0.0,2,0,0,0
76412000,47.3977420748,8.54559374831,552.886,61.0004,-0.0,0.00781311,0.0266101,1.00485,-0.000194571,2.29815,2.40044,0.0,2,0,0,0
76604000,47.397742057,8.54559377985,552.693,60.7874,-0.0,0.00846474,0.022531,1.0044,-0.00023878,2.2981,2.40039,0.0,2,0,0,0
76796000,47.3977420426,8.54559379539,552.499,60.5728,-0.0,0.0107866,0.0203841,1.0057,-0.000306725,2.29804,2.40034,0.0,2,0,0,0
76988000,47.3977420253,8.54559381635,552.303,60.3569,-0.0,0.0108683,0.0219377,1.00441,-3.02799e-05,2.29798,2.40042,0.0,2,0,0,0
77180000,47.3977420041,8.54559386572,552.109,60.1428,-0.0,0.0125635,0.0226128,1.00238,9.84877e-05,2.29792,2.40037,0.0,2,0,0,0
77372000,47.3977419915,8.54559393232,551.914,59.9285,-0.0,0.0148229,0.0196145,1.00412,0.00031707,2.29787,2.40032,0.0,2,0,0,0
77564000,47.3977419841,8.5455939943,551.721,59.7147,-0.0,0.0179738,0.0183729,1.00245,5.49753e-05,2.29856,2.40037,0.0,2,0,0,0
77756000,47.3977419707,8.54559403811,551.527,59.5013,-0.0,0.019213,0.0153616,1.00339,0.000513265,2.29849,2.40046,0.0,2,0,0,0
77948000,47.3977419532,8.5455940732,551.333,59.2865,-0.0,0.019584,0.0141982,1.00386,0.000239931,2.29843,2.40041,0.0,2,0,0,0
78140000,47.3977419458,8.54559412558,551.138,59.0724,-0.0,0.0205908,0.0107661,1.00328,0.000301028,2.29837,2.40036,0.0,2,0,0,0
78332000,47.3977419489,8.54559417634,550.945,58.8588,-0.0,0.0244479,0.00879989,1.00404,0.000175718,2.29831,2.40032,0.0,2,0,0,0
78524000,47.3977419468,8.54559421949,550.75,58.6442,-0.0,0.0237151,0.00792408,1.00325,-0.000105578,2.29825,2.4004,0.0,2,0,0,0
78716000,47.3977419359,8.54559425636,550.556,58.4401,-0.0,0.0225003,0.00460866,1.00373,-0.000276687,2.29818,2.40036,0.0,2,0,0,0
78908000,47.3977419252,8.54559429205,550.363,58.2274,-0.0,0.024734,0.00419558,1.0006,-0.000659134,2.29812,2.40031,0.0,2,0,0,0
79100000,47.3977419293,8.54559433611,550.17,58.0136,-0.0,0.0286299,0.00232694,1.001,-0.000161763,2.29806,2.4004,0.0,2,0,0,0
79300000,47.3977419327,8.54559435775,549.968,57.7914,-0.0,0.0270314,-0.00316155,1.00279,0.000379799,2.29806,2.40028,0.0,2,0,0,0
79492000,47.3977419397,8.54559436026,549.772,57.5757,-0.0,0.0281108,-0.0091318,1.00176,0.000376642,2.298,2.40037,0.0,2,0,0,0
79684000,47.3977419524,8.54559435785,549.577,57.3612,-0.0,0.0260613,-0.0115166,1.00184,0.000141049,2.29795,2.40032,0.0,2,0,0,0
79876000,47.3977419613,8.54559434422,549.383,57.1467,-0.0,0.0230309,-0.0124316,1.00269,-3.77471e-05,2.29789,2.40028,0.0,2,0,0,0
80068000,47.3977419783,8.54559432883,549.189,56.9326,-0.0,0.023375,-0.0103854,1.00258,0.000291868,2.29858,2.40046,0.0,2,0,0,0
80260000,47.3977419978,8.54559432394,548.996,56.7198,-0.0,0.0209317,-0.00960146,1.00286,0.000288744,2.29851,2.40042,0.0,2,0,0,0
80452000,47.3977420121,8.54559431893,548.804,56.5074,-0.0,0.0179834,-0.0077329,1.00213,-2.89324e-05,2.29845,2.40038,0.0,2,0,0,0
80644000,47.3977420329,8.54559430187,548.61,56.2941,-0.0,0.0213537,-0.00879944,1.00163,-0.000184142,2.29839,2.40033,0.0,2,0,0,0
80836000,47.3977420696,8.54559429227,548.418,56.0815,-0.0,0.0228087,-0.00536799,1.0014,-0.000232926,2.29833,2.40042,0.0,2,0,0,0
81028000,47.3977421074,8.54559428814,548.226,55.8694,-0.0,0.0194632,-0.00443944,1.00047,9.06648e-05,2.29826,2.40038,0.0,2,0,0,0
81220000,47.397742142,8.54559429372,548.034,55.6574,-0.0,0.0149626,-0.00669522,1.00085,-0.000113602,2.2982,2.40034,0.0,2,0,0,0
81412000,47.3977421728,8.54559429397,547.844,55.4575,-0.0,0.00968924,-0.00757037,1.00029,0.000260896,2.29814,2.4003,0.0,2,0,0,0
81604000,47.397742189,8.54559429181,547.652,55.2459,-0.0,0.00677163,-0.00921384,1.00134,0.000121641,2.29808,2.40038,0.0,2,0,0,0
81804000,47.3977422136,8.5455942736,547.451,55.025,-0.0,0.00515034,-0.0105551,1.00094,-0.000126542,2.29808,2.40039,0.0,2,0,0,0
81996000,47.3977422368,8.54559424416,547.257,54.8102,-0.0,0.00507675,-0.0112004,1.00182,-0.000150104,2.29803,2.40035,0.0,2,0,0,0
82188000,47.3977422569,8.54559421087,547.065,54.5987,-0.0,0.00133311,-0.0119784,1.00046,-5.34969e-05,2.29797,2.40031,0.0,2,0,0,0
82380000,47.397742277,8.5455941791,546.873,54.3869,-0.0,0.000506756,-0.00625946,1.00226,-0.000689112,2.29791,2.40039,0.0,2,0,0,0
82572000,47.3977422913,8.54559417118,546.681,54.1745,-0.0,-0.00164083,-0.00171848,1.00103,-6.2063e-05,2.29785,2.40034,0.0,2,0,0,0
82764000,47.3977422963,8.54559419143,546.491,53.9648,-0.0,-0.00368611,-0.000481294,1.00158,0.000173434,2.29854,2.4004,0.0,2,0,0,0
82956000,47.3977422882,8.54559422865,546.303,53.7561,-0.0,-0.00551622,-0.00214857,1.0004,7.46754e-05,2.29847,2.40036,0.0,2,0,0,0
83148000,47.397742287,8.54559427634,546.113,53.5468,-0.0,-0.00619316,-0.00328214,1.00099,2.61712e-05,2.29841,2.40044,0.0,2,0,0,0
83340000,47.3977422876,8.54559431499,545.923,53.3365,-0.0,-0.00639511,-0.00541331,1.00037,0.000183293,2.29835,2.4004,0.0,2,0,0,0
83532000,47.397742276,8.54559434944,545.734,53.1271,-0.0,-0.00635932,-0.00828035,1.00144,0.000186943,2.29829,2.40035,0.0,2,0,0,0
83724000,47.3977422585,8.54559440144,545.544,52.9173,-0.0,-0.00493255,-0.010321,1.00237,-7.38076e-05,2.29823,2.40031,0.0,2,0,0,0
83916000,47.397742237,8.54559446148,545.354,52.707,-0.0,-0.00409968,-0.00967096,1.00015,0.000193746,2.29817,2.40039,0.0,2,0,0,0
84108000,47.3977422119,8.54559451438,545.162,52.5054,-0.0,-0.00568188,-0.0133778,0.999967,-0.000349531,2.29811,2.40035,0.0,2,0,0,0
84300000,47.3977421808,8.54559455708,544.968,52.2917,-0.0,-0.00286143,-0.0152791,1.0016,-6.55169e-05,2.29805,2.40031,0.0,2,0,0,0
84492000,47.3977421479,8.54559459091,544.777,52.0803,-0.0,-0.00133117,-0.0192276,1.00103,0.000142481,2.29799,2.40039,0.0,2,0,0,0
84684000,47.3977421185,8.54559461414,544.586,51.8696,-0.0,0.00152682,-0.0218361,1.00033,0.00032657,2.29794,2.40035,0.0,2,0,0,0
84876000,47.3977420934,8.54559463309,544.395,51.6587,-0.0,0.00466778,-0.0242377,0.999704,-1.05489e-05,2.29788,2.4003,0.0,2,0,0,0
85068000,47.3977420658,8.54559464742,544.203,51.4467,-0.0,0.00792809,-0.025816,1.00081,-0.000413784,2.29857,2.40036,0.0,2,0,0,0
85260000,47.3977420263,8.54559465767,544.008,51.2316,-0.0,0.00808553,-0.0281229,1.00234,0.000158409,2.2985,2.40045,0.0,2,0,0,0
85452000,47.397741991,8.54559465465,543.812,51.0151,-0.0,0.00994436,-0.0295196,1.00127,0.000136672,2.29844,2.4004,0.0,2,0,0,0
85644000,47.3977419666,8.54559465015,543.617,50.8,-0.0,0.0148234,-0.0283645,1.00025,-0.000151921,2.29838,2.40036,0.0,2,0,0,0
85836000,47.397741944,8.54559462442,543.422,50.5857,-0.0,0.0184354,-0.0317038,1.00013,0.000182233,2.29832,2.40031,0.0,2,0,0,0
86028000,47.397741925,8.54559457476,543.23,50.3731,-0.0,0.0212457,-0.031456,1.00033,2.13404e-05,2.29826,2.4004,0.0,2,0,0,0
86220000,47.3977419072,8.54559452922,543.04,50.163,-0.0,0.0216441,-0.0284876,0.999378,0.000193755,2.2982,2.40036,0.0,2,0,0,0
86412000,47.3977418942,8.54559448978,542.851,49.9643,-0.0,0.021957,-0.0268407,0.99946,-8.89496e-05,2.29814,2.40031,0.0,2,0,0,0
86604000,47.3977418832,8.5455944691,542.662,49.7552,-0.0,0.0256468,-0.0223587,0.999154,-0.0001777,2.29808,2.40027,0.0,2,0,0,0
86796000,47.3977418798,8.54559445648,542.473,49.546,-0.0,0.0271574,-0.019138,0.998632,-8.83353e-05,2.29802,2.40036,0.0,2,0,0,0
86988000,47.3977418761,8.54559446377,542.281,49.3346,-0.0,0.0265007,-0.0167084,0.999733,-0.000407175,2.29797,2.40032,0.0,2,0,0,0
87180000,47.3977418802,8.54559449251,542.09,49.1234,-0.0,0.0296107,-0.0155329,1.00044,-0.000142649,2.29791,2.40028,0.0,2,0,0,0
87372000,47.3977418879,8.54559451313,541.899,48.9123,-0.0,0.0292376,-0.0188861,1.00004,-0.000236917,2.29785,2.40024,0.0,2,0,0,0
87564000,47.3977418991,8.54559453696,541.708,48.7013,-0.0,0.0256745,-0.0195925,0.999426,-6.12261e-05,2.29853,2.40042,0.0,2,0,0,0
87756000,47.3977419071,8.54559454925,541.517,48.4896,-0.0,0.0268219,-0.0230684,1.0007,-2.92481e-05,2.29847,2.40038,0.0,2,0,0,0
87956000,47.397741923,8.54559456219,541.317,48.27,-0.0,0.0269496,-0.0212173,0.999,-0.000203385,2.29847,2.40039,0.0,2,0,0,0
88148000,47.3977419453,8.54559456359,541.125,48.0578,-0.0,0.0256326,-0.0219777,0.999745,-0.000449695,2.29841,2.40035,0.0,2,0,0,0
88340000,47.3977419709,8.54559456755,540.932,47.8452,-0.0,0.0265771,-0.0225899,1.0015,-0.000534703,2.29835,2.40031,0.0,2,0,0,0
88532000,47.3977419851,8.54559456524,540.74,47.6328,-0.0,0.0239698,-0.0238979,1.00017,-0.000175493,2.29829,2.4004,0.0,2,0,0,0
88724000,47.3977419984,8.5455945728,540.549,47.4215,-0.0,0.0203801,-0.0231762,0.999078,0.00039456,2.29823,2.40036,0.0,2,0,0,0
88916000,47.3977420022,8.54559458124,540.359,47.2119,-0.0,0.0192188,-0.0245598,0.998987,-8.10919e-05,2.29817,2.40032,0.0,2,0,0,0
89108000,47.3977420071,8.54559457107,540.17,47.0129,-0.0,0.017907,-0.0243148,1.00035,-0.000199062,2.29811,2.40028,0.0,2,0,0,0
89300000,47.3977420277,8.54559453967,539.978,46.801,-0.0,0.0166363,-0.0260575,1.00139,-0.000119816,2.29805,2.40036,0.0,2,0,0,0
89492000,47.3977420555,8.54559447666,539.785,46.588,-0.0,0.0186412,-0.0249653,1.00124,-0.000107995,2.29799,2.40032,0.0,2,0,0,0
89692000,47.3977420928,8.54559442332,539.583,46.366,-0.0,0.0182223,-0.0228175,1.00004,-9.97041e-05,2.29799,2.40034,0.0,2,0,0,0
89884000,47.3977421277,8.54559438979,539.389,46.1518,-0.0,0.0163451,-0.0177506,0.999322,0.000300433,2.29794,2.40029,0.0,2,0,0,0
90076000,47.3977421522,8.54559435354,539.194,45.9371,-0.0,0.0116806,-0.0173275,1.00034,-2.91034e-05,2.29788,2.40025,0.0,2,0,0,0
90268000,47.3977421741,8.54559429839,539.0,45.7224,-0.0,0.00954252,-0.0150065,0.999628,0.000358327,2.29857,2.40044,0.0,2,0,0,0
90460000,47.3977421966,8.54559425951,538.806,45.5083,-0.0,0.00798624,-0.0128626,1.0008,0.000556371,2.2985,2.40039,0.0,2,0,0,0
90652000,47.3977422121,8.5455942094,538.612,45.2951,-0.0,0.00363136,-0.00940269,0.999749,-0.000276947,2.29844,2.40047,0.0,2,0,0,0
90844000,47.3977422166,8.5455941584,538.418,45.081,-0.0,0.00181194,-0.00685602,0.999681,-0.000318747,2.29838,2.40042,0.0,2,0,0,0
91036000,47.3977422227,8.54559411607,538.223,44.8661,-0.0,0.00138669,-0.00473296,1.00196,-0.000158991,2.29832,2.40038,0.0,2,0,0,0
91228000,47.397742231,8.54559407436,538.029,44.6516,-0.0,-0.000715201,-0.00431674,1.00039,-0.000223898,2.29826,2.40033,0.0,2,0,0,0
91420000,47.3977422306,8.54559403565,537.835,44.4381,-0.0,-0.00239685,0.000109264,1.00084,-0.000318866,2.2982,2.40042,0.0,2,0,0,0
91612000,47.3977422368,8.54559401029,537.642,44.2349,-0.0,-0.00316871,0.00148226,1.00123,-3.45884e-05,2.29814,2.40037,0.0,2,0,0,0
91804000,47.3977422577,8.54559398315,537.449,44.022,-0.0,-0.00199361,0.00313024,0.999906,0.000165693,2.29808,2.40033,0.0,2,0,0,0
91996000,47.3977422901,8.54559395605,537.257,43.8101,-0.0,0.000800852,0.00658329,0.999322,0.000268833,2.29802,2.40041,0.0,2,0,0,0
92188000,47.3977423113,8.54559394685,537.066,43.5988,-0.0,-0.00422486,0.00719929,1.0002,0.000505464,2.29797,2.40037,0.0,2,0,0,0
92380000,47.3977423142,8.54559395225,536.875,43.3877,-0.0,-0.00644232,0.00928459,0.998896,0.000231572,2.29791,2.40032,0.0,2,0,0,0
92572000,47.3977423202,8.54559395023,536.683,43.1752,-0.0,-0.00621525,0.00925913,0.999897,-0.000166453,2.29785,2.40028,0.0,2,0,0,0
92764000,47.3977423508,8.54559392524,536.489,42.9611,-0.0,-0.00752779,0.00727047,1.00094,-5.35334e-05,2.29853,2.40046,0.0,2,0,0,0
92956000,47.3977423851,8.54559388709,536.294,42.7468,-0.0,-0.00720497,0.00866034,1.00032,-0.000353412,2.29847,2.40042,0.0,2,0,0,0
93156000,47.3977424156,8.54559384462,536.093,42.5254,-0.0,-0.00901008,0.00767057,0.998929,0.000103987,2.29847,2.40042,0.0,2,0,0,0
93356000,47.3977424316,8.54559382927,535.89,42.3029,-0.0,-0.013824,0.0122866,0.99978,-0.000184084,2.29847,2.40044,0.0,2,0,0,0
93548000,47.3977424418,8.54559383969,535.697,42.089,-0.0,-0.0139613,0.0170045,1.00031,-7.45829e-05,2.29841,2.40039,0.0,2,0,0,0
93748000,47.3977424588,8.54559386115,535.494,41.8665,-0.0,-0.0152064,0.0172114,1.00037,-0.000416612,2.29841,2.4004,0.0,2,0,0,0
93940000,47.3977424734,8.54559390632,535.297,41.6499,-0.0,-0.0174528,0.0166953,1.00047,-9.29093e-05,2.29835,2.40036,0.0,2,0,0,0
94132000,47.3977424846,8.54559395133,535.103,41.4351,-0.0,-0.0187543,0.0152871,1.00047,0.000339758,2.29829,2.40031,0.0,2,0,0,0
94324000,47.3977424916,8.5455939839,534.909,41.2212,-0.0,-0.0202475,0.0114988,0.999768,0.000290896,2.29823,2.4004,0.0,2,0,0,0
94516000,47.3977424953,8.54559399665,534.715,41.0075,-0.0,-0.0208553,0.00854452,0.999904,0.000260407,2.29817,2.40036,0.0,2,0,0,0
94708000,47.3977424993,8.54559400937,534.52,40.8028,-0.0,-0.0229081,0.0081433,1.00148,-0.000123197,2.29811,2.40031,0.0,2,0,0,0
94900000,47.3977425068,8.54559404584,534.326,40.5884,-0.0,-0.0229525,0.00691014,1.00041,0.000107981,2.29805,2.40027,0.0,2,0,0,0
95092000,47.3977425205,8.54559409553,534.133,40.3751,-0.0,-0.0245867,0.00665636,1.00003,0.000421455,2.29799,2.40036,0.0,2,0,0,0
95284000,47.3977425283,8.54559414856,533.94,40.1626,-0.0,-0.0252376,0.00525325,1.00011,-0.00010258,2.29794,2.40032,0.0,2,0,0,0
95476000,47.3977425382,8.54559419826,533.748,39.95,-0.0,-0.0266452,0.00177937,0.999032,-1.11005e-05,2.29788,2.40028,0.0,2,0,0,0
95668000,47.3977425403,8.54559423313,533.554,39.736,-0.0,-0.0285151,-0.00236011,1.00178,9.92954e-06,2.29857,2.40034,0.0,2,0,0,0
95860000,47.397742541,8.54559425718,533.361,39.5229,-0.0,-0.0277464,-0.00527355,1.00068,-3.71068e-05,2.2985,2.40043,0.0,2,0,0,0
96052000,47.3977425338,8.54559426593,533.167,39.3091,-0.0,-0.0266613,-0.00757253,0.999896,-0.00036794,2.29844,2.40038,0.0,2,0,0,0
96244000,47.3977425218,8.54559426382,532.973,39.0952,-0.0,-0.0248974,-0.00775004,0.999551,-0.000203626,2.29838,2.40034,0.0,2,0,0,0
96436000,47.397742501,8.54559424489,532.78,38.8817,-0.0,-0.0230435,-0.00923501,1.00061,0.000187351,2.29832,2.40043,0.0,2,0,0,0
96628000,47.3977424693,8.54559422075,532.588,38.6699,-0.0,-0.0254367,-0.00772593,0.999982,0.000168942,2.29826,2.40038,0.0,2,0,0,0
96820000,47.3977424421,8.54559418472,532.395,38.457,-0.0,-0.0233559,-0.0107592,1.00217,0.000425016,2.2982,2.40034,0.0,2,0,0,0
97012000,47.3977424117,8.54559415558,532.203,38.2548,-0.0,-0.0232422,-0.00775164,0.999381,0.000353107,2.29814,2.4003,0.0,2,0,0,0
97204000,47.3977423807,8.54559414802,532.011,38.0432,-0.0,-0.0210539,-0.00248677,0.998827,-2.475e-05,2.29808,2.40039,0.0,2,0,0,0
97396000,47.3977423508,8.54559413636,531.821,37.8336,-0.0,-0.0186054,-0.00368037,0.999545,8.15382e-05,2.29802,2.40034,0.0,2,0,0,0
97588000,47.3977423169,8.54559410746,531.63,37.6223,-0.0,-0.0157748,-0.00204098,0.999921,4.26381e-05,2.29797,2.4003,0.0,2,0,0,0
97780000,47.3977422899,8.54559406092,531.438,37.4099,-0.0,-0.0114881,-0.0019459,1.00019,0.000351952,2.29791,2.40026,0.0,2,0,0,0
97972000,47.3977422624,8.54559401096,531.247,37.1989,-0.0,-0.00825105,0.000192942,0.999431,0.000204869,2.29785,2.40034,0.0,2,0,0,0
98164000,47.3977422329,8.54559398284,531.054,36.9862,-0.0,-0.00949472,0.00224639,0.999701,0.000238225,2.29853,2.4004,0.0,2,0,0,0
98356000,47.3977421956,8.54559395066,530.861,36.7727,-0.0,-0.00662326,0.00272951,0.999763,0.000369998,2.29847,2.40036,0.0,2,0,0,0
98548000,47.3977421632,8.54559392116,530.664,36.5562,-0.0,-0.00211725,0.00748916,1.00159,4.40071e-05,2.29841,2.40044,0.0,2,0,0,0
98748000,47.3977421428,8.54559389841,530.462,36.3341,-0.0,0.00252699,0.00951802,1.00023,-3.95956e-05,2.29841,2.40045,0.0,2,0,0,0
98940000,47.3977421327,8.54559385326,530.269,36.1208,-0.0,0.00357274,0.00698474,0.999495,6.25343e-05,2.29835,2.4004,0.0,2,0,0,0
99132000,47.3977421245,8.5455937907,530.077,35.9085,-0.0,0.0035019,0.00995948,1.00071,8.19838e-05,2.29829,2.40036,0.0,2,0,0,0
99324000,47.3977421213,8.5455937273,529.883,35.6951,-0.0,0.00640017,0.0115641,1.00001,0.000293679,2.29823,2.40031,0.0,2,0,0,0
99516000,47.3977421305,8.54559366533,529.689,35.4811,-0.0,0.00916889,0.0155175,1.0006,0.000296035,2.29817,2.4004,0.0,2,0,0,0
99708000,47.3977421414,8.54559362147,529.495,35.2765,-0.0,0.00964317,0.0194457,1.00049,0.000705247,2.29811,2.40035,0.0,2,0,0,0
99900000,47.3977421477,8.54559357419,529.302,35.064,-0.0,0.00802222,0.0222245,1.00072,-0.000113069,2.29805,2.40042,0.0,2,0,0,0
100092000,47.3977421475,8.54559353419,529.11,34.8521,-0.0,0.00650839,0.0263354,1.00156,-0.000177036,2.29799,2.40038,0.0,2,0,0,0
100284000,47.3977421465,8.54559350314,528.918,34.6403,-0.0,0.00515567,0.0289739,0.999808,0.000301333,2.29794,2.40033,0.0,2,0,0,0
100476000,47.3977421336,8.54559347387,528.727,34.4285,-0.0,0.00128086,0.0315034,1.00033,0.000102259,2.29788,2.40028,0.0,2,0,0,0
100668000,47.3977421193,8.54559345256,528.538,34.22,-0.0,0.00312613,0.0331027,0.950244,-5.62864e-05,2.29857,2.40046,0.0,2,0,0,0
100860000,47.3977421135,8.5455934189,528.375,34.0368,-0.0,0.00782853,0.0363166,0.771647,-2.21853e-06,2.2985,2.40042,0.0,2,0,0,0
101060000,47.3977421121,8.54559337329,528.236,33.8781,-0.0,0.0105998,0.0373337,0.618725,0.000300326,2.29851,2.40043,0.0,2,0,0,0
101252000,47.3977421127,8.5455933308,528.126,33.7482,-0.0,0.00933594,0.0414843,0.496958,0.000127536,2.29845,2.40038,0.0,2,0,0,0
101444000,47.3977421169,8.54559331752,528.038,33.6393,-0.0,0.011279,0.0455523,0.399213,0.000322306,2.2984,2.40034,0.0,2,0,0,0
101636000,47.3977421145,8.54559331925,527.966,33.5475,-0.0,0.00922129,0.0465083,0.317692,9.10235e-05,2.29834,2.40043,0.0,2,0,0,0
101828000,47.397742094,8.54559332502,527.91,33.4714,-0.0,0.00626773,0.0470354,0.253441,0.00011537,2.29829,2.40038,0.0,2,0,0,0
102020000,47.3977420678,8.5455933401,527.865,33.4062,-0.0,0.00837739,0.0464585,0.203454,-2.37902e-06,2.29823,2.40034,0.0,2,0,0,0
102212000,47.3977420559,8.54559334879,527.829,33.3608,-0.0,0.0119362,0.0462852,0.164384,0.000272354,2.29818,2.4003,0.0,2,0,0,0
102404000,47.3977420574,8.54559336211,527.801,33.3129,-0.0,0.0133602,0.0474078,0.131128,-6.78115e-06,2.29812,2.40038,0.0,2,0,0,0
102596000,47.3977420617,8.54559339282,527.786,33.2775,-0.0,0.0136115,0.0473951,-0.160207,-0.000265776,2.29807,2.40034,0.0,2,0,0,0
102796000,47.3977420605,8.54559344572,527.951,33.4229,-0.0,0.00788821,0.0410216,-1.02121,2.30005e-05,2.29807,2.40035,0.0,2,0,0,0
102988000,47.3977420564,8.54559348083,528.135,33.587,-0.0,0.00425776,0.0211112,-1.01634,1.97934e-05,2.29803,2.40031,0.0,2,0,0,0
103180000,47.3977420594,8.54559347215,528.324,33.7558,-0.0,0.00615918,0.0129345,-1.03161,0.000189287,2.29798,2.40027,0.0,2,0,0,0
103380000,47.3977420667,8.54559345392,528.53,33.9417,-0.0,0.0081225,0.0106109,-1.03055,-5.78179e-05,2.298,2.40028,0.0,2,0,0,0
103572000,47.3977420831,8.54559342806,528.733,34.1243,-0.0,0.00627666,0.00824555,-1.02404,-0.000306157,2.29794,2.40037,0.0,2,0,0,0
103764000,47.3977421017,8.54559341322,528.937,34.3083,-0.0,0.00600837,0.0104964,-1.01536,-3.49826e-05,2.29865,2.40043,0.0,2,0,0,0
103956000,47.3977421029,8.54559339122,529.142,34.4931,-0.0,0.00232557,0.0058309,-1.00699,-0.000185261,2.29859,2.40038,0.0,2,0,0,0
104148000,47.397742105,8.54559336356,529.347,34.6788,-0.0,0.00213177,0.00424254,-0.996211,0.000408904,2.29852,2.40034,0.0,2,0,0,0
104340000,47.3977421201,8.54559333971,529.55,34.861,-0.0,0.00507843,0.00658052,-0.988992,0.000243469,2.29845,2.40042,0.0,2,0,0,0
104532000,47.3977421341,8.54559331605,529.749,35.0408,-0.0,0.00436748,0.00453609,-0.984136,8.7805e-05,2.29838,2.40038,0.0,2,0,0,0
104724000,47.397742145,8.54559329039,529.947,35.2182,-0.0,0.00281592,0.00272146,-0.980538,0.000165668,2.29831,2.40034,0.0,2,0,0,0
104916000,47.3977421534,8.54559325594,530.144,35.3956,-0.0,0.00146667,0.00164643,-0.979325,8.89735e-05,2.29823,2.4003,0.0,2,0,0,0
105108000,47.3977421604,8.54559320102,530.339,35.5801,-0.0,0.00212925,0.00088723,-0.977385,-0.000211329,2.29816,2.40038,0.0,2,0,0,0
