timestamp,states[0],states[1],states[2],states[3],states[4],states[5],states[6],states[7],states[8],states[9],states[10],states[11],states[12],states[13],states[14],states[15],states[16],states[17],states[18],states[19],states[20],states[21],states[22],states[23],vibe[0],vibe[1],vibe[2],covariances[0],covariances[1],covariances[2],covariances[3],covariances[4],covariances[5],covariances[6],covariances[7],covariances[8],covariances[9],covariances[10],covariances[11],covariances[12],covariances[13],covariances[14],covariances[15],covariances[16],covariances[17],covariances[18],covariances[19],covariances[20],covariances[21],covariances[22],covariances[23],control_mode_flags,pos_horiz_accuracy,pos_vert_accuracy,mag_test_ratio,vel_test_ratio,pos_test_ratio,hgt_test_ratio,tas_test_ratio,hagl_test_ratio,beta_test_ratio,time_slip,gps_check_fail_flags,filter_fault_flags,innovation_check_flags,solution_status_flags,n_states,pre_flt_fail,health_flags,timeout_flags
1260000,0.999993,0.000135495,0.000367305,0.00367266,0.000191619,-0.000330451,0.0114175,3.79658e-05,-9.11296e-05,0.00292881,-3.6092e-11,-2.19533e-11,-2.12963e-08,7.95515e-09,-1.07641e-08,-1.8366e-06,0.898598,0.0402343,1.0,0.0,0.0,0.0,0.0,0.0,1.20457e-09,3.95687e-05,0.0002224,8.59239e-09,3.05892e-05,3.05891e-05,0.000780558,0.657625,0.657625,0.542921,0.0480874,0.0480874,0.220293,6.40022e-09,6.40022e-09,6.39543e-09,2.55928e-06,2.55928e-06,2.55951e-06,0.0,0.0,0.0,0.0,0.0,0.0,0.0,0.0,531,0.310121,0.469353,0.000547039,0.0,1.81408e-06,0.00151965,0.0,0.0,0.0,0.0,0,0,0,165,24,0,0,0
1452000,0.999994,-2.09118e-05,0.000474769,0.00351689,-0.00128281,0.00144451,0.0140816,-2.28517e-05,5.17364e-05,0.0125546,-1.18447e-10,-9.32412e-11,-1.13461e-08,1.78995e-08,-2.13463e-08,-2.44181e-06,0.898598,0.0402343,1.0,0.0,0.0,0.0,0.0,0.0,1.12558e-09,4.00667e-05,0.000219341,6.15403e-09,3.60414e-05,3.60412e-05,0.00059754,0.233792,0.233792,0.503165,0.0329117,0.0329117,0.186557,6.40012e-09,6.40012e-09,6.3878e-09,2.55638e-06,2.55638e-06,2.55727e-06,0.0,0.0,0.0,0.0,0.0,0.0,0.0,0.0,531,0.256561,0.431923,0.00218841,0.0,8.43336e-07,0.00152018,0.0,0.0,0.0,0.0,0,0,0,165,24,0,0,0
1644000,0.999994,0.0001233,0.000587104,0.00344878,-0.0040292,0.00130275,0.0144713,-0.00029148,0.000271731,0.0181424,1.14026e-09,9.74278e-10,-5.02709e-08,-7.45967e-08,8.67531e-08,-2.65258e-06,0.898598,0.0402343,1.0,0.0,0.0,0.0,0.0,0.0,1.0476e-09,3.89898e-05,0.000208829,4.50384e-09,4.33048e-05,4.33047e-05,0.000485833,0.113911,0.113911,0.443124,0.025025,0.025025,0.178657,6.39909e-09,6.39909e-09,6.37494e-09,2.54734e-06,2.54734e-06,2.55107e-06,0.0,0.0,0.0,0.0,0.0,0.0,0.0,0.0,531,0.223719,0.422679,0.00243979,0.0,6.14528e-06,0.00372555,0.0,0.0,0.0,0.0,0,0,0,165,24,0,0,0
1836000,0.999993,1.55911e-05,0.000575502,0.00373107,-0.00492204,0.00223088,-0.000813005,-0.000709099,0.000367645,0.00336854,5.31275e-09,7.82692e-09,-1.23396e-07,-5.6313e-07,3.78636e-07,3.60699e-06,0.898598,0.0402343,1.0,0.0,0.0,0.0,0.0,0.0,1.09941e-09,4.00392e-05,0.000209957,4.14953e-09,5.23186e-05,5.23186e-05,0.000411198,0.0710501,0.0710501,0.374579,0.020463,0.020463,0.177476,6.39501e-09,6.39501e-09,6.35573e-09,2.52602e-06,2.52602e-06,2.53908e-06,0.0,0.0,0.0,0.0,0.0,0.0,0.0,0.0,531,0.202302,0.42128,6.12585e-05,0.0,1.48007e-05,0.0094779,0.0,0.0,0.0,0.0,0,0,0,165,24,0,0,0
2028000,0.999993,-3.09242e-05,0.000600097,0.00364917,-0.00713528,0.00353236,0.00357586,-0.00129799,0.00050435,0.00808981,1.31348e-08,2.62889e-08,-1.13872e-07,-1.66559e-06,8.48552e-07,1.74422e-06,0.898598,0.0402343,1.0,0.0,0.0,0.0,0.0,0.0,1.10007e-09,4.08023e-05,0.000224389,3.55704e-09,6.2988e-05,6.2988e-05,0.000364179,0.0572132,0.0572132,0.317174,0.0189385,0.0189385,0.183671,6.38477e-09,6.38477e-09,6.33244e-09,2.48903e-06,2.48903e-06,2.52254e-06,0.0,0.0,0.0,0.0,0.0,0.0,0.0,0.0,531,0.19462,0.428569,0.00237727,0.0,2.46282e-05,0.00133348,0.0,0.0,0.0,0.0,0,0,0,165,24,0,0,0
2220000,0.999993,-0.000185315,0.000589221,0.00377369,-0.00775955,0.00201908,0.000528306,-0.00173424,0.000679632,0.00612697,3.2485e-08,7.38283e-08,-1.93249e-07,-4.09433e-06,1.83017e-06,3.24751e-06,0.898598,0.0402343,1.0,0.0,0.0,0.0,0.0,0.0,1.25013e-09,4.15626e-05,0.000217385,3.26792e-09,7.49723e-05,7.49722e-05,0.000324134,0.0513604,0.0513604,0.259995,0.0168917,0.0168917,0.178847,6.35726e-09,6.35726e-09,6.29832e-09,2.41722e-06,2.41722e-06,2.49681e-06,0.0,0.0,0.0,0.0,0.0,0.0,0.0,0.0,531,0.183803,0.422904,0.00258275,0.0,3.45842e-05,0.000877242,0.0,0.0,0.0,0.0,0,0,0,165,24,0,0,0
2412000,0.999993,-0.000310357,0.000746458,0.00353863,-0.00674253,-0.000703926,0.00624719,-0.00200597,0.000512874,0.0124714,6.19438e-08,1.58591e-07,-1.13455e-07,-7.82717e-06,3.13931e-06,-6.84036e-07,0.898598,0.0402343,1.0,0.0,0.0,0.0,0.0,0.0,1.31023e-09,4.26941e-05,0.000212184,2.73364e-09,8.78362e-05,8.78361e-05,0.000294006,0.0511436,0.0511436,0.215156,0.0157842,0.0157842,0.172092,6.30083e-09,6.30083e-09,6.25508e-09,2.30765e-06,2.30764e-06,2.46365e-06,0.0,0.0,0.0,0.0,0.0,0.0,0.0,0.0,531,0.177675,0.41484,0.00149062,0.0,4.02704e-05,0.003282,0.0,0.0,0.0,0.0,0,0,0,165,24,0,0,0
2604000,0.999993,-0.000381438,0.000789412,0.00358332,-0.0101977,-0.00204233,0.00137412,-0.00247318,9.99261e-05,0.00905721,7.99262e-08,2.96599e-07,-2.05222e-07,-1.31124e-05,3.83488e-06,2.98455e-06,0.898598,0.0402343,1.0,0.0,0.0,0.0,0.0,0.0,1.31801e-09,4.29108e-05,0.000212328,2.54234e-09,0.000100881,0.000100881,0.000270917,0.052805,0.0528051,0.181499,0.0152626,0.0152627,0.164192,6.19921e-09,6.19921e-09,6.20168e-09,2.15845e-06,2.15845e-06,2.42219e-06,0.0,0.0,0.0,0.0,0.0,0.0,0.0,0.0,531,0.174715,0.405206,0.00143704,0.0,5.10462e-05,0.00212779,0.0,0.0,0.0,0.0,0,0,0,165,24,0,0,0
2796000,0.999993,-0.000412676,0.000859299,0.00370822,-0.00994359,-0.00420314,-0.00155005,-0.00286134,-0.000378987,0.00544866,6.93623e-08,5.08174e-07,-1.75141e-07,-2.01827e-05,3.49541e-06,5.88876e-06,0.898598,0.0402343,1.0,0.0,0.0,0.0,0.0,0.0,1.41176e-09,4.4614e-05,0.000224957,2.7158e-09,0.000113429,0.000113429,0.0002559,0.0542635,0.0542636,0.157261,0.0151082,0.0151082,0.156234,6.04311e-09,6.04311e-09,6.14521e-09,1.98382e-06,1.98382e-06,2.37201e-06,0.0,0.0,0.0,0.0,0.0,0.0,0.0,0.0,531,0.173829,0.395265,0.00592716,0.0,5.90399e-05,0.0137343,0.0,0.0,0.0,0.0,0,0,0,165,24,0,0,0
2988000,0.999993,-0.000286353,0.000721491,0.0035555,-0.0131116,-0.00756925,-0.000488371,-0.00348658,-0.00106448,0.00546317,1.6157e-08,7.54876e-07,-9.12246e-08,-2.74032e-05,1.95164e-06,6.17801e-06,0.898598,0.0402343,1.0,0.0,0.0,0.0,0.0,0.0,1.45565e-09,4.38853e-05,0.000221974,2.43478e-09,0.000125814,0.000125814,0.000241642,0.0566596,0.0566597,0.143867,0.0161036,0.0161036,0.154695,5.85887e-09,5.85887e-09,6.07133e-09,1.82549e-06,1.82549e-06,2.31952e-06,0.0,0.0,0.0,0.0,0.0,0.0,0.0,0.0,531,0.179464,0.393313,0.00494778,0.0,6.77181e-05,0.00589448,0.0,0.0,0.0,0.0,0,0,0,165,24,0,0,0
3180000,0.999994,-0.000375213,0.000622631,0.00345242,-0.0123297,-0.00752412,-0.00383835,-0.00390516,-0.00172838,0.00146764,-1.16476e-07,1.10629e-06,-1.3599e-07,-3.6331e-05,-1.40433e-06,1.00454e-05,0.898598,0.0402343,1.0,0.0,0.0,0.0,0.0,0.0,1.34887e-09,4.29746e-05,0.000224259,2.20456e-09,0.000136432,0.000136432,0.00023052,0.0552896,0.0552896,0.131905,0.0161247,0.0161247,0.14781,5.61163e-09,5.61163e-09,5.98625e-09,1.6653e-06,1.6653e-06,2.25114e-06,0.0,0.0,0.0,0.0,0.0,0.0,0.0,0.0,531,0.179581,0.384461,0.00365462,0.0,7.86441e-05,0.0101219,0.0,0.0,0.0,0.0,0,0,0,165,24,0,0,0
3372000,0.999994,-0.000424098,0.000514199,0.00338884,-0.00792732,-0.00574727,0.00125646,-0.00364987,-0.00182949,0.0109564,-2.97631e-07,1.49604e-06,-3.42582e-08,-4.4697e-05,-5.28737e-06,-1.58827e-06,0.898598,0.0402343,1.0,0.0,0.0,0.0,0.0,0.0,1.32359e-09,4.25196e-05,0.000220382,2.15468e-09,0.000145818,0.000145818,0.000221857,0.0523932,0.0523932,0.123801,0.015982,0.015982,0.141887,5.33278e-09,5.33278e-09,5.88982e-09,1.53668e-06,1.53668e-06,2.17145e-06,0.0,0.0,0.0,0.0,0.0,0.0,0.0,0.0,531,0.178785,0.376678,0.00763615,0.0,7.54477e-05,0.00421398,0.0,0.0,0.0,0.0,0,0,0,165,24,0,0,0
3564000,0.999994,-0.000524978,0.000290699,0.00341261,-0.00618761,-0.00469148,0.00387996,-0.00308719,-0.00178528,0.0117756,-4.84936e-07,1.85059e-06,3.14052e-07,-5.09646e-05,-8.58884e-06,-1.53685e-06,0.898598,0.0402343,1.0,0.0,0.0,0.0,0.0,0.0,1.32264e-09,4.28031e-05,0.000218532,2.37954e-09,0.000154236,0.000154236,0.000217224,0.0487042,0.0487041,0.118372,0.0156874,0.0156874,0.136956,5.04007e-09,5.04007e-09,5.79479e-09,1.44551e-06,1.44551e-06,2.08046e-06,0.0,0.0,0.0,0.0,0.0,0.0,0.0,0.0,531,0.177129,0.370076,0.00185359,0.0,6.37775e-05,0.00120562,0.0,0.0,0.0,0.0,0,0,0,165,24,0,0,0
3756000,0.999994,-0.000258084,0.000276309,0.00337915,-0.00523778,-0.0051694,-0.00137531,-0.00268783,-0.00189605,0.00525923,-6.53315e-07,2.12094e-06,7.31966e-07,-5.47895e-05,-1.09556e-05,9.14238e-06,0.898598,0.0402343,1.0,0.0,0.0,0.0,0.0,0.0,1.29335e-09,4.25602e-05,0.000223955,2.51371e-09,0.000163204,0.000163205,0.000211946,0.0469577,0.0469577,0.117131,0.0162935,0.0162935,0.137566,4.77647e-09,4.77646e-09,5.67711e-09,1.39308e-06,1.39308e-06,1.99033e-06,0.0,0.0,0.0,0.0,0.0,0.0,0.0,0.0,531,0.180519,0.370899,0.00982145,0.0,5.38208e-05,0.00317405,0.0,0.0,0.0,0.0,0,0,0,165,24,0,0,0
3948000,0.999994,-0.000565503,0.000116571,0.00339763,-0.00239653,-0.00365821,-0.00371615,-0.00204101,-0.00177416,-0.00144731,-8.40763e-07,2.36497e-06,1.02687e-06,-5.74156e-05,-1.29532e-05,1.94458e-05,0.898598,0.0402343,1.0,0.0,0.0,0.0,0.0,0.0,1.37814e-09,4.33789e-05,0.000227312,2.72103e-09,0.0001701,0.0001701,0.000207926,0.0432453,0.0432453,0.114391,0.0158077,0.0158077,0.134264,4.48201e-09,4.48201e-09,5.54924e-09,1.35934e-06,1.35934e-06,1.87982e-06,0.0,0.0,0.0,0.0,0.0,0.0,0.0,0.0,531,0.177807,0.366421,0.0028619,0.0,4.13115e-05,5.10221e-05,0.0,0.0,0.0,0.0,0,0,0,165,24,0,0,0
4140000,0.999994,-0.00038058,5.84356e-05,0.00355925,0.000286575,-0.00242151,-0.0060276,-0.00131065,-0.0013595,-0.0065278,-1.00179e-06,2.53905e-06,1.16101e-06,-5.86912e-05,-1.41201e-05,2.68639e-05,0.898598,0.0402343,1.0,0.0,0.0,0.0,0.0,0.0,1.34097e-09,4.30348e-05,0.000222395,3.00321e-09,0.000175978,0.000175977,0.000206748,0.0399327,0.0399326,0.112078,0.0152798,0.0152798,0.131625,4.18794e-09,4.18794e-09,5.4267e-09,1.34391e-06,1.34391e-06,1.76039e-06,0.0,0.0,0.0,0.0,0.0,0.0,0.0,0.0,531,0.174813,0.362801,0.00295919,0.0,2.76466e-05,0.000735421,0.0,0.0,0.0,0.0,0,0,0,165,24,0,0,0
4332000,0.999994,-0.00047968,-0.000205352,0.00345466,0.00220637,-0.00242766,-0.00585773,-0.00049166,-0.00112855,-0.0082836,-1.12877e-06,2.63065e-06,1.26047e-06,-5.90753e-05,-1.46221e-05,2.73135e-05,0.898598,0.0402343,1.0,0.0,0.0,0.0,0.0,0.0,1.25058e-09,4.18721e-05,0.000212747,2.88066e-09,0.000180633,0.000180633,0.000204411,0.0370921,0.0370921,0.109752,0.0147409,0.0147409,0.129443,3.89421e-09,3.89421e-09,5.28055e-09,1.33914e-06,1.33914e-06,1.63409e-06,0.0,0.0,0.0,0.0,0.0,0.0,0.0,0.0,531,0.171702,0.359781,0.000645687,0.0,2.32674e-05,0.0027408,0.0,0.0,0.0,0.0,0,0,0,165,24,0,0,0
4524000,0.999994,-0.000385219,-0.000259607,0.00341154,0.00514728,-0.00335618,0.00180988,0.000253451,-0.0011094,0.00220604,-1.2291e-06,2.64314e-06,1.05896e-06,-5.90868e-05,-1.47367e-05,7.53194e-06,0.898598,0.0402343,1.0,0.0,0.0,0.0,0.0,0.0,1.29182e-09,4.31087e-05,0.000209062,2.7142e-09,0.000185753,0.000185753,0.000204519,0.036308,0.036308,0.109507,0.0151317,0.0151317,0.131909,3.63572e-09,3.63572e-09,5.14422e-09,1.33866e-06,1.33866e-06,1.51899e-06,0.0,0.0,0.0,0.0,0.0,0.0,0.0,0.0,531,0.173964,0.363193,0.0118594,0.0,2.18382e-05,0.0019184,0.0,0.0,0.0,0.0,0,0,0,165,24,0,0,0
4716000,0.999994,-0.000440152,-0.00047159,0.00334642,0.00728819,-0.00543165,-0.000275835,0.00110744,-0.0013812,0.00101587,-1.35458e-06,2.57356e-06,1.10965e-06,-5.92102e-05,-1.45469e-05,1.04546e-05,0.898598,0.0402343,1.0,0.0,0.0,0.0,0.0,0.0,1.20051e-09,4.24324e-05,0.00020966,2.66235e-09,0.000187422,0.000187422,0.0002032,0.0342475,0.0342476,0.106438,0.0146012,0.0146012,0.130118,3.34231e-09,3.34231e-09,4.98438e-09,1.33788e-06,1.33788e-06,1.38744e-06,0.0,0.0,0.0,0.0,0.0,0.0,0.0,0.0,531,0.170887,0.360719,0.0060456,0.0,2.75392e-05,0.000690528,0.0,0.0,0.0,0.0,0,0,0,165,24,0,0,0
4908000,0.999994,-0.000514431,-0.000371784,0.00339558,0.00792401,-0.00831314,0.00688504,0.00182868,-0.00177807,0.00987859,-1.51678e-06,2.41938e-06,1.25363e-06,-5.98142e-05,-1.39017e-05,-4.26891e-06,0.898598,0.0402343,1.0,0.0,0.0,0.0,0.0,0.0,1.28291e-09,4.41018e-05,0.000212149,2.82248e-09,0.000187394,0.000187394,0.000202223,0.0325799,0.03258,0.102934,0.0141405,0.0141405,0.128434,3.0524e-09,3.0524e-09,4.81963e-09,1.33337e-06,1.33337e-06,1.25784e-06,0.0,0.0,0.0,0.0,0.0,0.0,0.0,0.0,531,0.16817,0.358377,0.00179831,0.0,3.63416e-05,0.00219815,0.0,0.0,0.0,0.0,0,0,0,165,24,0,0,0
5100000,0.999994,-0.000288466,-0.000388076,0.00336253,0.0093548,-0.0100252,0.0104238,0.00244747,-0.00238699,0.0123912,-1.7382e-06,2.19313e-06,1.32432e-06,-6.11952e-05,-1.25501e-05,-6.11272e-06,0.898598,0.0402343,1.0,0.0,0.0,0.0,0.0,0.0,1.23412e-09,4.32199e-05,0.000219617,2.76057e-09,0.000185499,0.000185499,0.000201476,0.031165,0.0311652,0.0989713,0.0137268,0.0137268,0.126714,2.76626e-09,2.76626e-09,4.65109e-09,1.32278e-06,1.32278e-06,1.13245e-06,0.0,0.0,0.0,0.0,0.0,0.0,0.0,0.0,531,0.165691,0.355969,0.00204201,0.0,5.03501e-05,0.00174476,0.0,0.0,0.0,0.0,0,0,0,165,24,0,0,0
5292000,0.999995,-2.78651e-05,-0.000278045,0.00314455,0.00916047,-0.00908272,0.00889339,0.00303257,-0.00291842,0.0146606,-1.98267e-06,1.94682e-06,1.24759e-06,-6.31426e-05,-1.06193e-05,-6.84147e-06,0.898598,0.0402343,1.0,0.0,0.0,0.0,0.0,0.0,1.36294e-09,4.37583e-05,0.000222892,2.396e-09,0.000183971,0.000183971,0.000202686,0.0311526,0.0311526,0.0966993,0.0141239,0.0141239,0.128968,2.51739e-09,2.51739e-09,4.49915e-09,1.30725e-06,1.30725e-06,1.02632e-06,0.0,0.0,0.0,0.0,0.0,0.0,0.0,0.0,531,0.168071,0.359121,0.000617693,0.0,5.92888e-05,0.00257081,0.0,0.0,0.0,0.0,0,0,0,165,24,0,0,0
5492000,0.999995,-0.000117291,-0.00032538,0.00310462,0.00900146,-0.00932675,0.0027801,0.00331307,-0.00323051,0.00628587,-2.28493e-06,1.63887e-06,1.08638e-06,-6.60927e-05,-7.74217e-06,9.44749e-06,0.898598,0.0402343,1.0,0.0,0.0,0.0,0.0,0.0,1.23963e-09,4.40129e-05,0.000220104,2.31493e-09,0.000179165,0.000179165,0.000202809,0.0303532,0.0303532,0.092526,0.014033,0.014033,0.128367,2.24645e-09,2.24645e-09,4.32693e-09,1.28264e-06,1.28264e-06,9.14347e-07,0.0,0.0,0.0,0.0,0.0,0.0,0.0,0.0,531,0.167529,0.358284,0.00319694,0.0,6.52008e-05,0.00202736,0.0,0.0,0.0,0.0,0,0,0,165,24,0,0,0
5684000,0.999995,-0.00010169,-0.000318687,0.00312577,0.00962868,-0.00844491,0.00331885,0.00342179,-0.00331412,0.00982087,-2.59964e-06,1.32026e-06,8.08344e-07,-6.96197e-05,-4.25342e-06,4.50591e-06,0.898598,0.0402343,1.0,0.0,0.0,0.0,0.0,0.0,1.27746e-09,4.32039e-05,0.000207131,2.24912e-09,0.000172174,0.000172174,0.000202283,0.0291936,0.0291937,0.0875694,0.0136847,0.0136847,0.126132,1.98837e-09,1.98836e-09,4.15447e-09,1.25093e-06,1.25093e-06,8.11199e-07,0.0,0.0,0.0,0.0,0.0,0.0,0.0,0.0,531,0.165437,0.355151,0.00100369,0.0,6.88003e-05,0.00154095,0.0,0.0,0.0,0.0,0,0,0,165,24,0,0,0
5876000,0.999996,-8.11389e-05,-0.000170846,0.00285422,0.0108151,-0.00731176,0.00391746,0.00365564,-0.00329311,0.00973987,-2.9129e-06,9.9107e-07,7.27169e-07,-7.37287e-05,-3.46636e-07,5.59323e-06,0.898598,0.0402343,1.0,0.0,0.0,0.0,0.0,0.0,1.38602e-09,4.44038e-05,0.000220242,1.87849e-09,0.000164033,0.000164032,0.000201731,0.0280378,0.0280378,0.0825642,0.0133658,0.0133658,0.123789,1.74738e-09,1.74738e-09,3.98297e-09,1.21342e-06,1.21343e-06,7.17569e-07,0.0,0.0,0.0,0.0,0.0,0.0,0.0,0.0,531,0.163498,0.351837,0.00417995,0.0,7.33137e-05,0.00144225,0.0,0.0,0.0,0.0,0,0,0,165,24,0,0,0
6068000,0.999995,7.51943e-05,0.000190515,0.0030863,0.0105732,-0.00656414,-0.00111035,0.0039825,-0.00310534,0.00374181,-3.20841e-06,6.39821e-07,4.75071e-07,-7.8564e-05,3.71207e-06,1.53395e-05,0.898598,0.0402343,1.0,0.0,0.0,0.0,0.0,0.0,1.4139e-09,4.34388e-05,0.000216006,2.03486e-09,0.000155007,0.000155007,0.000201112,0.0268625,0.0268625,0.0775766,0.0130539,0.0130539,0.121313,1.52506e-09,1.52505e-09,3.8133e-09,1.17145e-06,1.17145e-06,6.33289e-07,0.0,0.0,0.0,0.0,0.0,0.0,0.0,0.0,531,0.161579,0.348301,0.00082648,0.0,8.18138e-05,0.00221778,0.0,0.0,0.0,0.0,0,0,0,165,24,0,0,0
6260000,0.999995,0.000325446,0.000159394,0.00319382,0.00565355,-0.00449359,0.000348501,0.00389954,-0.00297275,0.0063202,-3.44498e-06,3.34309e-07,1.19313e-07,-8.30894e-05,7.2255e-06,1.10258e-05,0.898598,0.0402343,1.0,0.0,0.0,0.0,0.0,0.0,1.44307e-09,4.28761e-05,0.000227057,2.02995e-09,0.000147646,0.000147645,0.000202209,0.0266394,0.0266394,0.0742744,0.0134425,0.0134425,0.122404,1.34466e-09,1.34465e-09,3.66476e-09,1.13173e-06,1.13173e-06,5.66024e-07,0.0,0.0,0.0,0.0,0.0,0.0,0.0,0.0,531,0.163966,0.349862,0.00385328,0.0,7.81662e-05,0.00388034,0.0,0.0,0.0,0.0,0,0,0,165,24,0,0,0
6452000,0.999995,0.000366674,0.000201355,0.00318642,0.00648073,-0.00398753,-0.000591591,0.00326325,-0.00247106,0.0040603,-3.66595e-06,4.75392e-08,-3.66152e-07,-8.76307e-05,1.07319e-05,1.43467e-05,0.898598,0.0402343,1.0,0.0,0.0,0.0,0.0,0.0,1.3691e-09,4.30016e-05,0.000232241,1.84493e-09,0.000137818,0.000137818,0.000201383,0.0253434,0.0253434,0.0694405,0.0131093,0.0131093,0.11962,1.1618e-09,1.1618e-09,3.50087e-09,1.08577e-06,1.08578e-06,4.98497e-07,0.0,0.0,0.0,0.0,0.0,0.0,0.0,0.0,531,0.161922,0.345861,0.00292697,0.0,6.59629e-05,0.00342412,0.0,0.0,0.0,0.0,0,0,0,165,24,0,0,0
6644000,0.999994,0.000533102,0.000318781,0.00344298,0.00598935,0.000516414,-0.00363676,0.00301223,-0.00186408,0.00130435,-3.83828e-06,-1.94377e-07,-8.04197e-07,-9.17063e-05,1.36408e-05,1.72885e-05,0.898598,0.0402343,1.0,0.0,0.0,0.0,0.0,0.0,1.43337e-09,4.37456e-05,0.000234132,1.99142e-09,0.000128075,0.000128074,0.000200436,0.0240447,0.0240447,0.0648194,0.0127747,0.0127747,0.116788,1.00012e-09,1.00011e-09,3.34101e-09,1.03984e-06,1.03985e-06,4.38958e-07,0.0,0.0,0.0,0.0,0.0,0.0,0.0,0.0,531,0.159842,0.341742,0.00426486,0.0,6.18454e-05,0.00120876,0.0,0.0,0.0,0.0,0,0,0,165,24,0,0,0
6836000,0.999993,0.000673787,0.000408971,0.00366663,0.00465876,0.00447856,-0.00393595,0.0026165,-0.00078835,0.00203285,-3.93456e-06,-4.00437e-07,-1.17384e-06,-9.53662e-05,1.53555e-05,1.54775e-05,0.898598,0.0402343,1.0,0.0,0.0,0.0,0.0,0.0,1.38503e-09,4.35886e-05,0.000235022,2.138e-09,0.000118703,0.000118703,0.000199371,0.0227653,0.0227653,0.0604599,0.0124492,0.0124492,0.11397,8.59224e-10,8.59213e-10,3.18581e-09,9.95262e-07,9.95264e-07,3.86769e-07,0.0,0.0,0.0,0.0,0.0,0.0,0.0,0.0,531,0.157792,0.337594,0.00487817,0.0,5.3684e-05,0.00130847,0.0,0.0,0.0,0.0,0,0,0,165,24,0,0,0
7028000,0.999993,0.000689283,0.000358096,0.0037981,0.00623689,0.00732691,0.00425871,0.00256383,0.00040363,0.0108047,-3.94569e-06,-5.53e-07,-1.54376e-06,-9.8198e-05,1.55671e-05,4.76066e-06,0.898598,0.0402343,1.0,0.0,0.0,0.0,0.0,0.0,1.2378e-09,4.11154e-05,0.000228795,2.19718e-09,0.000111459,0.000111459,0.000199946,0.0222772,0.0222772,0.0575263,0.0127506,0.0127506,0.114363,7.49804e-10,7.49794e-10,3.05204e-09,9.57292e-07,9.57294e-07,3.45845e-07,0.0,0.0,0.0,0.0,0.0,0.0,0.0,0.0,531,0.159691,0.338177,0.00692415,0.0,5.04926e-05,0.00165175,0.0,0.0,0.0,0.0,0,0,0,165,24,0,0,0
7220000,0.999992,0.000757208,0.000347255,0.00401575,0.00538092,0.0113766,-0.00287155,0.00247024,0.00176155,-0.000978592,-3.87939e-06,-7.11653e-07,-2.25403e-06,-0.000101288,1.4291e-05,1.90121e-05,0.898598,0.0402343,1.0,0.0,0.0,0.0,0.0,0.0,1.23232e-09,4.19637e-05,0.000222321,2.20764e-09,0.000103014,0.000103013,0.000198615,0.0209932,0.0209931,0.0535995,0.0123994,0.0123994,0.111441,6.43152e-10,6.43143e-10,2.90655e-09,9.17079e-07,9.17082e-07,3.05331e-07,0.0,0.0,0.0,0.0,0.0,0.0,0.0,0.0,531,0.157476,0.333828,0.00665585,0.0,4.97607e-05,0.000911833,0.0,0.0,0.0,0.0,0,0,0,165,24,0,0,0
7412000,0.99999,0.000919436,0.000203246,0.0043936,0.00490773,0.00993132,-0.00363093,0.00238388,0.00275311,-0.00562157,-3.74328e-06,-8.54491e-07,-2.85087e-06,-0.000104178,1.15501e-05,2.34307e-05,0.898598,0.0402343,1.0,0.0,0.0,0.0,0.0,0.0,1.20053e-09,4.18483e-05,0.000220034,2.50229e-09,9.52214e-05,9.52209e-05,0.000197165,0.0197513,0.0197512,0.0499453,0.0120505,0.0120505,0.108565,5.51967e-10,5.51959e-10,2.76657e-09,8.79801e-07,8.79804e-07,2.69972e-07,0.0,0.0,0.0,0.0,0.0,0.0,0.0,0.0,531,0.155245,0.329492,0.0105856,0.0,5.64402e-05,0.00127626,0.0,0.0,0.0,0.0,0,0,0,165,24,0,0,0
7604000,0.999989,0.000997625,0.000163251,0.00450085,0.0030966,0.0116719,-0.00413649,0.00226809,0.00366848,-0.00587258,-3.59096e-06,-9.66733e-07,-3.15106e-06,-0.000106527,8.36627e-06,2.28986e-05,0.898598,0.0402343,1.0,0.0,0.0,0.0,0.0,0.0,1.13181e-09,4.10923e-05,0.000227298,2.58858e-09,8.93621e-05,8.93616e-05,0.000197325,0.0192439,0.0192439,0.0474801,0.0122927,0.0122927,0.108648,4.82461e-10,4.82453e-10,2.64693e-09,8.49304e-07,8.49306e-07,2.4237e-07,0.0,0.0,0.0,0.0,0.0,0.0,0.0,0.0,531,0.156797,0.329618,0.00498744,0.0,7.14015e-05,0.000818931,0.0,0.0,0.0,0.0,0,0,0,165,24,0,0,0
7796000,0.999989,0.00102229,0.000387564,0.00452109,0.00335236,0.0138955,-0.000761107,0.00194671,0.00446318,0.00108849,-3.39482e-06,-1.07131e-06,-3.46234e-06,-0.000108779,4.12657e-06,1.51837e-05,0.898598,0.0402343,1.0,0.0,0.0,0.0,0.0,0.0,1.15834e-09,4.1372e-05,0.000221949,2.5036e-09,8.27927e-05,8.27921e-05,0.000195638,0.0180879,0.0180879,0.044273,0.011933,0.0119329,0.105779,4.15428e-10,4.15422e-10,2.51773e-09,8.17906e-07,8.17908e-07,2.1507e-07,0.0,0.0,0.0,0.0,0.0,0.0,0.0,0.0,531,0.154486,0.325236,0.00495733,0.0,8.91089e-05,0.00240618,0.0,0.0,0.0,0.0,0,0,0,165,24,0,0,0
7988000,0.999989,0.00100868,0.000413863,0.00460459,0.00267225,0.0179734,-0.00212865,0.00172824,0.00552536,-0.00170918,-3.16824e-06,-1.15659e-06,-3.46573e-06,-0.000110684,-9.37957e-07,1.76343e-05,0.898598,0.0402343,1.0,0.0,0.0,0.0,0.0,0.0,1.22115e-09,4.14998e-05,0.000220774,2.66597e-09,7.69024e-05,7.69017e-05,0.000193862,0.0170126,0.0170125,0.0413242,0.0115915,0.0115915,0.103017,3.58804e-10,3.58799e-10,2.39434e-09,7.89614e-07,7.89615e-07,1.91285e-07,0.0,0.0,0.0,0.0,0.0,0.0,0.0,0.0,531,0.152259,0.320963,0.000696461,0.0,0.000110203,0.00150025,0.0,0.0,0.0,0.0,0,0,0,165,24,0,0,0
8180000,0.999988,0.00084319,0.000436623,0.00488722,0.00236712,0.0183705,-0.00473066,0.00158209,0.00645999,-0.0061237,-2.91152e-06,-1.2282e-06,-3.78625e-06,-0.000112332,-6.84081e-06,2.11716e-05,0.898598,0.0402343,1.0,0.0,0.0,0.0,0.0,0.0,1.17059e-09,4.12505e-05,0.000221445,2.94482e-09,7.16179e-05,7.16173e-05,0.000192001,0.0160088,0.0160088,0.038607,0.0112599,0.0112599,0.100343,3.10858e-10,3.10854e-10,2.27666e-09,7.64161e-07,7.64161e-07,1.70512e-07,0.0,0.0,0.0,0.0,0.0,0.0,0.0,0.0,531,0.150066,0.31677,0.00415978,0.0,0.000132211,0.00190437,0.0,0.0,0.0,0.0,0,0,0,165,24,0,0,0
8380000,0.999988,0.000860573,0.000424533,0.00487981,0.00103948,0.0187526,-0.00635662,0.00139378,0.0072507,-0.00751849,-2.64442e-06,-1.28815e-06,-3.9095e-06,-0.000113745,-1.31629e-05,2.14898e-05,0.898598,0.0402343,1.0,0.0,0.0,0.0,0.0,0.0,1.28603e-09,4.31582e-05,0.000224923,2.93505e-09,6.70602e-05,6.70596e-05,0.000190593,0.0152537,0.0152537,0.0362728,0.0111353,0.0111353,0.0986279,2.70552e-10,2.70549e-10,2.16462e-09,7.41524e-07,7.41524e-07,1.52418e-07,0.0,0.0,0.0,0.0,0.0,0.0,0.0,0.0,531,0.149233,0.314051,0.0138561,0.0,0.00014526,0.00336085,0.0,0.0,0.0,0.0,0,0,0,165,24,0,0,0
8572000,0.999987,0.000851647,0.000572444,0.00500103,0.000783328,0.0183488,-0.0100927,0.00106669,0.00782316,-0.0144479,-2.3728e-06,-1.33306e-06,-4.37191e-06,-0.000114832,-1.97516e-05,2.60183e-05,0.898598,0.0402343,1.0,0.0,0.0,0.0,0.0,0.0,1.2506e-09,4.32626e-05,0.000234758,2.93346e-09,6.28839e-05,6.28833e-05,0.000190182,0.0144077,0.0144076,0.0339859,0.0108445,0.0108445,0.0961782,2.36396e-10,2.36395e-10,2.06968e-09,7.2129e-07,7.2129e-07,1.36592e-07,0.0,0.0,0.0,0.0,0.0,0.0,0.0,0.0,531,0.147272,0.310126,0.014414,0.0,0.000159972,0.000886365,0.0,0.0,0.0,0.0,0,0,0,165,24,0,0,0
8764000,0.999986,0.000693593,0.000592874,0.00519622,0.00185455,0.0204231,-0.00794645,0.00104001,0.00866284,-0.0101302,-2.13286e-06,-1.36415e-06,-4.31868e-06,-0.000115588,-2.57307e-05,2.1086e-05,0.898598,0.0402343,1.0,0.0,0.0,0.0,0.0,0.0,1.33574e-09,4.48189e-05,0.000227263,3.29415e-09,5.97816e-05,5.97811e-05,0.000188088,0.0140478,0.0140477,0.0324351,0.0110303,0.0110303,0.096076,2.10325e-10,2.10325e-10,1.96794e-09,7.0508e-07,7.05079e-07,1.24151e-07,0.0,0.0,0.0,0.0,0.0,0.0,0.0,0.0,531,0.148528,0.309961,0.0088671,0.0,0.000170497,0.00151075,0.0,0.0,0.0,0.0,0,0,0,165,24,0,0,0
8956000,0.999985,0.000522469,0.000619657,0.00537595,0.00443196,0.0192872,-0.00173453,0.00117304,0.00898365,-0.0036249,-1.86218e-06,-1.39868e-06,-4.41104e-06,-0.000116441,-3.26261e-05,1.53702e-05,0.898598,0.0402343,1.0,0.0,0.0,0.0,0.0,0.0,1.34331e-09,4.65309e-05,0.000222682,3.5552e-09,5.63115e-05,5.63111e-05,0.000185943,0.0132318,0.0132318,0.0304216,0.0106984,0.0106984,0.0936064,1.84824e-10,1.84825e-10,1.87133e-09,6.88486e-07,6.88484e-07,1.11682e-07,0.0,0.0,0.0,0.0,0.0,0.0,0.0,0.0,531,0.146276,0.305952,0.00339152,0.0,0.000183646,0.0034471,0.0,0.0,0.0,0.0,0,0,0,165,24,0,0,0
9148000,0.999985,0.000558379,0.000851965,0.00532545,0.00310938,0.018131,-0.00531824,0.00159737,0.00932001,-0.0107312,-1.63174e-06,-1.43618e-06,-4.52051e-06,-0.00011741,-3.86159e-05,2.00465e-05,0.898598,0.0402343,1.0,0.0,0.0,0.0,0.0,0.0,1.38462e-09,4.45886e-05,0.000230259,3.48256e-09,5.37424e-05,5.37421e-05,0.000185275,0.0128674,0.0128674,0.029043,0.010822,0.010822,0.0933296,1.65349e-10,1.65351e-10,1.78965e-09,6.75254e-07,6.75252e-07,1.01837e-07,0.0,0.0,0.0,0.0,0.0,0.0,0.0,0.0,531,0.147119,0.305499,0.00108751,0.0,0.000184548,0.00130614,0.0,0.0,0.0,0.0,0,0,0,165,24,0,0,0
9340000,0.999986,0.000321759,0.000868262,0.00524241,0.00118898,0.0183286,-0.00435235,0.00149717,0.00924097,-0.0105187,-1.39256e-06,-1.47919e-06,-4.29066e-06,-0.00011853,-4.49687e-05,1.92517e-05,0.898598,0.0402343,1.0,0.0,0.0,0.0,0.0,0.0,1.179e-09,4.18571e-05,0.000233327,3.51548e-09,5.09651e-05,5.09649e-05,0.000183032,0.0121605,0.0121605,0.0272974,0.0104959,0.0104959,0.0909326,1.46612e-10,1.46615e-10,1.70235e-09,6.62015e-07,6.62012e-07,9.20263e-08,0.0,0.0,0.0,0.0,0.0,0.0,0.0,0.0,531,0.144886,0.30155,0.00444108,0.0,0.000185806,0.00166847,0.0,0.0,0.0,0.0,0,0,0,165,24,0,0,0
9532000,0.999987,0.000248239,0.00103073,0.00506983,-0.00174544,0.0155965,-0.00374193,0.00107374,0.00917922,-0.0092624,-1.16998e-06,-1.51319e-06,-3.76585e-06,-0.000119424,-5.1005e-05,1.79235e-05,0.898598,0.0402343,1.0,0.0,0.0,0.0,0.0,0.0,1.10492e-09,4.01866e-05,0.000229743,3.59699e-09,4.85247e-05,4.85245e-05,0.000180776,0.0115312,0.0115313,0.0257015,0.0101999,0.0101999,0.0886651,1.30712e-10,1.30715e-10,1.61976e-09,6.50324e-07,6.50321e-07,8.33917e-08,0.0,0.0,0.0,0.0,0.0,0.0,0.0,0.0,531,0.142828,0.297767,0.00318393,0.0,0.000184842,0.00591225,0.0,0.0,0.0,0.0,0,0,0,165,24,0,0,0
9732000,0.999988,0.000210322,0.00124415,0.00480441,-0.00372236,0.0131367,-0.00227266,0.000301937,0.00867994,-0.00595098,-9.70167e-07,-1.52998e-06,-3.73542e-06,-0.000119855,-5.65101e-05,1.53206e-05,0.898598,0.0402343,1.0,0.0,0.0,0.0,0.0,0.0,1.0841e-09,4.15538e-05,0.000241551,3.2369e-09,4.64178e-05,4.64177e-05,0.000178949,0.0110564,0.0110565,0.0243216,0.0100646,0.0100646,0.0871269,1.17116e-10,1.1712e-10,1.54162e-09,6.39942e-07,6.39939e-07,7.57635e-08,0.0,0.0,0.0,0.0,0.0,0.0,0.0,0.0,531,0.141877,0.295173,0.0024587,0.0,0.000175002,0.00244203,0.0,0.0,0.0,0.0,0,0,0,165,24,0,0,0
9924000,0.999988,0.000195574,0.000984117,0.00485652,-0.00361447,0.0123135,-0.00245542,-0.000378601,0.00809997,-0.00275146,-7.96183e-07,-1.52957e-06,-3.6139e-06,-0.000119813,-6.13875e-05,1.29737e-05,0.898598,0.0402343,1.0,0.0,0.0,0.0,0.0,0.0,1.23578e-09,4.29193e-05,0.000226366,3.39438e-09,4.44912e-05,4.44912e-05,0.000176667,0.0105336,0.0105337,0.0229691,0.00980053,0.00980055,0.0850396,1.05434e-10,1.05439e-10,1.46773e-09,6.30701e-07,6.30698e-07,6.90089e-08,0.0,0.0,0.0,0.0,0.0,0.0,0.0,0.0,531,0.140004,0.291615,0.00150628,0.0,0.000165266,0.0180666,0.0,0.0,0.0,0.0,0,0,0,165,24,0,0,0
10116000,0.999987,-0.00017586,0.000982952,0.00493617,-0.0030179,0.0103573,-0.00121631,-0.000708358,0.00772609,-0.00486759,-6.60442e-07,-1.52085e-06,-3.51696e-06,-0.000119551,-6.52498e-05,1.40707e-05,0.898598,0.0402343,1.0,0.0,0.0,0.0,0.0,0.0,1.27341e-09,4.37529e-05,0.000225682,3.59104e-09,4.30834e-05,4.30836e-05,0.000175753,0.0103344,0.0103345,0.0220579,0.00993701,0.00993704,0.0848214,9.64262e-11,9.64312e-11,1.40545e-09,6.23337e-07,6.23333e-07,6.36483e-08,0.0,0.0,0.0,0.0,0.0,0.0,0.0,0.0,531,0.140975,0.291241,0.00294907,0.0,0.000154145,0.0192082,0.0,0.0,0.0,0.0,0,0,0,165,24,0,0,0
10308000,0.999997,-0.000306155,0.000970155,0.00244843,-0.00403361,0.00799473,-4.00096e-06,-0.00104314,0.00690632,0.000686787,-5.29702e-07,-1.50642e-06,-3.36225e-06,-0.0001191,-6.90165e-05,1.06847e-05,0.901569,0.0403673,1.0,0.0,0.0,0.0,0.0,0.0,1.0493e-09,3.99677e-05,0.000231935,1.22635e-08,4.22632e-05,4.22619e-05,0.0018128,0.00893528,0.00893539,0.0208884,0.00966083,0.00966087,0.0828506,8.758e-11,8.75853e-11,1.36811e-09,6.15922e-07,6.15918e-07,5.82481e-08,0.0,0.0,0.0,0.0,0.0,0.0,0.0,0.0,531,0.139003,0.287838,0.0023681,0.0,0.000139533,0.00533066,0.0,0.0,0.0,0.0,0,0,0,165,24,0,0,0
10500000,0.999996,-0.000394729,0.00089091,0.0026041,-0.00497034,0.00533413,0.0016102,-0.00156069,0.00595568,0.00286349,-4.23818e-07,-1.48562e-06,-3.36241e-06,-0.000118521,-7.18798e-05,9.62076e-06,0.901569,0.0403673,1.0,0.0,0.0,0.0,0.0,0.0,1.0381e-09,3.9983e-05,0.000229391,7.12987e-09,4.23556e-05,4.23552e-05,0.00105106,0.00816516,0.00816523,0.019813,0.00919943,0.00919946,0.08098,8.02429e-11,8.02483e-11,1.36815e-09,6.10466e-07,6.10462e-07,5.34406e-08,0.0,0.0,0.0,0.0,0.0,0.0,0.0,0.0,531,0.135642,0.28457,0.00378093,0.0,0.000120465,0.000534702,0.0,0.0,0.0,0.0,0,0,0,165,24,0,0,0
10700000,0.999995,-0.000398676,0.000689732,0.00290281,-0.00368509,0.00340963,0.000279292,-0.00181362,0.00498065,0.00342803,-3.44746e-07,-1.46158e-06,-3.36962e-06,-0.000118031,-7.34698e-05,9.43901e-06,0.901569,0.0403673,1.0,0.0,0.0,0.0,0.0,0.0,1.04986e-09,4.00825e-05,0.000242454,5.39278e-09,4.2356e-05,4.2356e-05,0.000740421,0.00991591,0.00991594,0.0188814,0.00883476,0.00883479,0.0797147,7.46024e-11,7.4608e-11,1.36806e-09,6.08094e-07,6.0809e-07,5e-08,0.0,0.0,0.0,0.0,0.0,0.0,0.0,0.0,531,0.132927,0.282338,0.00457367,0.0,0.000100875,0.000404867,0.0,0.0,0.0,0.0,0,0,0,165,24,0,0,0
10892000,0.999996,-0.000303597,0.00068978,0.00287544,-0.00369759,0.00416489,0.00263728,-0.00193638,0.00425259,0.00536625,-2.88284e-07,-1.43882e-06,-3.37333e-06,-0.000117877,-7.38336e-05,8.58165e-06,0.901569,0.0403673,1.0,0.0,0.0,0.0,0.0,0.0,1.21898e-09,4.15732e-05,0.000230973,4.0703e-09,4.20166e-05,4.20165e-05,0.000571876,0.0133398,0.0133398,0.0179615,0.00858789,0.00858792,0.0779859,7.05663e-11,7.05721e-11,1.36778e-09,6.07809e-07,6.07805e-07,5e-08,0.0,0.0,0.0,0.0,0.0,0.0,0.0,0.0,531,0.131057,0.27926,0.000364762,0.0,8.65485e-05,0.00821947,0.0,0.0,0.0,0.0,0,0,0,165,24,0,0,0
11084000,0.999995,-0.000574534,0.000690219,0.00295066,-0.00161292,0.00254706,0.00277486,-0.00196361,0.00365555,0.00443742,-2.52666e-07,-1.42135e-06,-3.37697e-06,-0.000118157,-7.32787e-05,9.25124e-06,0.901569,0.0403673,1.0,0.0,0.0,0.0,0.0,0.0,1.27543e-09,4.16351e-05,0.000219944,3.60386e-09,4.11621e-05,4.11622e-05,0.000476102,0.0180746,0.0180745,0.0173454,0.00899883,0.00899884,0.0777905,6.82039e-11,6.82097e-11,1.36732e-09,6.07082e-07,6.07078e-07,5.00001e-08,0.0,0.0,0.0,0.0,0.0,0.0,0.0,0.0,531,0.134155,0.27891,0.00733016,0.0,7.36463e-05,0.00926642,0.0,0.0,0.0,0.0,0,0,0,165,24,0,0,0
11284000,0.999994,-0.000673765,0.000355589,0.00334016,0.00054496,0.0017197,-0.000365496,-0.00149441,0.00297086,-0.00061983,-2.27372e-07,-1.40845e-06,-3.37684e-06,-0.000118854,-7.19664e-05,1.17504e-05,0.901569,0.0403673,1.0,0.0,0.0,0.0,0.0,0.0,1.23016e-09,4.20237e-05,0.00020987,4.01266e-09,3.93253e-05,3.93256e-05,0.000401038,0.0231317,0.0231317,0.0166037,0.00967226,0.00967227,0.0766063,6.67257e-11,6.67317e-11,1.36651e-09,6.02467e-07,6.02463e-07,5.00001e-08,0.0,0.0,0.0,0.0,0.0,0.0,0.0,0.0,531,0.139085,0.276778,0.00507817,0.0,5.99756e-05,0.00308926,0.0,0.0,0.0,0.0,0,0,0,165,24,0,0,0
11484000,0.999995,-0.00079014,0.000353548,0.0032235,0.0019893,0.000553023,-0.00245627,-0.0009309,0.00220378,-0.000103375,-2.14997e-07,-1.40269e-06,-3.372e-06,-0.000119613,-7.03287e-05,1.13236e-05,0.901569,0.0403673,1.0,0.0,0.0,0.0,0.0,0.0,1.2523e-09,4.31791e-05,0.000214746,3.43323e-09,3.65327e-05,3.65329e-05,0.000346916,0.0272794,0.0272793,0.0159297,0.0106895,0.0106895,0.0754695,6.61912e-11,6.61971e-11,1.36535e-09,5.91027e-07,5.91024e-07,5.00001e-08,0.0,0.0,0.0,0.0,0.0,0.0,0.0,0.0,531,0.146216,0.274717,0.000663467,0.0,4.47783e-05,0.00307761,0.0,0.0,0.0,0.0,0,0,0,165,24,0,0,0
11676000,0.999996,-0.00079297,0.000332542,0.00285499,0.00449327,-0.00151939,-0.00401226,-4.20674e-05,0.00136446,0.000315501,-2.11338e-07,-1.40156e-06,-3.36085e-06,-0.000120007,-6.88632e-05,1.08947e-05,0.901569,0.0403673,1.0,0.0,0.0,0.0,0.0,0.0,1.33356e-09,4.39755e-05,0.000220096,2.61809e-09,3.30989e-05,3.30991e-05,0.000306102,0.0291985,0.0291985,0.0152728,0.0115549,0.0115549,0.0739284,6.61681e-11,6.61741e-11,1.36377e-09,5.72259e-07,5.72256e-07,5e-08,0.0,0.0,0.0,0.0,0.0,0.0,0.0,0.0,531,0.152019,0.271898,0.00295043,0.0,2.81805e-05,0.000480752,0.0,0.0,0.0,0.0,0,0,0,165,24,0,0,0
11868000,0.999996,-0.000755917,0.000259955,0.00276947,0.00880663,-0.00248962,-0.00536468,0.000961618,0.00051972,-0.000533033,-2.11676e-07,-1.40116e-06,-3.31824e-06,-0.000119566,-6.80187e-05,1.08998e-05,0.901569,0.0403673,1.0,0.0,0.0,0.0,0.0,0.0,1.21882e-09,4.27892e-05,0.000226227,2.54106e-09,2.95937e-05,2.95939e-05,0.000274354,0.0290685,0.0290685,0.0146837,0.0122062,0.0122062,0.0724695,6.62472e-11,6.62532e-11,1.36173e-09,5.48649e-07,5.48645e-07,5e-08,0.0,0.0,0.0,0.0,0.0,0.0,0.0,0.0,531,0.156245,0.269202,0.0051666,0.0,1.83297e-05,0.00588198,0.0,0.0,0.0,0.0,0,0,0,165,24,0,0,0
12060000,0.999995,-0.00064906,0.000380174,0.00302271,0.00903491,-0.00421083,-0.0055399,0.00183676,-0.000246966,-0.000821444,-2.11857e-07,-1.39735e-06,-3.33896e-06,-0.000118145,-6.79217e-05,1.05388e-05,0.901569,0.0403673,1.0,0.0,0.0,0.0,0.0,0.0,1.25592e-09,4.36602e-05,0.000229638,2.62851e-09,2.64985e-05,2.64986e-05,0.000249047,0.0273196,0.0273197,0.0141569,0.0125135,0.0125135,0.071082,6.61716e-11,6.61776e-11,1.35917e-09,5.2377e-07,5.23767e-07,5e-08,0.0,0.0,0.0,0.0,0.0,0.0,0.0,0.0,531,0.158199,0.266612,0.000316867,0.0,3.76902e-05,0.00224419,0.0,0.0,0.0,0.0,0,0,0,165,24,0,0,0
12252000,0.999995,-0.000581725,0.000227453,0.0030534,0.0112787,-0.00528582,-0.00866675,0.00266704,-0.000974248,-0.0042181,-2.09592e-07,-1.3898e-06,-3.35947e-06,-0.000116314,-6.84613e-05,1.13724e-05,0.901569,0.0403673,1.0,0.0,0.0,0.0,0.0,0.0,1.3039e-09,4.26883e-05,0.000219675,2.47799e-09,2.43197e-05,2.43198e-05,0.000230833,0.0256362,0.0256363,0.0138566,0.0131611,0.0131611,0.0710097,6.59249e-11,6.59308e-11,1.35642e-09,5.03077e-07,5.03074e-07,5.00001e-08,0.0,0.0,0.0,0.0,0.0,0.0,0.0,0.0,531,0.162241,0.266477,0.00388462,0.0,5.11335e-05,0.00139446,0.0,0.0,0.0,0.0,0,0,0,165,24,0,0,0
12444000,0.999995,-0.000735319,0.000355001,0.00314018,0.0119128,-0.00545305,-0.00738714,0.00356557,-0.00139554,-0.00363861,-2.04101e-07,-1.37567e-06,-3.34812e-06,-0.000113646,-6.95072e-05,1.03835e-05,0.901569,0.0403673,1.0,0.0,0.0,0.0,0.0,0.0,1.37302e-09,4.48078e-05,0.000227162,2.49341e-09,2.25038e-05,2.2504e-05,0.000213543,0.0226112,0.0226113,0.0134351,0.0128773,0.0128773,0.0697224,6.54603e-11,6.54663e-11,1.35275e-09,4.82877e-07,4.82874e-07,5e-08,0.0,0.0,0.0,0.0,0.0,0.0,0.0,0.0,531,0.160483,0.26405,4.08796e-05,0.0,7.12136e-05,0.0185868,0.0,0.0,0.0,0.0,0,0,0,165,24,0,0,0
12636000,0.999995,-0.000652958,0.000513449,0.00321837,0.0109258,-0.00621576,-0.00977656,0.00400644,-0.00173384,-0.00517798,-1.96205e-07,-1.35678e-06,-3.32955e-06,-0.000110677,-7.07522e-05,1.0331e-05,0.901569,0.0403673,1.0,0.0,0.0,0.0,0.0,0.0,1.32865e-09,4.43536e-05,0.000227415,2.51793e-09,2.12833e-05,2.12835e-05,0.000199135,0.0196836,0.0196837,0.0130656,0.012427,0.012427,0.0685047,6.48915e-11,6.48975e-11,1.34842e-09,4.66329e-07,4.66327e-07,5e-08,0.0,0.0,0.0,0.0,0.0,0.0,0.0,0.0,531,0.157651,0.261734,0.00232151,0.0,8.21979e-05,0.00317074,0.0,0.0,0.0,0.0,0,0,0,165,24,0,0,0
12828000,0.999994,-0.000678399,0.000456073,0.00326771,0.0101504,-0.00516913,-0.00512081,0.00421853,-0.00205272,0.000594851,-1.86413e-07,-1.33557e-06,-3.34286e-06,-0.000107736,-7.21017e-05,7.4188e-06,0.901569,0.0403673,1.0,0.0,0.0,0.0,0.0,0.0,1.19172e-09,4.21971e-05,0.000221303,2.45341e-09,2.05272e-05,2.05274e-05,0.000187012,0.017063,0.0170631,0.0127454,0.0119036,0.0119036,0.0673618,6.42996e-11,6.43055e-11,1.3434e-09,4.53206e-07,4.53203e-07,5e-08,0.0,0.0,0.0,0.0,0.0,0.0,0.0,0.0,531,0.154296,0.259541,0.00399561,0.0,8.6454e-05,0.00172479,0.0,0.0,0.0,0.0,0,0,0,165,24,0,0,0
13020000,0.999994,-0.000574686,0.000522786,0.00327615,0.00752437,-0.00641027,-0.00336183,0.00418624,-0.00229461,-0.000108123,-1.76886e-07,-1.31695e-06,-3.38359e-06,-0.000105403,-7.32921e-05,7.35758e-06,0.901569,0.0403673,1.0,0.0,0.0,0.0,0.0,0.0,1.36801e-09,4.45346e-05,0.000223269,2.33145e-09,2.01778e-05,2.01779e-05,0.000178135,0.0153333,0.0153334,0.0126097,0.0119004,0.0119004,0.0674088,6.38084e-11,6.38144e-11,1.33832e-09,4.43939e-07,4.43937e-07,5.00001e-08,0.0,0.0,0.0,0.0,0.0,0.0,0.0,0.0,531,0.154275,0.259632,0.0118489,0.0,8.32753e-05,0.00591324,0.0,0.0,0.0,0.0,0,0,0,165,24,0,0,0
13212000,0.999994,-0.000531822,0.000364089,0.00353848,0.00638927,-0.00537519,-0.00338371,0.00373852,-0.0023628,-0.00015042,-1.65855e-07,-1.29854e-06,-3.36231e-06,-0.000103248,-7.45804e-05,7.10991e-06,0.901569,0.0403673,1.0,0.0,0.0,0.0,0.0,0.0,1.34064e-09,4.38688e-05,0.00022067,2.57495e-09,1.99833e-05,1.99835e-05,0.000169234,0.0133444,0.0133444,0.012369,0.0113085,0.0113085,0.0663698,6.33049e-11,6.33108e-11,1.33188e-09,4.35722e-07,4.35719e-07,5e-08,0.0,0.0,0.0,0.0,0.0,0.0,0.0,0.0,531,0.15039,0.257623,0.00498543,0.0,7.54682e-05,0.00578057,0.0,0.0,0.0,0.0,0,0,0,165,24,0,0,0
13404000,0.999994,-0.000539782,0.000595127,0.00333229,0.00466368,-0.00573184,-0.00085628,0.0034917,-0.00247179,-0.00101978,-1.55216e-07,-1.28277e-06,-3.25433e-06,-0.000101495,-7.57651e-05,7.26625e-06,0.901569,0.0403673,1.0,0.0,0.0,0.0,0.0,0.0,1.26243e-09,4.38514e-05,0.000221405,2.42736e-09,1.99677e-05,1.99679e-05,0.000161613,0.0116905,0.0116905,0.0121655,0.0107443,0.0107443,0.0653968,6.28848e-11,6.28907e-11,1.32464e-09,4.29359e-07,4.29357e-07,5e-08,0.0,0.0,0.0,0.0,0.0,0.0,0.0,0.0,531,0.14659,0.255728,0.0185409,0.0,7.13836e-05,0.0121643,0.0,0.0,0.0,0.0,0,0,0,165,24,0,0,0
13596000,0.999994,-0.000692747,0.000542335,0.00346364,0.00346708,-0.00326882,0.00195356,0.00307873,-0.00244934,0.000810314,-1.46441e-07,-1.27121e-06,-3.28186e-06,-0.000100248,-7.67014e-05,6.57945e-06,0.901569,0.0403673,1.0,0.0,0.0,0.0,0.0,0.0,1.23018e-09,4.35354e-05,0.000224493,2.48874e-09,2.01074e-05,2.01077e-05,0.000156143,0.0106553,0.0106553,0.012124,0.0106595,0.0106595,0.0655511,6.25998e-11,6.26058e-11,1.31752e-09,4.24938e-07,4.24936e-07,5.00001e-08,0.0,0.0,0.0,0.0,0.0,0.0,0.0,0.0,531,0.14601,0.256029,0.00105914,0.0,6.18867e-05,0.00204318,0.0,0.0,0.0,0.0,0,0,0,165,24,0,0,0
13788000,0.999994,-0.000819298,0.000415201,0.00331367,0.00472367,-0.00314864,0.00241812,0.00282732,-0.0022888,0.000484141,-1.38141e-07,-1.26107e-06,-3.2512e-06,-9.917e-05,-7.7586e-05,6.89895e-06,0.901569,0.0403673,1.0,0.0,0.0,0.0,0.0,0.0,1.10472e-09,4.22907e-05,0.000234549,2.32633e-09,2.03052e-05,2.03055e-05,0.000150429,0.00949355,0.00949357,0.0119812,0.0101386,0.0101386,0.0646831,6.23545e-11,6.23605e-11,1.30871e-09,4.21058e-07,4.21055e-07,5e-08,0.0,0.0,0.0,0.0,0.0,0.0,0.0,0.0,531,0.142398,0.254329,0.000312066,0.0,5.6959e-05,0.00214017,0.0,0.0,0.0,0.0,0,0,0,165,24,0,0,0
13980000,0.999994,-0.000794747,0.000599321,0.00343565,0.00394429,-0.0046626,0.000612363,0.00266523,-0.00222406,0.00199687,-1.3134e-07,-1.2528e-06,-3.23248e-06,-9.82731e-05,-7.83166e-05,6.45036e-06,0.901569,0.0403673,1.0,0.0,0.0,0.0,0.0,0.0,1.24228e-09,4.33404e-05,0.000229608,2.42059e-09,2.05728e-05,2.05732e-05,0.000145504,0.0085543,0.00855431,0.0118667,0.00966955,0.00966955,0.0638832,6.21983e-11,6.22043e-11,1.29905e-09,4.18106e-07,4.18103e-07,5e-08,0.0,0.0,0.0,0.0,0.0,0.0,0.0,0.0,531,0.139065,0.252751,0.00362498,0.0,5.37034e-05,0.0023402,0.0,0.0,0.0,0.0,0,0,0,165,24,0,0,0
14172000,0.999993,-0.000653155,0.000576974,0.00354889,0.00274942,-0.00275279,0.000905149,0.00245365,-0.00208055,0.000193056,-1.25724e-07,-1.24642e-06,-3.12259e-06,-9.755e-05,-7.89606e-05,7.1905e-06,0.901569,0.0403673,1.0,0.0,0.0,0.0,0.0,0.0,1.2814e-09,4.38114e-05,0.000225705,2.5904e-09,2.08916e-05,2.0892e-05,0.000141256,0.00779434,0.00779435,0.0117761,0.00924504,0.00924505,0.063143,6.21219e-11,6.21279e-11,1.28852e-09,4.15883e-07,4.1588e-07,5e-08,0.0,0.0,0.0,0.0,0.0,0.0,0.0,0.0,531,0.135978,0.251283,6.7649e-05,0.0,5.00062e-05,0.000920383,0.0,0.0,0.0,0.0,0,0,0,165,24,0,0,0
14364000,0.999994,-0.000531891,0.000506824,0.0034217,0.00549371,-0.00135938,0.00193088,0.00243739,-0.0017539,0.00292712,-1.22326e-07,-1.24222e-06,-3.0807e-06,-9.7019e-05,-7.93766e-05,6.30252e-06,0.901569,0.0403673,1.0,0.0,0.0,0.0,0.0,0.0,1.25555e-09,4.28607e-05,0.000215039,2.47394e-09,2.12625e-05,2.1263e-05,0.00013844,0.00737218,0.00737219,0.0118243,0.00919295,0.00919296,0.0634563,6.21226e-11,6.21287e-11,1.27844e-09,4.14399e-07,4.14396e-07,5.00001e-08,0.0,0.0,0.0,0.0,0.0,0.0,0.0,0.0,531,0.135595,0.251905,0.000434602,0.0,4.79143e-05,0.000351216,0.0,0.0,0.0,0.0,0,0,0,165,24,0,0,0
14556000,0.999994,-0.000645144,0.000511749,0.0035064,0.00576567,0.00153432,0.00312985,0.00282188,-0.00121648,0.0112549,-1.20303e-07,-1.23846e-06,-3.03916e-06,-9.64359e-05,-7.96586e-05,3.30424e-06,0.901569,0.0403673,1.0,0.0,0.0,0.0,0.0,0.0,1.27346e-09,4.37968e-05,0.000213857,2.55806e-09,2.16468e-05,2.16474e-05,0.000135243,0.00686803,0.00686802,0.0117691,0.00882269,0.0088227,0.0628022,6.21629e-11,6.21689e-11,1.26625e-09,4.13172e-07,4.13169e-07,5e-08,0.0,0.0,0.0,0.0,0.0,0.0,0.0,0.0,531,0.132836,0.250604,0.0115473,0.0,5.65068e-05,0.00193479,0.0,0.0,0.0,0.0,0,0,0,165,24,0,0,0
14748000,0.999993,-0.000511046,0.000633608,0.00371033,0.000465327,-0.000176243,-0.00068334,3.02e-05,0.0150358,0.010157,-1.19703e-07,-1.23694e-06,-2.97621e-06,-9.61451e-05,-7.97757e-05,3.81628e-06,0.901569,0.0403673,1.0,0.0,0.0,0.0,0.0,0.0,1.2647e-09,4.41826e-05,0.000222088,2.77905e-09,2.21061e-05,2.21067e-05,0.000132491,0.0500781,0.0500781,0.0563172,0.180259,0.180259,0.0595791,6.22466e-11,6.22527e-11,1.25318e-09,4.1266e-07,4.12657e-07,5e-08,0.0,0.0,0.0,0.0,0.0,0.0,0.0,0.0,535,0.600432,0.244088,0.0033925,0.0,0.0,0.000560355,0.0,0.0,0.0,0.0,0,0,0,831,24,0,0,0
14940000,0.999993,-0.000352504,0.000756183,0.00369205,-0.000625333,0.000394479,-0.000776544,0.00298705,0.0170752,0.00410603,-1.19569e-07,-1.23704e-06,-2.94001e-06,-9.6168e-05,-7.98097e-05,6.04158e-06,0.901569,0.0403673,1.0,0.0,0.0,0.0,0.0,0.0,1.24692e-09,4.26508e-05,0.000223381,2.77052e-09,2.26496e-05,2.26503e-05,0.000130886,0.0358704,0.0358704,0.0469823,0.087418,0.087418,0.0559178,6.23419e-11,6.2348e-11,1.24087e-09,4.1266e-07,4.12656e-07,5.00001e-08,0.0,0.0,0.0,0.0,0.0,0.0,0.0,0.0,535,0.418134,0.236469,0.00413565,0.000206477,0.00332855,0.00610039,0.0,0.0,0.0,0.0,0,0,0,831,24,0,0,0
15132000,0.999993,-0.00026618,0.0006542,0.00372192,-0.00150185,0.00123518,-0.00111464,0.00375514,0.0149335,0.00421973,-1.19051e-07,-1.2369e-06,-2.86954e-06,-9.61641e-05,-7.98204e-05,5.96264e-06,0.901569,0.0403673,1.0,0.0,0.0,0.0,0.0,0.0,1.12989e-09,4.15552e-05,0.00023655,2.82514e-09,2.32066e-05,2.32073e-05,0.000128839,0.0279182,0.0279182,0.040056,0.0574473,0.0574473,0.054,6.24266e-11,6.24326e-11,1.22622e-09,4.12656e-07,4.12653e-07,5e-08,0.0,0.0,0.0,0.0,0.0,0.0,0.0,0.0,535,0.338961,0.232379,0.00370204,0.000453648,0.00601435,0.00169444,0.0,0.0,0.0,0.0,0,0,0,831,24,0,0,0
15324000,0.999993,-0.000252445,0.000740912,0.00360724,0.000566901,0.000299578,-0.00265621,0.00254164,0.00947764,0.000391213,-1.17552e-07,-1.23662e-06,-2.86619e-06,-9.61699e-05,-7.98628e-05,7.12956e-06,0.901569,0.0403673,1.0,0.0,0.0,0.0,0.0,0.0,1.13221e-09,4.06876e-05,0.000230447,2.69095e-09,2.37735e-05,2.37742e-05,0.000127092,0.022824,0.022824,0.0346099,0.0429149,0.0429149,0.0533555,6.24925e-11,6.24985e-11,1.21077e-09,4.12647e-07,4.12642e-07,5e-08,0.0,0.0,0.0,0.0,0.0,0.0,0.0,0.0,535,0.292967,0.230988,0.00142128,0.000436798,0.00696075,0.000245538,0.0,0.0,0.0,0.0,0,0,0,831,24,0,0,0
15516000,0.999993,-0.000629386,0.000800117,0.00360489,0.000235873,0.00027445,-0.00231174,0.0033899,0.0100083,-0.000177989,-1.17701e-07,-1.2363e-06,-2.84175e-06,-9.61641e-05,-7.98621e-05,7.19286e-06,0.901569,0.0403673,1.0,0.0,0.0,0.0,0.0,0.0,1.24735e-09,4.19817e-05,0.000234518,2.68869e-09,2.43459e-05,2.43467e-05,0.000125608,0.0192844,0.0192844,0.030179,0.0344624,0.0344624,0.0533082,6.25303e-11,6.25364e-11,1.19456e-09,4.12626e-07,4.12622e-07,5e-08,0.0,0.0,0.0,0.0,0.0,0.0,0.0,0.0,535,0.262535,0.230886,0.00670799,0.000764135,0.00324646,0.00812403,0.0,0.0,0.0,0.0,0,0,0,831,24,0,0,0
15708000,0.999993,-0.000623341,0.000785814,0.00365059,0.00036759,0.00122191,-0.000552639,0.00142402,0.0153825,0.00167773,-1.20314e-07,-1.23759e-06,-2.80995e-06,-9.61831e-05,-7.98092e-05,6.67014e-06,0.901569,0.0403673,1.0,0.0,0.0,0.0,0.0,0.0,1.15492e-09,4.13039e-05,0.000232329,2.74849e-09,2.49188e-05,2.49196e-05,0.000125042,0.0167042,0.0167042,0.0266246,0.0291184,0.0291184,0.0542232,6.25292e-11,6.25352e-11,1.17954e-09,4.1259e-07,4.12586e-07,5.00001e-08,0.0,0.0,0.0,0.0,0.0,0.0,0.0,0.0,535,0.241323,0.232859,0.00358409,0.000279153,0.00625908,0.00241896,0.0,0.0,0.0,0.0,0,0,0,831,24,0,0,0
15900000,0.999993,-0.000724524,0.000893174,0.00347965,-8.90593e-05,0.00103259,-0.00370646,6.56401e-05,0.0169925,0.00318484,-1.20397e-07,-1.23911e-06,-2.70278e-06,-9.62057e-05,-7.98077e-05,6.24995e-06,0.901569,0.0403673,1.0,0.0,0.0,0.0,0.0,0.0,1.26104e-09,4.20462e-05,0.000234275,2.63354e-09,2.54855e-05,2.54864e-05,0.000123969,0.0147889,0.014789,0.0235334,0.0257716,0.0257716,0.0544566,6.24764e-11,6.24824e-11,1.16197e-09,4.12531e-07,4.12527e-07,5e-08,0.0,0.0,0.0,0.0,0.0,0.0,0.0,0.0,535,0.227031,0.233359,0.00293008,0.00107567,0.00552762,0.00156099,0.0,0.0,0.0,0.0,0,0,0,831,24,0,0,0
16092000,0.999993,-0.000493007,0.000976693,0.00358924,0.000177195,-0.000158663,-0.00575537,0.0010205,0.0172906,0.00134241,-1.19638e-07,-1.2374e-06,-2.70383e-06,-9.61747e-05,-7.98266e-05,6.47171e-06,0.901569,0.0403673,1.0,0.0,0.0,0.0,0.0,0.0,1.29236e-09,4.20022e-05,0.000225111,2.72494e-09,2.60385e-05,2.60394e-05,0.000123068,0.0133427,0.0133427,0.0209129,0.0235504,0.0235504,0.0546235,6.23575e-11,6.23634e-11,1.14375e-09,4.12442e-07,4.12438e-07,5e-08,0.0,0.0,0.0,0.0,0.0,0.0,0.0,0.0,535,0.217027,0.233717,0.00303447,0.00134537,0.00410734,0.00482511,0.0,0.0,0.0,0.0,0,0,0,831,24,0,0,0
16284000,0.999994,-0.000585423,0.000953578,0.00334782,-0.000633336,-2.50228e-05,-0.00669837,0.00270161,0.0162473,-0.000392886,-1.17519e-07,-1.23221e-06,-2.70941e-06,-9.60716e-05,-7.9869e-05,6.55951e-06,0.901569,0.0403673,1.0,0.0,0.0,0.0,0.0,0.0,1.2675e-09,4.1887e-05,0.000241553,2.48424e-09,2.6569e-05,2.657e-05,0.000122314,0.0122472,0.0122472,0.0186871,0.0220135,0.0220135,0.0546785,6.21572e-11,6.2163e-11,1.12492e-09,4.12314e-07,4.1231e-07,5e-08,0.0,0.0,0.0,0.0,0.0,0.0,0.0,0.0,535,0.209826,0.233834,0.00135803,0.00190028,0.00353243,0.000581919,0.0,0.0,0.0,0.0,0,0,0,831,24,0,0,0
16476000,0.999994,-0.000537856,0.000921396,0.00336825,-0.00258996,-1.10572e-05,-0.00619452,0.00116696,0.0161848,0.00276205,-1.164e-07,-1.232e-06,-2.6951e-06,-9.60567e-05,-7.98837e-05,5.79917e-06,0.901569,0.0403673,1.0,0.0,0.0,0.0,0.0,0.0,1.26756e-09,4.36044e-05,0.000232757,2.50999e-09,2.70678e-05,2.70688e-05,0.000122351,0.0114249,0.011425,0.0169193,0.0209149,0.0209149,0.0553684,6.18602e-11,6.18659e-11,1.10776e-09,4.12139e-07,4.12135e-07,5e-08,0.0,0.0,0.0,0.0,0.0,0.0,0.0,0.0,535,0.204523,0.235305,0.00162298,0.00167729,0.00267451,0.00689741,0.0,0.0,0.0,0.0,0,0,0,831,24,0,0,0
16668000,0.999993,-0.000418113,0.00106053,0.00344928,-0.00394204,0.00101353,-0.00658844,0.00155149,0.015588,0.0029645,-1.13413e-07,-1.22602e-06,-2.64307e-06,-9.59282e-05,-7.99439e-05,5.56826e-06,0.901569,0.0403673,1.0,0.0,0.0,0.0,0.0,0.0,1.14955e-09,4.13378e-05,0.000229231,2.60642e-09,2.76463e-05,2.76474e-05,0.000121826,0.011667,0.011667,0.0157371,0.0222407,0.0222407,0.0560037,6.17211e-11,6.17267e-11,1.08796e-09,4.12031e-07,4.12027e-07,5e-08,0.0,0.0,0.0,0.0,0.0,0.0,0.0,0.0,535,0.210906,0.236651,0.000922756,0.00154035,0.0039188,0.00232133,0.0,0.0,0.0,0.0,0,0,0,831,24,0,0,0
16868000,0.999994,-0.000366424,0.00117345,0.00339,-0.00635077,0.00361146,-0.0071605,-0.00110747,0.0158875,0.000248064,-1.08753e-07,-1.22352e-06,-2.67623e-06,-9.58677e-05,-8.00465e-05,5.75453e-06,0.901569,0.0403673,1.0,0.0,0.0,0.0,0.0,0.0,1.26427e-09,4.25973e-05,0.000231392,2.53401e-09,2.81121e-05,2.81132e-05,0.00012162,0.0112575,0.0112575,0.0143164,0.021691,0.0216909,0.0559516,6.12551e-11,6.12607e-11,1.0677e-09,4.11765e-07,4.11761e-07,5e-08,0.0,0.0,0.0,0.0,0.0,0.0,0.0,0.0,535,0.208283,0.236541,0.00269868,0.00245887,0.00432304,0.0127249,0.0,0.0,0.0,0.0,0,0,0,831,24,0,0,0
17060000,0.999993,-0.000358304,0.00117433,0.00347136,-0.0054199,0.00421394,-0.00582388,-0.000761331,0.0191521,0.00149723,-1.12622e-07,-1.20354e-06,-2.62876e-06,-9.543e-05,-7.99707e-05,5.34344e-06,0.901569,0.0403673,1.0,0.0,0.0,0.0,0.0,0.0,1.27981e-09,4.317e-05,0.000228195,2.62754e-09,2.84911e-05,2.84923e-05,0.000121258,0.0109541,0.010954,0.0131094,0.0211556,0.0211556,0.0554352,6.06538e-11,6.06592e-11,1.04705e-09,4.11428e-07,4.11425e-07,5e-08,0.0,0.0,0.0,0.0,0.0,0.0,0.0,0.0,535,0.205697,0.235447,4.77325e-05,0.00273905,0.00779252,0.00279719,0.0,0.0,0.0,0.0,0,0,0,831,24,0,0,0
17260000,0.999994,-0.00039349,0.00142033,0.00328979,-0.0060986,0.00557258,-0.00431026,0.00207611,0.0202896,0.00240476,-1.04585e-07,-1.16968e-06,-2.64055e-06,-9.46915e-05,-8.01471e-05,5.04118e-06,0.901569,0.0403673,1.0,0.0,0.0,0.0,0.0,0.0,1.49844e-09,4.56089e-05,0.000224527,2.4643e-09,2.88328e-05,2.88339e-05,0.00012119,0.010836,0.010836,0.0121232,0.0209007,0.0209007,0.0551516,5.99166e-11,5.99218e-11,1.02607e-09,4.11014e-07,4.1101e-07,5e-08,0.0,0.0,0.0,0.0,0.0,0.0,0.0,0.0,535,0.204454,0.234844,0.00805153,0.00236131,0.00827686,0.00297924,0.0,0.0,0.0,0.0,0,0,0,831,24,0,0,0
17452000,0.999992,-0.00035639,0.00173355,0.00358116,-0.00832124,0.00478786,-0.00545916,0.0026798,0.0206662,0.0036991,-8.83976e-08,-1.14264e-06,-2.64048e-06,-9.40851e-05,-8.0507e-05,4.64986e-06,0.901569,0.0403673,1.0,0.0,0.0,0.0,0.0,0.0,1.34584e-09,4.36479e-05,0.000230813,2.75145e-09,2.90699e-05,2.9071e-05,0.000120934,0.0107564,0.0107564,0.0112901,0.0205818,0.0205818,0.0544719,5.903e-11,5.9035e-11,1.0048e-09,4.10514e-07,4.10511e-07,5e-08,0.0,0.0,0.0,0.0,0.0,0.0,0.0,0.0,535,0.202888,0.233392,0.0054213,0.00296244,0.00338024,0.00517376,0.0,0.0,0.0,0.0,0,0,0,831,24,0,0,0
17644000,0.999992,-0.000555359,0.00190015,0.00337216,-0.0135881,0.00204882,-0.00649125,0.00187798,0.0185042,0.00283719,-5.79548e-08,-1.11099e-06,-2.62149e-06,-9.3359e-05,-8.11845e-05,4.49071e-06,0.901569,0.0403673,1.0,0.0,0.0,0.0,0.0,0.0,1.32731e-09,4.33231e-05,0.000223492,2.58489e-09,2.92262e-05,2.92273e-05,0.000121365,0.0107447,0.0107447,0.0106919,0.0203334,0.0203334,0.0544822,5.79986e-11,5.80034e-11,9.85723e-10,4.09926e-07,4.09923e-07,5.00001e-08,0.0,0.0,0.0,0.0,0.0,0.0,0.0,0.0,535,0.20166,0.233414,0.00232135,0.00463826,0.00455467,0.00466188,0.0,0.0,0.0,0.0,0,0,0,831,24,0,0,0
17836000,0.999992,-0.000560147,0.00188802,0.0033847,-0.0173582,0.00228617,-0.00824675,0.000759597,0.0165095,0.000107557,-3.27261e-08,-1.05839e-06,-2.61544e-06,-9.21401e-05,-8.17521e-05,4.54009e-06,0.901569,0.0403673,1.0,0.0,0.0,0.0,0.0,0.0,1.21493e-09,4.2306e-05,0.000221009,2.59541e-09,2.92994e-05,2.93005e-05,0.000121166,0.0107785,0.0107786,0.0101318,0.0201388,0.0201388,0.0537118,5.68292e-11,5.68337e-11,9.64086e-10,4.0925e-07,4.09248e-07,5e-08,0.0,0.0,0.0,0.0,0.0,0.0,0.0,0.0,535,0.200693,0.231758,0.00245139,0.00711215,0.00684591,0.0060899,0.0,0.0,0.0,0.0,0,0,0,831,24,0,0,0
18028000,0.999992,-0.000584164,0.00200692,0.00341552,-0.0202675,0.0018552,-0.00710609,-0.000463065,0.0164766,-0.001332,-2.46743e-08,-9.9475e-07,-2.59482e-06,-9.06492e-05,-8.19381e-05,4.36073e-06,0.901569,0.0403673,1.0,0.0,0.0,0.0,0.0,0.0,1.24639e-09,4.32452e-05,0.000222473,2.64343e-09,2.92901e-05,2.92911e-05,0.000120984,0.0108346,0.0108346,0.00968373,0.0199853,0.0199853,0.0529257,5.55337e-11,5.5538e-11,9.42343e-10,4.08491e-07,4.08488e-07,5e-08,0.0,0.0,0.0,0.0,0.0,0.0,0.0,0.0,535,0.199927,0.230056,0.000203522,0.00749413,0.000597664,0.000190985,0.0,0.0,0.0,0.0,0,0,0,831,24,0,0,0
18220000,0.999992,-0.000798198,0.00199632,0.00327941,-0.0231644,-0.00147269,-0.00887924,-0.00170662,0.0135339,-0.00179045,8.68522e-09,-9.19306e-07,-2.61778e-06,-8.88628e-05,-8.26952e-05,4.02613e-06,0.901569,0.0403673,1.0,0.0,0.0,0.0,0.0,0.0,1.21695e-09,4.11472e-05,0.000225894,2.51072e-09,2.92018e-05,2.92029e-05,0.000120813,0.0109014,0.0109014,0.00933439,0.0198625,0.0198625,0.0521494,5.41293e-11,5.41332e-11,9.20556e-10,4.07654e-07,4.07652e-07,5e-08,0.0,0.0,0.0,0.0,0.0,0.0,0.0,0.0,535,0.199311,0.228362,0.000228453,0.00856881,0.00879005,0.00371395,0.0,0.0,0.0,0.0,0,0,0,831,24,0,0,0
18412000,0.999992,-0.000652558,0.00200898,0.00330214,-0.028452,-0.00326567,-0.0063254,-0.00393828,0.0135162,8.78526e-05,-3.52836e-09,-8.3183e-07,-2.58862e-06,-8.6759e-05,-8.23992e-05,3.29666e-06,0.901569,0.0403673,1.0,0.0,0.0,0.0,0.0,0.0,1.24483e-09,4.08267e-05,0.000229771,2.55102e-09,2.90408e-05,2.90418e-05,0.000121293,0.010957,0.0109571,0.00913629,0.0197616,0.0197616,0.052066,5.26364e-11,5.264e-11,9.01189e-10,4.0675e-07,4.06748e-07,5.00001e-08,0.0,0.0,0.0,0.0,0.0,0.0,0.0,0.0,535,0.198804,0.22818,0.00275987,0.0109058,0.00377288,0.00367179,0.0,0.0,0.0,0.0,0,0,0,831,24,0,0,0
18604000,0.999992,-0.000505343,0.00193874,0.00337197,-0.0306085,-0.00385666,-0.00546846,-0.00523522,0.0117294,0.000206249,1.31829e-09,-7.15704e-07,-2.5678e-06,-8.39519e-05,-8.24985e-05,2.88874e-06,0.901569,0.0403673,1.0,0.0,0.0,0.0,0.0,0.0,1.22299e-09,4.12941e-05,0.000226423,2.61528e-09,2.88155e-05,2.88165e-05,0.000121117,0.0109958,0.010996,0.00893999,0.0196751,0.0196751,0.0513175,5.10782e-11,5.10814e-11,8.79423e-10,4.05789e-07,4.05788e-07,5e-08,0.0,0.0,0.0,0.0,0.0,0.0,0.0,0.0,535,0.198369,0.226534,0.000132813,0.0122674,0.00695277,0.00586734,0.0,0.0,0.0,0.0,0,0,0,831,24,0,0,0
18796000,0.999993,-0.000546415,0.00164888,0.00342507,-0.0306937,-0.00374291,-0.0039577,-0.00479117,0.0108366,0.00124594,-4.59964e-09,-5.72235e-07,-2.56055e-06,-8.04719e-05,-8.23444e-05,2.42393e-06,0.901569,0.0403673,1.0,0.0,0.0,0.0,0.0,0.0,1.28015e-09,4.26718e-05,0.000237385,2.6413e-09,2.85368e-05,2.85378e-05,0.00012093,0.0110087,0.0110088,0.00880479,0.0195965,0.0195965,0.0506014,4.94793e-11,4.94822e-11,8.57737e-10,4.04787e-07,4.04786e-07,5e-08,0.0,0.0,0.0,0.0,0.0,0.0,0.0,0.0,535,0.197972,0.224948,0.00157029,0.0125943,0.00689023,0.00262302,0.0,0.0,0.0,0.0,0,0,0,831,24,0,0,0
18988000,0.999993,-0.000562422,0.00158744,0.00344865,-0.0277812,-0.00660533,-0.00560693,-0.00419014,0.00836633,-0.000474031,3.78333e-09,-4.32739e-07,-2.55251e-06,-7.70561e-05,-8.25276e-05,2.48823e-06,0.901569,0.0403673,1.0,0.0,0.0,0.0,0.0,0.0,1.2331e-09,4.3217e-05,0.000234066,2.66173e-09,2.8215e-05,2.82159e-05,0.000120731,0.0109942,0.0109943,0.00872153,0.0195207,0.0195207,0.0499275,4.78623e-11,4.78648e-11,8.36184e-10,4.03753e-07,4.03752e-07,5e-08,0.0,0.0,0.0,0.0,0.0,0.0,0.0,0.0,535,0.197589,0.223445,0.000402195,0.0117605,0.0113529,0.0023685,0.0,0.0,0.0,0.0,0,0,0,831,24,0,0,0
19180000,0.999993,-0.000570711,0.0015426,0.00343025,-0.0258217,-0.0061897,-0.00167868,-0.00418598,0.00994097,0.00230503,-4.55957e-08,-3.14414e-07,-2.47926e-06,-7.41207e-05,-8.13216e-05,1.7435e-06,0.901569,0.0403673,1.0,0.0,0.0,0.0,0.0,0.0,1.3753e-09,4.46981e-05,0.000214947,2.68472e-09,2.78614e-05,2.78623e-05,0.000121165,0.0109433,0.0109434,0.00873771,0.0194435,0.0194435,0.0499156,4.62489e-11,4.6251e-11,8.17174e-10,4.02702e-07,4.02701e-07,5e-08,0.0,0.0,0.0,0.0,0.0,0.0,0.0,0.0,535,0.197198,0.223418,0.000753713,0.0108956,0.00850189,0.00142233,0.0,0.0,0.0,0.0,0,0,0,831,24,0,0,0
19372000,0.999993,-0.000570429,0.00132358,0.00350357,-0.0275477,-0.00640175,-0.0010857,-0.0066584,0.00844443,0.00038387,-5.28474e-08,-2.23769e-07,-2.46327e-06,-7.18248e-05,-8.11338e-05,2.10277e-06,0.901569,0.0403673,1.0,0.0,0.0,0.0,0.0,0.0,1.40236e-09,4.39296e-05,0.000228204,2.73737e-09,2.74866e-05,2.74874e-05,0.000120927,0.0108636,0.0108636,0.00873066,0.0193614,0.0193614,0.0493214,4.46577e-11,4.46595e-11,7.95977e-10,4.01645e-07,4.01645e-07,5e-08,0.0,0.0,0.0,0.0,0.0,0.0,0.0,0.0,535,0.196781,0.222084,0.000877125,0.0112194,0.00653296,0.00382439,0.0,0.0,0.0,0.0,0,0,0,831,24,0,0,0
19572000,0.999992,-0.000811475,0.00135398,0.00375822,-0.0282315,-0.00802163,0.000915109,-0.00823152,0.00604659,0.000624742,-5.4034e-08,-1.1369e-07,-2.47603e-06,-6.90279e-05,-8.10805e-05,2.11534e-06,0.901569,0.0403673,1.0,0.0,0.0,0.0,0.0,0.0,1.25126e-09,4.22124e-05,0.000210996,2.98885e-09,2.7124e-05,2.71248e-05,0.0001209,0.0108298,0.0108297,0.0087852,0.0194372,0.0194372,0.0490137,4.31082e-11,4.31097e-11,7.75026e-10,4.00592e-07,4.00592e-07,5e-08,0.0,0.0,0.0,0.0,0.0,0.0,0.0,0.0,535,0.197166,0.22139,0.00688165,0.0117326,0.0039861,0.00212306,0.0,0.0,0.0,0.0,0,0,0,831,24,0,0,0
19764000,0.999992,-0.00082627,0.00126157,0.00366903,-0.0279096,-0.00762298,0.00331538,-0.0122152,0.00389173,0.00222481,-5.39937e-08,-7.26557e-08,-2.35903e-06,-6.79643e-05,-8.10699e-05,1.92667e-06,0.901569,0.0403673,1.0,0.0,0.0,0.0,0.0,0.0,1.16704e-09,4.05061e-05,0.000216912,2.94427e-09,2.72117e-05,2.72125e-05,0.000120617,0.0116875,0.0116875,0.00896966,0.0214983,0.0214983,0.0489088,4.23958e-11,4.23971e-11,7.54347e-10,4.00068e-07,4.00069e-07,5e-08,0.0,0.0,0.0,0.0,0.0,0.0,0.0,0.0,535,0.207356,0.221153,0.00337062,0.010881,0.00488851,0.00790714,0.0,0.0,0.0,0.0,0,0,0,831,24,0,0,0
19956000,0.999993,-0.000821017,0.00115725,0.00356407,-0.0262422,-0.00898457,0.00450025,-0.0136642,0.00247658,0.00418725,-7.05372e-08,2.20161e-08,-2.17484e-06,-6.55127e-05,-8.06391e-05,1.70314e-06,0.901569,0.0403673,1.0,0.0,0.0,0.0,0.0,0.0,1.14322e-09,3.92097e-05,0.000214865,2.91924e-09,2.6813e-05,2.68137e-05,0.000120307,0.0115215,0.0115214,0.00903135,0.0213822,0.0213822,0.0484653,4.09199e-11,4.09209e-11,7.33962e-10,3.99036e-07,3.99037e-07,5e-08,0.0,0.0,0.0,0.0,0.0,0.0,0.0,0.0,535,0.206795,0.220148,0.0100816,0.0108392,0.00534665,0.000955462,0.0,0.0,0.0,0.0,0,0,0,831,24,0,0,0
20148000,0.999993,-0.000727158,0.000882917,0.00352151,-0.0239628,-0.0094698,0.00525767,-0.0129098,4.47118e-05,0.00722926,-8.07837e-08,1.31937e-07,-2.0647e-06,-6.26694e-05,-8.03484e-05,1.24027e-06,0.901569,0.0403673,1.0,0.0,0.0,0.0,0.0,0.0,1.13418e-09,4.00302e-05,0.000219847,2.9121e-09,2.64204e-05,2.6421e-05,0.000120615,0.0113353,0.0113351,0.00915956,0.0212527,0.0212527,0.0486614,3.95052e-11,3.95059e-11,7.16124e-10,3.98024e-07,3.98025e-07,5.00001e-08,0.0,0.0,0.0,0.0,0.0,0.0,0.0,0.0,535,0.206169,0.220593,0.00675256,0.0100312,0.00978447,0.00483815,0.0,0.0,0.0,0.0,0,0,0,831,24,0,0,0
20340000,0.999993,-0.000740939,0.000846283,0.00367037,-0.0212531,-0.00971757,0.00654995,-0.0146149,-0.000797445,0.0078563,-1.06561e-07,2.01575e-07,-1.95156e-06,-6.08218e-05,-7.96744e-05,1.6138e-06,0.901569,0.0403673,1.0,0.0,0.0,0.0,0.0,0.0,1.08382e-09,4.0484e-05,0.000221731,3.1099e-09,2.60387e-05,2.60392e-05,0.000120248,0.0111315,0.0111314,0.00923853,0.0211105,0.0211105,0.0483132,3.8156e-11,3.81565e-11,6.96368e-10,3.97037e-07,3.97039e-07,5e-08,0.0,0.0,0.0,0.0,0.0,0.0,0.0,0.0,535,0.205478,0.219803,0.00911286,0.00880289,0.00131351,0.00239636,0.0,0.0,0.0,0.0,0,0,0,831,24,0,0,0
20532000,0.999993,-0.000680617,0.000892163,0.00365274,-0.0172311,-0.00743884,0.00576542,-0.011516,-0.000273492,0.00823174,-1.45743e-07,3.14698e-07,-1.85221e-06,-5.7868e-05,-7.86582e-05,2.16406e-06,0.901569,0.0403673,1.0,0.0,0.0,0.0,0.0,0.0,1.18021e-09,4.2265e-05,0.000226083,3.1349e-09,2.56715e-05,2.56719e-05,0.000119854,0.0109186,0.0109184,0.00931977,0.0209566,0.0209566,0.0480117,3.68745e-11,3.68748e-11,6.76975e-10,3.96079e-07,3.9608e-07,5e-08,0.0,0.0,0.0,0.0,0.0,0.0,0.0,0.0,535,0.204727,0.219116,0.00210677,0.00800193,0.014026,0.0037705,0.0,0.0,0.0,0.0,0,0,0,831,24,0,0,0
