timestamp,roll,pitch,yaw,thrust_body[0],thrust_body[1],thrust_body[2]
1344000,-0.000462183,-0.00558417,-0.0198112,0.0,0.0,0.0
1372000,-0.00109666,-0.00611666,-0.0199183,0.0,0.0,0.0
1396000,-0.000940466,-0.00684247,-0.0193815,0.0,0.0,0.0
1424000,-0.000401348,-0.00672697,-0.0192235,0.0,0.0,0.0
1452000,-0.000661928,-0.00651813,-0.0189969,0.0,0.0,0.0
1480000,-0.0014495,-0.00696901,-0.0189219,0.0,0.0,0.0
1508000,-0.00154903,-0.00745696,-0.0189544,0.0,0.0,0.0
1536000,-0.00130037,-0.0080155,-0.0193613,0.0,0.0,0.0
1564000,-0.00204668,-0.00734106,-0.0193701,0.0,0.0,0.0
1592000,-0.00142389,-0.00661692,-0.0194917,0.0,0.0,0.0
1624000,-0.00108755,-0.00615776,-0.0195361,0.0,0.0,0.0
1652000,-0.000929008,-0.00653936,-0.0196154,0.0,0.0,0.0
1680000,0.000370434,-0.00690723,-0.0197543,0.0,0.0,0.0
1712000,-2.0533e-05,-0.00762625,-0.0196786,0.0,0.0,0.0
1744000,-0.00042468,-0.00750568,-0.0194504,0.0,0.0,0.0
1772000,-0.000337481,-0.00786439,-0.0200057,0.0,0.0,0.0
1800000,0.000408463,-0.00698585,-0.0204232,0.0,0.0,0.0
1832000,-0.000234708,-0.00732171,-0.0201885,0.0,0.0,0.0
1864000,0.000321986,-0.00724725,-0.0199107,0.0,0.0,0.0
1892000,0.00121548,-0.00789187,-0.0197799,0.0,0.0,0.0
1920000,0.00159029,-0.00744543,-0.0195754,0.0,0.0,0.0
1948000,0.00132968,-0.0080917,-0.0201038,0.0,0.0,0.0
1976000,0.00146517,-0.00826854,-0.0202023,0.0,0.0,0.0
2004000,0.00224924,-0.00825159,-0.0199009,0.0,0.0,0.0
2032000,0.00235903,-0.00793563,-0.0203968,0.0,0.0,0.0
2060000,0.00262494,-0.00684949,-0.0204837,0.0,0.0,0.0
2084000,0.00246074,-0.00738478,-0.0206126,0.0,0.0,0.0
2112000,0.0027908,-0.00828999,-0.0200076,0.0,0.0,0.0
2140000,0.00193099,-0.0081757,-0.0197948,0.0,0.0,0.0
2168000,0.00258204,-0.00807003,-0.0202606,0.0,0.0,0.0
2200000,0.00364572,-0.00888422,-0.0198158,0.0,0.0,0.0
2232000,0.00348387,-0.00897931,-0.0197269,0.0,0.0,0.0
2260000,0.00353819,-0.00920401,-0.0199745,0.0,0.0,0.0
2288000,0.00294497,-0.00976625,-0.0201114,0.0,0.0,0.0
2316000,0.00379158,-0.00992825,-0.0202775,0.0,0.0,0.0
2340000,0.00366509,-0.00963699,-0.0203647,0.0,0.0,0.0
2368000,0.00302523,-0.0100264,-0.0204567,0.0,0.0,0.0
2396000,0.00354998,-0.0105917,-0.0206478,0.0,0.0,0.0
2424000,0.00411151,-0.00972634,-0.0197853,0.0,0.0,0.0
2452000,0.0050907,-0.0100515,-0.0201395,0.0,0.0,0.0
2480000,0.00511301,-0.0108605,-0.0206916,0.0,0.0,0.0
2512000,0.00510959,-0.0107912,-0.0213305,0.0,0.0,0.0
2540000,0.00505803,-0.0111477,-0.0213973,0.0,0.0,0.0
2568000,0.00486551,-0.0115683,-0.0209545,0.0,0.0,0.0
2600000,0.00444385,-0.0113095,-0.0208045,0.0,0.0,0.0
2628000,0.00520771,-0.0106915,-0.020716,0.0,0.0,0.0
2660000,0.00513327,-0.0107124,-0.020648,0.0,0.0,0.0
2692000,0.00562313,-0.010812,-0.0202225,0.0,0.0,0.0
2720000,0.0051137,-0.0101534,-0.0201579,0.0,0.0,0.0
2748000,0.00581489,-0.010612,-0.0205542,0.0,0.0,0.0
2780000,0.00454927,-0.011442,-0.0203825,0.0,0.0,0.0
2808000,0.00377088,-0.0101423,-0.0201548,0.0,0.0,0.0
2836000,0.00350792,-0.0093679,-0.019963,0.0,0.0,0.0
2864000,0.00405886,-0.00860904,-0.0199127,0.0,0.0,0.0
2892000,0.00471964,-0.00992383,-0.0196623,0.0,0.0,0.0
2920000,0.00420942,-0.00872724,-0.0197105,0.0,0.0,0.0
2952000,0.00330456,-0.00950759,-0.0197312,0.0,0.0,0.0
2980000,0.0043142,-0.00903246,-0.0201142,0.0,0.0,0.0
3008000,0.00514369,-0.00871897,-0.0195012,0.0,0.0,0.0
3036000,0.0049735,-0.00846399,-0.0193239,0.0,0.0,0.0
3068000,0.00512009,-0.00793474,-0.0192301,0.0,0.0,0.0
3100000,0.00553619,-0.00866793,-0.0195569,0.0,0.0,0.0
3124000,0.00646115,-0.00848149,-0.0195183,0.0,0.0,0.0
3152000,0.00573528,-0.00860056,-0.0195211,0.0,0.0,0.0
3180000,0.0054319,-0.00875711,-0.019215,0.0,0.0,0.0
3208000,0.00562744,-0.00791001,-0.0192271,0.0,0.0,0.0
3236000,0.00621956,-0.00662143,-0.0194125,0.0,0.0,0.0
3264000,0.00631314,-0.0061647,-0.0189875,0.0,0.0,0.0
3296000,0.00589623,-0.00637047,-0.0193124,0.0,0.0,0.0
3328000,0.00547919,-0.00640716,-0.0197501,0.0,0.0,0.0
3356000,0.00564612,-0.00614381,-0.019906,0.0,0.0,0.0
3388000,0.00691233,-0.00530505,-0.0199218,0.0,0.0,0.0
3416000,0.00667956,-0.00482024,-0.0200621,0.0,0.0,0.0
3448000,0.00571531,-0.00569096,-0.0199787,0.0,0.0,0.0
3480000,0.00471378,-0.00629569,-0.0200444,0.0,0.0,0.0
3508000,0.00545708,-0.00540767,-0.0202381,0.0,0.0,0.0
3540000,0.00565026,-0.00491564,-0.0197714,0.0,0.0,0.0
3572000,0.00509594,-0.00487951,-0.0200672,0.0,0.0,0.0
3600000,0.00456308,-0.00466382,-0.0202548,0.0,0.0,0.0
3632000,0.00623788,-0.0039176,-0.0206118,0.0,0.0,0.0
3660000,0.0064356,-0.00472064,-0.0207101,0.0,0.0,0.0
3692000,0.00698047,-0.0051288,-0.0206491,0.0,0.0,0.0
3724000,0.00821852,-0.00469459,-0.0202623,0.0,0.0,0.0
3752000,0.00754684,-0.00397904,-0.0202253,0.0,0.0,0.0
3780000,0.00761728,-0.00259296,-0.0204917,0.0,0.0,0.0
3812000,0.00601983,-0.00243313,-0.0205801,0.0,0.0,0.0
3840000,0.00682246,-0.00270607,-0.0210302,0.0,0.0,0.0
3868000,0.00695209,-0.00255694,-0.0205301,0.0,0.0,0.0
3900000,0.00713913,-0.00224945,-0.0210091,0.0,0.0,0.0
3928000,0.00726703,-0.00173731,-0.021084,0.0,0.0,0.0
3956000,0.00575102,-0.00197295,-0.0209626,0.0,0.0,0.0
3984000,0.00528911,-0.00118902,-0.0205301,0.0,0.0,0.0
4012000,0.0051036,-8.09823e-05,-0.0204358,0.0,0.0,0.0
4044000,0.00476036,0.000741498,-0.0207319,0.0,0.0,0.0
4072000,0.0051161,0.000677727,-0.020529,0.0,0.0,0.0
4104000,0.00553112,0.000835086,-0.0199218,0.0,0.0,0.0
4132000,0.00520205,0.00152644,-0.0199025,0.0,0.0,0.0
4164000,0.00595459,0.00201733,-0.019812,0.0,0.0,0.0
4196000,0.00637338,0.0019337,-0.0196696,0.0,0.0,0.0
4228000,0.00651781,0.00127009,-0.0193431,0.0,0.0,0.0
4260000,0.00598905,0.00255568,-0.019323,0.0,0.0,0.0
4292000,0.00533262,0.00227569,-0.0193726,0.0,0.0,0.0
4320000,0.00581508,0.00269806,-0.0189971,0.0,0.0,0.0
4344000,0.00533992,0.00276584,-0.0189427,0.0,0.0,0.0
4372000,0.00485213,0.00292364,-0.0188874,0.0,0.0,0.0
4400000,0.00472782,0.00302106,-0.0192331,0.0,0.0,0.0
4424000,0.00475635,0.00409647,-0.018712,0.0,0.0,0.0
4448000,0.00501515,0.004208,-0.0190441,0.0,0.0,0.0
4480000,0.00498757,0.00448378,-0.0191894,0.0,0.0,0.0
4512000,0.00549075,0.00421561,-0.0187015,0.0,0.0,0.0
4544000,0.005848,0.00559687,-0.0184316,0.0,0.0,0.0
4572000,0.0066383,0.00581017,-0.018661,0.0,0.0,0.0
4604000,0.00669943,0.00521021,-0.0188467,0.0,0.0,0.0
4636000,0.00773152,0.0050136,-0.0188152,0.0,0.0,0.0
4664000,0.00787243,0.00542489,-0.0190768,0.0,0.0,0.0
4696000,0.00713889,0.00483945,-0.0193449,0.0,0.0,0.0
4728000,0.00703922,0.00499286,-0.0194658,0.0,0.0,0.0
4756000,0.0068514,0.00500227,-0.0191858,0.0,0.0,0.0
4784000,0.00695058,0.00510234,-0.0192253,0.0,0.0,0.0
4812000,0.00773352,0.00432531,-0.0190904,0.0,0.0,0.0
4840000,0.00701164,0.00444591,-0.018874,0.0,0.0,0.0
4872000,0.00567354,0.00537856,-0.0190228,0.0,0.0,0.0
4904000,0.00523397,0.00562218,-0.019136,0.0,0.0,0.0
4936000,0.00453661,0.00574808,-0.0191765,0.0,0.0,0.0
4964000,0.00359871,0.00534145,-0.0189326,0.0,0.0,0.0
4988000,0.00396502,0.00554349,-0.0189247,0.0,0.0,0.0
5020000,0.00234173,0.00546697,-0.0186726,0.0,0.0,0.0
5052000,0.00254119,0.00625553,-0.0184266,0.0,0.0,0.0
5080000,0.00195842,0.00613778,-0.0182692,0.0,0.0,0.0
5108000,0.00204204,0.00512522,-0.0179831,0.0,0.0,0.0
5136000,0.00171808,0.0048566,-0.0174468,0.0,0.0,0.0
5168000,0.00151911,0.00533723,-0.0172219,0.0,0.0,0.0
5200000,0.00277657,0.00529551,-0.0169215,0.0,0.0,0.0
5228000,0.0031462,0.00543386,-0.0168205,0.0,0.0,0.0
5260000,0.00469441,0.00490171,-0.0168537,0.0,0.0,0.0
5292000,0.0035476,0.0049944,-0.0169889,0.0,0.0,0.0
5316000,0.00338679,0.00548983,-0.0168752,0.0,0.0,0.0
5348000,0.00317605,0.00554863,-0.017286,0.0,0.0,0.0
5380000,0.00307799,0.00576884,-0.0172261,0.0,0.0,0.0
5404000,0.00255651,0.00622623,-0.0171425,0.0,0.0,0.0
5428000,0.00330462,0.00684023,-0.0170173,0.0,0.0,0.0
5460000,0.00257885,0.00708028,-0.0168764,0.0,0.0,0.0
5488000,0.00279137,0.0057264,-0.0167968,0.0,0.0,0.0
5516000,0.00299041,0.00576536,-0.0169097,0.0,0.0,0.0
5548000,0.00316555,0.00539469,-0.0169735,0.0,0.0,0.0
5580000,0.00280897,0.00492466,-0.0165872,0.0,0.0,0.0
5612000,0.00287525,0.00452998,-0.0161136,0.0,0.0,0.0
5644000,0.00294702,0.00432206,-0.0157919,0.0,0.0,0.0
5672000,0.00240598,0.0040154,-0.0160208,0.0,0.0,0.0
5704000,0.00294695,0.00364055,-0.0156279,0.0,0.0,0.0
5732000,0.00280655,0.00396388,-0.0157889,0.0,0.0,0.0
5760000,0.00277327,0.00415404,-0.0159673,0.0,0.0,0.0
5788000,0.00189981,0.00267245,-0.0161046,0.0,0.0,0.0
5820000,0.00268285,0.00149302,-0.0158772,0.0,0.0,0.0
5848000,0.00176739,0.00172216,-0.0162963,0.0,0.0,0.0
5876000,0.0015119,0.00050974,-0.0163224,0.0,0.0,0.0
5900000,0.00106052,-5.94411e-05,-0.016662,0.0,0.0,0.0
5932000,0.000274226,-0.00106182,-0.016536,0.0,0.0,0.0
5964000,-0.000414277,-0.00147683,-0.0168746,0.0,0.0,0.0
5992000,-0.000770066,-0.00148952,-0.0166571,0.0,0.0,0.0
6016000,-0.000893616,-0.000521954,-0.0164464,0.0,0.0,0.0
6044000,-0.00193647,-7.22281e-05,-0.0163769,0.0,0.0,0.0
6072000,-0.00185454,0.000504474,-0.0164939,0.0,0.0,0.0
6100000,-0.00231401,0.000683773,-0.0169429,0.0,0.0,0.0
6132000,-0.00132595,0.000886,-0.0166839,0.0,0.0,0.0
6164000,-0.00199439,0.000372067,-0.0170075,0.0,0.0,0.0
6192000,-0.00231286,-0.000479371,-0.0168608,0.0,0.0,0.0
6220000,-0.00252638,-0.000357423,-0.0172122,0.0,0.0,0.0
6248000,-0.00269641,-0.000526393,-0.0164877,0.0,0.0,0.0
6280000,-0.00279812,-0.000543713,-0.016356,0.0,0.0,0.0
6312000,-0.0036283,-0.000547064,-0.0172092,0.0,0.0,0.0
6344000,-0.00351186,-0.00022887,-0.0175436,0.0,0.0,0.0
6372000,-0.0036888,-0.00137159,-0.0174845,0.0,0.0,0.0
6404000,-0.00458898,-0.00201969,-0.0176951,0.0,0.0,0.0
6436000,-0.00459489,-0.00239175,-0.0176048,0.0,0.0,0.0
6464000,-0.00442368,-0.00189362,-0.0178329,0.0,0.0,0.0
6496000,-0.00586401,-0.00145678,-0.017783,0.0,0.0,0.0
6524000,-0.00586619,-0.00221424,-0.0179536,0.0,0.0,0.0
6556000,-0.00654431,-0.00114387,-0.0181984,0.0,0.0,0.0
6584000,-0.00720512,-0.0021125,-0.0182594,0.0,0.0,0.0
6612000,-0.00763794,-0.0028989,-0.0185027,0.0,0.0,0.0
6640000,-0.00660934,-0.00268233,-0.0189445,0.0,0.0,0.0
6668000,-0.00711169,-0.00333017,-0.0191998,0.0,0.0,0.0
6692000,-0.00730057,-0.00313644,-0.0195023,0.0,0.0,0.0
6720000,-0.0082981,-0.00319528,-0.0196503,0.0,0.0,0.0
6752000,-0.00795196,-0.00233258,-0.0194088,0.0,0.0,0.0
6780000,-0.00806759,-0.00195288,-0.0193746,0.0,0.0,0.0
6812000,-0.00842986,-0.00149355,-0.0198314,0.0,0.0,0.0
6844000,-0.00806255,-0.00215805,-0.0199912,0.0,0.0,0.0
6876000,-0.00834841,-0.00248634,-0.0199451,0.0,0.0,0.0
6908000,-0.00779834,-0.00231677,-0.0197207,0.0,0.0,0.0
6936000,-0.00806779,-0.00229011,-0.0199002,0.0,0.0,0.0
6968000,-0.00852495,-0.0028295,-0.0202099,0.0,0.0,0.0
7000000,-0.00862785,-0.00199812,-0.0201671,0.0,0.0,0.0
7028000,-0.00927921,-0.00290049,-0.0202022,0.0,0.0,0.0
7060000,-0.00932164,-0.00293412,-0.0205998,0.0,0.0,0.0
7092000,-0.0100256,-0.0032432,-0.0207272,0.0,0.0,0.0
7120000,-0.0106245,-0.00239423,-0.0210327,0.0,0.0,0.0
7148000,-0.0101703,-0.00226584,-0.0213849,0.0,0.0,0.0
7180000,-0.0102244,-0.00156866,-0.0216777,0.0,0.0,0.0
7212000,-0.0113317,-0.00126615,-0.0222657,0.0,0.0,0.0
7240000,-0.0118869,-0.00093561,-0.0224995,0.0,0.0,0.0
7272000,-0.0113678,-0.00162013,-0.0226935,0.0,0.0,0.0
7300000,-0.0118353,-0.00175357,-0.0230722,0.0,0.0,0.0
7332000,-0.0112687,-0.00155692,-0.0230756,0.0,0.0,0.0
7364000,-0.012594,-0.00171332,-0.0235965,0.0,0.0,0.0
7396000,-0.0122777,-0.00108808,-0.0238169,0.0,0.0,0.0
7428000,-0.0129473,-0.00122029,-0.0238033,0.0,0.0,0.0
7456000,-0.0128296,-0.000834282,-0.0236609,0.0,0.0,0.0
7488000,-0.0135288,-0.00133693,-0.0238596,0.0,0.0,0.0
7520000,-0.0138521,-0.00164108,-0.0240475,0.0,0.0,0.0
7548000,-0.0143854,-0.00207714,-0.0242181,0.0,0.0,0.0
7580000,-0.0147392,-0.00303324,-0.0242364,0.0,0.0,0.0
7608000,-0.0138891,-0.00363561,-0.0244638,0.0,0.0,0.0
7640000,-0.0139258,-0.00348161,-0.0243047,0.0,0.0,0.0
7664000,-0.0132375,-0.00381568,-0.0244228,0.0,0.0,0.0
7696000,-0.0131349,-0.0038245,-0.0247909,0.0,0.0,0.0
7728000,-0.0145921,-0.00392351,-0.0248848,0.0,0.0,0.0
7760000,-0.0140287,-0.00369192,-0.0252069,0.0,0.0,0.0
7788000,-0.014301,-0.00419093,-0.0255539,0.0,0.0,0.0
7816000,-0.0140344,-0.00414835,-0.0253044,0.0,0.0,0.0
7848000,-0.0136929,-0.00479685,-0.025756,0.0,0.0,0.0
7880000,-0.0124287,-0.00485538,-0.0260214,0.0,0.0,0.0
7908000,-0.0118145,-0.00477012,-0.0260008,0.0,0.0,0.0
7940000,-0.0111877,-0.00462264,-0.0264046,0.0,0.0,0.0
7964000,-0.0108439,-0.00472505,-0.0265823,0.0,0.0,0.0
7992000,-0.0113704,-0.00412029,-0.0269882,0.0,0.0,0.0
8024000,-0.012598,-0.00481373,-0.0267082,0.0,0.0,0.0
8056000,-0.0129111,-0.00492447,-0.0271638,0.0,0.0,0.0
8080000,-0.0123803,-0.00486652,-0.026904,0.0,0.0,0.0
8112000,-0.0111493,-0.00452923,-0.0268255,0.0,0.0,0.0
8140000,-0.011213,-0.00367714,-0.0267541,0.0,0.0,0.0
8172000,-0.0113474,-0.00376054,-0.0267237,0.0,0.0,0.0
8200000,-0.0113744,-0.00367494,-0.0265798,0.0,0.0,0.0
8232000,-0.0126886,-0.00458488,-0.02674,0.0,0.0,0.0
8260000,-0.0125003,-0.0050482,-0.0268693,0.0,0.0,0.0
8288000,-0.0121583,-0.00519831,-0.0267355,0.0,0.0,0.0
8320000,-0.0125994,-0.00444968,-0.0267941,0.0,0.0,0.0
8352000,-0.0120615,-0.00500347,-0.0267572,0.0,0.0,0.0
8380000,-0.0120819,-0.00608791,-0.027031,0.0,0.0,0.0
8408000,-0.0127991,-0.00636956,-0.0268892,0.0,0.0,0.0
8440000,-0.0120341,-0.00585019,-0.0275488,0.0,0.0,0.0
8472000,-0.0124863,-0.00706028,-0.0277679,0.0,0.0,0.0
8504000,-0.0105098,-0.00670815,-0.0275688,0.0,0.0,0.0
8536000,-0.0100482,-0.00671392,-0.0279355,0.0,0.0,0.0
8564000,-0.00990017,-0.00709482,-0.0278889,0.0,0.0,0.0
8596000,-0.010717,-0.00675201,-0.0284954,0.0,0.0,0.0
8628000,-0.0108361,-0.00623942,-0.0285036,0.0,0.0,0.0
8660000,-0.01142,-0.00550869,-0.0291467,0.0,0.0,0.0
8692000,-0.0101535,-0.00533338,-0.0294823,0.0,0.0,0.0
8716000,-0.00982988,-0.00650155,-0.0293395,0.0,0.0,0.0
8748000,-0.00900295,-0.0062119,-0.0294601,0.0,0.0,0.0
8780000,-0.00891763,-0.00696287,-0.0298784,0.0,0.0,0.0
8812000,-0.00900392,-0.0058418,-0.0299694,0.0,0.0,0.0
8844000,-0.00837252,-0.00659144,-0.0296538,0.0,0.0,0.0
8872000,-0.00765106,-0.00685119,-0.0293793,0.0,0.0,0.0
8904000,-0.00865812,-0.00681049,-0.0292416,0.0,0.0,0.0
8932000,-0.00854619,-0.00716598,-0.0294816,0.0,0.0,0.0
8960000,-0.00900783,-0.00823179,-0.029224,0.0,0.0,0.0
8992000,-0.00979084,-0.00962965,-0.0293926,0.0,0.0,0.0
9020000,-0.00991355,-0.00983964,-0.0290806,0.0,0.0,0.0
9048000,-0.00881338,-0.0096546,-0.0289936,0.0,0.0,0.0
9080000,-0.00789378,-0.00906313,-0.0286877,0.0,0.0,0.0
9112000,-0.00712579,-0.00940436,-0.0289718,0.0,0.0,0.0
9144000,-0.00717306,-0.00950879,-0.029339,0.0,0.0,0.0
9172000,-0.00647868,-0.00999984,-0.0295096,0.0,0.0,0.0
9200000,-0.00615344,-0.00987779,-0.029937,0.0,0.0,0.0
9232000,-0.0054703,-0.00986702,-0.0301821,0.0,0.0,0.0
9260000,-0.00545603,-0.0109363,-0.0299694,0.0,0.0,0.0
9288000,-0.00491656,-0.0114228,-0.0300208,0.0,0.0,0.0
9320000,-0.004877,-0.012326,-0.0299195,0.0,0.0,0.0
9352000,-0.00503632,-0.0121496,-0.029943,0.0,0.0,0.0
9384000,-0.0047725,-0.0117693,-0.0298719,0.0,0.0,0.0
9412000,-0.00511032,-0.0124968,-0.0296251,0.0,0.0,0.0
9440000,-0.00482805,-0.0124785,-0.0294361,0.0,0.0,0.0
9472000,-0.00564264,-0.0132293,-0.0289202,0.0,0.0,0.0
9504000,-0.00478565,-0.0131579,-0.0290711,0.0,0.0,0.0
9536000,-0.00544572,-0.0148187,-0.0284469,0.0,0.0,0.0
9568000,-0.00461115,-0.0146236,-0.0278209,0.0,0.0,0.0
9596000,-0.00396361,-0.0141116,-0.027961,0.0,0.0,0.0
9628000,-0.00385462,-0.0134734,-0.0279548,0.0,0.0,0.0
9660000,-0.00421578,-0.0133468,-0.0277989,0.0,0.0,0.0
9692000,-0.00430389,-0.0126485,-0.0277706,0.0,0.0,0.0
9724000,-0.00451213,-0.0126722,-0.0277287,0.0,0.0,0.0
9756000,-0.00433902,-0.011969,-0.0276239,0.0,0.0,0.0
9788000,-0.00347459,-0.0120004,-0.028133,0.0,0.0,0.0
9820000,-0.00241942,-0.0114238,-0.0280816,0.0,0.0,0.0
9844000,-0.00271926,-0.0109477,-0.0279469,0.0,0.0,0.0
9872000,-0.00210725,-0.0110562,-0.0275706,0.0,0.0,0.0
9904000,-0.000291454,-0.0108955,-0.0279906,0.0,0.0,0.0
9936000,9.90926e-05,-0.0123073,-0.027936,0.0,0.0,0.0
9968000,0.000636219,-0.01206,-0.0280478,0.0,0.0,0.0
9996000,0.000829224,-0.0130107,-0.0279389,0.0,0.0,0.0
10024000,0.00089983,-0.0138348,-0.0281195,0.0,0.0,0.0
10056000,0.00140807,-0.012868,-0.0280864,0.0,0.0,0.0
10088000,0.00180564,-0.0117955,-0.027669,0.0,0.0,0.0
10120000,0.00156407,-0.0121149,-0.0276197,0.0,0.0,0.0
10148000,0.00305882,-0.0114803,-0.0273465,0.0,0.0,0.0
10176000,0.00346484,-0.0114675,-0.0274367,0.0,0.0,0.0
10208000,0.00336541,-0.0115864,-0.0270832,0.0,0.0,0.0
10240000,0.00327615,-0.0112956,-0.0132959,0.0,0.0,0.0
10268000,0.00387928,-0.0106802,-0.0132282,0.0,0.0,0.0
10300000,0.00414816,-0.0107886,-0.0130888,0.0,0.0,0.0
10332000,0.00436309,-0.0107697,-0.0134335,0.0,0.0,0.0
10360000,0.00464972,-0.0105765,-0.0132625,0.0,0.0,0.0
10392000,0.00373226,-0.0102447,-0.0131309,0.0,0.0,0.0
10424000,0.00421388,-0.00981175,-0.0133246,0.0,0.0,0.0
10456000,0.00475103,-0.00914265,-0.0134141,0.0,0.0,0.0
10488000,0.00477319,-0.008931,-0.0137031,0.0,0.0,0.0
10520000,0.00453284,-0.00837258,-0.0141908,0.0,0.0,0.0
10548000,0.00470578,-0.00825769,-0.0144554,0.0,0.0,0.0
10580000,0.00459601,-0.00812725,-0.014311,0.0,0.0,0.0
10608000,0.00462603,-0.00732864,-0.0143843,0.0,0.0,0.0
10636000,0.00483389,-0.00798615,-0.0141825,0.0,0.0,0.0
10664000,0.0040673,-0.00833669,-0.014212,0.0,0.0,0.0
10692000,0.00355077,-0.00854648,-0.0144767,0.0,0.0,0.0
10720000,0.00304527,-0.0083647,-0.0147436,0.0,0.0,0.0
10748000,0.00387305,-0.00873615,-0.0146882,0.0,0.0,0.0
10776000,0.00440127,-0.00853117,-0.0144928,0.0,0.0,0.0
10800000,0.00446129,-0.0084587,-0.0146906,0.0,0.0,0.0
10832000,0.00497867,-0.00855303,-0.0148348,0.0,0.0,0.0
10864000,0.00595348,-0.00740075,-0.0150026,0.0,0.0,0.0
10892000,0.00514423,-0.00867449,-0.0156389,0.0,0.0,0.0
10920000,0.0065199,-0.0086206,-0.01574,0.0,0.0,0.0
10948000,0.00704268,-0.00836109,-0.016224,0.0,0.0,0.0
10976000,0.00669506,-0.00838285,-0.0166681,0.0,0.0,0.0
11004000,0.0068013,-0.00773795,-0.0172503,0.0,0.0,0.0
11032000,0.00744153,-0.00648337,-0.017668,0.0,0.0,0.0
11064000,0.00686959,-0.0049147,-0.0177889,0.0,0.0,0.0
11092000,0.00685707,-0.00478597,-0.0181403,0.0,0.0,0.0
11120000,0.00764393,-0.00455558,-0.0185507,0.0,0.0,0.0
11152000,0.00752814,-0.00433971,-0.0184731,0.0,0.0,0.0
11180000,0.00736649,-0.00401471,-0.0184789,0.0,0.0,0.0
11212000,0.00789893,-0.0037821,-0.018392,0.0,0.0,0.0
11244000,0.00803446,-0.00448765,-0.0183526,0.0,0.0,0.0
11272000,0.00872627,-0.00444522,-0.0184076,0.0,0.0,0.0
11300000,0.00945053,-0.00474937,-0.018348,0.0,0.0,0.0
11332000,0.008708,-0.00462549,-0.0184053,0.0,0.0,0.0
11364000,0.00931223,-0.00535083,-0.0183377,0.0,0.0,0.0
11388000,0.00994733,-0.005667,-0.0181411,0.0,0.0,0.0
11416000,0.00968805,-0.00463844,-0.0173958,0.0,0.0,0.0
11444000,0.00975891,-0.00433057,-0.0167962,0.0,0.0,0.0
11476000,0.00987029,-0.00432469,-0.0164971,0.0,0.0,0.0
11508000,0.00934441,-0.00423746,-0.0165722,0.0,0.0,0.0
11536000,0.00891007,-0.00426872,-0.0162944,0.0,0.0,0.0
11568000,0.008263,-0.00468851,-0.0169137,0.0,0.0,0.0
11596000,0.00852188,-0.00460164,-0.0168818,0.0,0.0,0.0
11620000,0.00891233,-0.00483993,-0.0169199,0.0,0.0,0.0
11652000,0.00876004,-0.00387998,-0.0167356,0.0,0.0,0.0
11684000,0.00888627,-0.00353618,-0.0168475,0.0,0.0,0.0
11708000,0.00976385,-0.00369522,-0.0169629,0.0,0.0,0.0
11736000,0.00926808,-0.00391611,-0.0173225,0.0,0.0,0.0
11768000,0.00914831,-0.00354321,-0.0173494,0.0,0.0,0.0
11796000,0.00898945,-0.00310253,-0.0178079,0.0,0.0,0.0
11828000,0.00829986,-0.00410116,-0.0179398,0.0,0.0,0.0
11860000,0.00782516,-0.00437333,-0.0176868,0.0,0.0,0.0
11892000,0.00747908,-0.00431294,-0.0174201,0.0,0.0,0.0
11920000,0.0082456,-0.00456048,-0.0168079,0.0,0.0,0.0
11952000,0.00735336,-0.00457965,-0.0168448,0.0,0.0,0.0
11980000,0.0070447,-0.00337768,-0.0166676,0.0,0.0,0.0
12012000,0.00657926,-0.00412348,-0.0167434,0.0,0.0,0.0
12044000,0.00663706,-0.00354547,-0.0169639,0.0,0.0,0.0
12076000,0.00717143,-0.00260433,-0.0170094,0.0,0.0,0.0
12108000,0.00694988,-0.00371887,-0.0170108,0.0,0.0,0.0
12136000,0.00676264,-0.00443223,-0.0166146,0.0,0.0,0.0
12164000,0.00709895,-0.00427257,-0.0170882,0.0,0.0,0.0
12196000,0.00738474,-0.00473382,-0.0170175,0.0,0.0,0.0
12228000,0.00765284,-0.00350654,-0.0172275,0.0,0.0,0.0
12260000,0.00844844,-0.00340786,-0.0171546,0.0,0.0,0.0
12288000,0.009197,-0.00375892,-0.0175519,0.0,0.0,0.0
12316000,0.0088271,-0.00375359,-0.0178374,0.0,0.0,0.0
12348000,0.00893198,-0.00344607,-0.018118,0.0,0.0,0.0
12380000,0.00886926,-0.00439929,-0.017974,0.0,0.0,0.0
12412000,0.00818791,-0.00486178,-0.017919,0.0,0.0,0.0
12440000,0.00773262,-0.00523532,-0.0180208,0.0,0.0,0.0
12472000,0.00816799,-0.0056051,-0.0182615,0.0,0.0,0.0
12500000,0.00860642,-0.00547275,-0.0180284,0.0,0.0,0.0
12532000,0.00866768,-0.00550866,-0.0180637,0.0,0.0,0.0
12560000,0.00911833,-0.0064696,-0.0179094,0.0,0.0,0.0
12584000,0.00829403,-0.00640232,-0.0181601,0.0,0.0,0.0
12612000,0.00820512,-0.00539862,-0.0180885,0.0,0.0,0.0
12640000,0.00822735,-0.0049327,-0.0182508,0.0,0.0,0.0
12672000,0.00872238,-0.00508039,-0.018512,0.0,0.0,0.0
12700000,0.00855129,-0.00435148,-0.0188767,0.0,0.0,0.0
12732000,0.00912106,-0.00579279,-0.0185124,0.0,0.0,0.0
12764000,0.0089032,-0.0056865,-0.0182696,0.0,0.0,0.0
12792000,0.00809012,-0.00555764,-0.0180123,0.0,0.0,0.0
12820000,0.0075294,-0.00578797,-0.0178054,0.0,0.0,0.0
12852000,0.00720296,-0.00600523,-0.0180531,0.0,0.0,0.0
12884000,0.00730275,-0.00537911,-0.0182663,0.0,0.0,0.0
12916000,0.00873294,-0.00500472,-0.0183923,0.0,0.0,0.0
12948000,0.00923309,-0.00377758,-0.0185036,0.0,0.0,0.0
12980000,0.00847464,-0.00331954,-0.0188422,0.0,0.0,0.0
13012000,0.00729855,-0.00438571,-0.0196245,0.0,0.0,0.0
13040000,0.00638945,-0.0039032,-0.0196751,0.0,0.0,0.0
13072000,0.00666657,-0.00475866,-0.0196568,0.0,0.0,0.0
13100000,0.00748775,-0.00535102,-0.019916,0.0,0.0,0.0
13132000,0.00788001,-0.00566077,-0.0199337,0.0,0.0,0.0
13164000,0.00635839,-0.00640607,-0.0198023,0.0,0.0,0.0
13196000,0.00698496,-0.00702658,-0.0195032,0.0,0.0,0.0
13228000,0.00691856,-0.00679829,-0.019444,0.0,0.0,0.0
13256000,0.00701662,-0.00711723,-0.0196993,0.0,0.0,0.0
13288000,0.00713248,-0.00779809,-0.0195045,0.0,0.0,0.0
13320000,0.00747093,-0.00740516,-0.0193718,0.0,0.0,0.0
13352000,0.00804981,-0.00729908,-0.0194625,0.0,0.0,0.0
13380000,0.00880023,-0.0069083,-0.0197387,0.0,0.0,0.0
13412000,0.00899523,-0.00641645,-0.0198663,0.0,0.0,0.0
13440000,0.00876304,-0.00598806,-0.0197261,0.0,0.0,0.0
13472000,0.00945378,-0.00666734,-0.019127,0.0,0.0,0.0
13500000,0.00974979,-0.00577978,-0.0188285,0.0,0.0,0.0
13524000,0.00996293,-0.00576835,-0.018896,0.0,0.0,0.0
13556000,0.00937225,-0.00572136,-0.0189593,0.0,0.0,0.0
13588000,0.0107814,-0.0050166,-0.0189027,0.0,0.0,0.0
13616000,0.0102511,-0.00461928,-0.0188559,0.0,0.0,0.0
13644000,0.0101305,-0.00514472,-0.0188527,0.0,0.0,0.0
13676000,0.00988818,-0.00697293,-0.0192607,0.0,0.0,0.0
13704000,0.00932539,-0.00789309,-0.0191281,0.0,0.0,0.0
13736000,0.00952243,-0.00767138,-0.0189,0.0,0.0,0.0
13768000,0.00975044,-0.00778573,-0.019102,0.0,0.0,0.0
13800000,0.00935119,-0.00746187,-0.0191824,0.0,0.0,0.0
13828000,0.00950334,-0.0069212,-0.0194863,0.0,0.0,0.0
13856000,0.00816319,-0.00692289,-0.0198859,0.0,0.0,0.0
13884000,0.00832121,-0.00713037,-0.0198745,0.0,0.0,0.0
13916000,0.00872676,-0.00699595,-0.0203641,0.0,0.0,0.0
13948000,0.00850967,-0.00716166,-0.0206891,0.0,0.0,0.0
13980000,0.00789607,-0.00636649,-0.0205983,0.0,0.0,0.0
14012000,0.00788543,-0.00721411,-0.0205478,0.0,0.0,0.0
14044000,0.00764752,-0.00774879,-0.0201316,0.0,0.0,0.0
14072000,0.00698861,-0.0079607,-0.0200089,0.0,0.0,0.0
14100000,0.00640322,-0.00712273,-0.0198384,0.0,0.0,0.0
14128000,0.0063499,-0.00683015,-0.0195877,0.0,0.0,0.0
14160000,0.00713106,-0.00682295,-0.0195393,0.0,0.0,0.0
14188000,0.00723018,-0.00635567,-0.0196608,0.0,0.0,0.0
14216000,0.00641802,-0.00591307,-0.0195096,0.0,0.0,0.0
14244000,0.00642382,-0.00640463,-0.0192318,0.0,0.0,0.0
14276000,0.0067593,-0.0067624,-0.0192999,0.0,0.0,0.0
14308000,0.00662124,-0.00741013,-0.0192875,0.0,0.0,0.0
14340000,0.00707699,-0.00669523,-0.0200097,0.0,0.0,0.0
14372000,0.00776249,-0.00605033,-0.0200257,0.0,0.0,0.0
14400000,0.00790936,-0.00619826,-0.0201518,0.0,0.0,0.0
14432000,0.00737431,-0.00629495,-0.0205918,0.0,0.0,0.0
14464000,0.00643013,-0.00681644,-0.0207567,0.0,0.0,0.0
14496000,0.00679498,-0.00776766,-0.0208936,0.0,0.0,0.0
14524000,0.00622316,-0.00788004,-0.0208531,0.0,0.0,0.0
14552000,0.00554779,-0.0079713,-0.0211867,0.0,0.0,0.0
14580000,0.00635784,-0.00763278,-0.0212861,0.0,0.0,0.0
14612000,0.00542335,-0.00730747,-0.0214554,0.0,0.0,0.0
14644000,0.00546843,-0.00772571,-0.0210706,0.0,0.0,0.0
14676000,0.00531791,-0.00887498,-0.020958,0.0,0.0,0.0
14704000,0.0047131,-0.00799851,-0.0207968,0.0,0.0,0.0
14736000,0.00510726,-0.00882391,-0.0208765,0.0,0.0,0.0
14764000,0.0049246,-0.00900176,-0.0210544,0.0,0.0,0.0
14796000,0.00347954,-0.00826139,-0.0209617,0.0,0.0,0.0
14828000,0.00285386,-0.00877842,-0.0206227,0.0,0.0,0.0
14860000,0.00281534,-0.00918596,-0.0208205,0.0,0.0,0.0
14888000,0.00314912,-0.00872386,-0.0212372,0.0,0.0,0.0
14920000,0.00253415,-0.00851889,-0.0216053,0.0,0.0,0.0
14952000,0.00334714,-0.00769837,-0.0217496,0.0,0.0,0.0
14984000,0.00380328,-0.00762113,-0.0211968,0.0,0.0,0.0
15012000,0.00358992,-0.00806855,-0.0207872,0.0,0.0,0.0
15040000,0.00367467,-0.00853115,-0.0206392,0.0,0.0,0.0
15072000,0.00347098,-0.0080182,-0.020696,0.0,0.0,0.0
15104000,0.0035535,-0.00754444,-0.0210811,0.0,0.0,0.0
15132000,0.00325643,-0.00806288,-0.0209703,0.0,0.0,0.0
15160000,0.00329598,-0.00903979,-0.0203226,0.0,0.0,0.0
15192000,0.00268773,-0.0100985,-0.0203599,0.0,0.0,0.0
15224000,0.00409271,-0.00980101,-0.0201508,0.0,0.0,0.0
15256000,0.00378125,-0.010131,-0.0205016,0.0,0.0,0.0
15284000,0.00482661,-0.00987879,-0.020717,0.0,0.0,0.0
15316000,0.0057166,-0.0102423,-0.0207783,0.0,0.0,0.0
15348000,0.00768618,-0.0096911,-0.0203808,0.0,0.0,0.0
15380000,0.00767572,-0.0102367,-0.0206731,0.0,0.0,0.0
15412000,0.00821853,-0.0107564,-0.0204226,0.0,0.0,0.0
15436000,0.00768938,-0.00957215,-0.0209851,0.0,0.0,0.0
15468000,0.00706964,-0.0109432,-0.0211631,0.0,0.0,0.0
15500000,0.00755003,-0.0104912,-0.0210264,0.0,0.0,0.0
15524000,0.00779192,-0.0101078,-0.0208381,0.0,0.0,0.0
15552000,0.00756617,-0.00918153,-0.0206371,0.0,0.0,0.0
15584000,0.00770976,-0.0100306,-0.0207322,0.0,0.0,0.0
15612000,0.00746021,-0.0110292,-0.0206878,0.0,0.0,0.0
15644000,0.00754434,-0.0109354,-0.0207435,0.0,0.0,0.0
15676000,0.00808522,-0.0114797,-0.0203183,0.0,0.0,0.0
15708000,0.00914934,-0.0112451,-0.0207438,0.0,0.0,0.0
15732000,0.00879018,-0.0107184,-0.0199562,0.0,0.0,0.0
15760000,0.00875586,-0.0104525,-0.0196249,0.0,0.0,0.0
15792000,0.00735209,-0.011349,-0.0193534,0.0,0.0,0.0
15824000,0.00626952,-0.0110706,-0.0195528,0.0,0.0,0.0
15852000,0.00543019,-0.0120961,-0.0199383,0.0,0.0,0.0
15884000,0.00573907,-0.0113712,-0.0200827,0.0,0.0,0.0
15916000,0.00536375,-0.0117161,-0.0206681,0.0,0.0,0.0
15944000,0.0064692,-0.0121131,-0.0203735,0.0,0.0,0.0
15972000,0.00637108,-0.0120366,-0.0204398,0.0,0.0,0.0
16000000,0.00665751,-0.0111136,-0.020142,0.0,0.0,0.0
16032000,0.00628607,-0.0113314,-0.0197906,0.0,0.0,0.0
16064000,0.00642965,-0.0117077,-0.0192872,0.0,0.0,0.0
16092000,0.00646647,-0.0111801,-0.0187386,0.0,0.0,0.0
16120000,0.00707972,-0.0115047,-0.0188073,0.0,0.0,0.0
16152000,0.00651464,-0.0108382,-0.0186797,0.0,0.0,0.0
16180000,0.00551753,-0.0108207,-0.0190683,0.0,0.0,0.0
16212000,0.00657669,-0.0109624,-0.0189753,0.0,0.0,0.0
16244000,0.00642183,-0.0110017,-0.0191453,0.0,0.0,0.0
16276000,0.00650689,-0.0116441,-0.0192803,0.0,0.0,0.0
16308000,0.00648647,-0.0110892,-0.0189106,0.0,0.0,0.0
16340000,0.00686107,-0.0113678,-0.0184585,0.0,0.0,0.0
16372000,0.00729544,-0.0111735,-0.0186423,0.0,0.0,0.0
16400000,0.00693911,-0.0117534,-0.0190532,0.0,0.0,0.0
16432000,0.00636733,-0.0121388,-0.0195137,0.0,0.0,0.0
16464000,0.00567527,-0.0118789,-0.0193987,0.0,0.0,0.0
16496000,0.00515137,-0.0127347,-0.0194455,0.0,0.0,0.0
16528000,0.0049856,-0.0131696,-0.019547,0.0,0.0,0.0
16560000,0.0044478,-0.0125489,-0.0191275,0.0,0.0,0.0
16592000,0.00398128,-0.0127549,-0.0195071,0.0,0.0,0.0
16624000,0.00403425,-0.0140856,-0.0196001,0.0,0.0,0.0
16652000,0.00360843,-0.0141296,-0.0190445,0.0,0.0,0.0
16684000,0.00417354,-0.013648,-0.0192537,0.0,0.0,0.0
16712000,0.0043835,-0.0147749,-0.0190622,0.0,0.0,0.0
16744000,0.00471076,-0.0144231,-0.0192055,0.0,0.0,0.0
16776000,0.00353586,-0.0139454,-0.0195232,0.0,0.0,0.0
16808000,0.00330123,-0.0134283,-0.0192928,0.0,0.0,0.0
16840000,0.00306556,-0.0133202,-0.0194394,0.0,0.0,0.0
16868000,0.0042936,-0.0130301,-0.0195077,0.0,0.0,0.0
16900000,0.00434837,-0.014428,-0.019542,0.0,0.0,0.0
16928000,0.00501462,-0.0143351,-0.018965,0.0,0.0,0.0
16960000,0.00445534,-0.0158798,-0.0190523,0.0,0.0,0.0
16992000,0.00472316,-0.0167462,-0.0187535,0.0,0.0,0.0
17024000,0.00533407,-0.0164557,-0.0187766,0.0,0.0,0.0
17056000,0.00485457,-0.0169001,-0.018241,0.0,0.0,0.0
17084000,0.00438812,-0.0173278,-0.0184284,0.0,0.0,0.0
17112000,0.0046096,-0.0175667,-0.0184574,0.0,0.0,0.0
17144000,0.00527444,-0.0187901,-0.0188704,0.0,0.0,0.0
17176000,0.00482148,-0.0195723,-0.0192811,0.0,0.0,0.0
17208000,0.00411987,-0.0200175,-0.0190394,0.0,0.0,0.0
17240000,0.00437354,-0.0206439,-0.0197153,0.0,0.0,0.0
17272000,0.00408694,-0.0200966,-0.020096,0.0,0.0,0.0
17300000,0.00380047,-0.0220416,-0.0200546,0.0,0.0,0.0
17332000,0.00411813,-0.0225906,-0.0192302,0.0,0.0,0.0
17360000,0.00397264,-0.0224721,-0.0193242,0.0,0.0,0.0
17392000,0.00489891,-0.023044,-0.0194729,0.0,0.0,0.0
17420000,0.00511898,-0.0234396,-0.0193872,0.0,0.0,0.0
17452000,0.00628556,-0.0231249,-0.0194553,0.0,0.0,0.0
17480000,0.00638756,-0.0232355,-0.0189319,0.0,0.0,0.0
17508000,0.00550128,-0.0238077,-0.0192708,0.0,0.0,0.0
17536000,0.00578861,-0.0228808,-0.0194919,0.0,0.0,0.0
17568000,0.00576625,-0.0228558,-0.0197256,0.0,0.0,0.0
17600000,0.00672521,-0.0224393,-0.0193728,0.0,0.0,0.0
17632000,0.00675079,-0.0223489,-0.0188462,0.0,0.0,0.0
17664000,0.0063635,-0.0230922,-0.0191069,0.0,0.0,0.0
17692000,0.00658721,-0.0235574,-0.0192608,0.0,0.0,0.0
17724000,0.00769217,-0.0239657,-0.0194431,0.0,0.0,0.0
17752000,0.00793346,-0.0250868,-0.0193718,0.0,0.0,0.0
17780000,0.00791884,-0.0248029,-0.019229,0.0,0.0,0.0
17812000,0.00769408,-0.0251776,-0.0191463,0.0,0.0,0.0
17840000,0.0074065,-0.024916,-0.0194512,0.0,0.0,0.0
17868000,0.00697027,-0.0251569,-0.0192829,0.0,0.0,0.0
17900000,0.00683546,-0.0249677,-0.0195618,0.0,0.0,0.0
17932000,0.00682393,-0.0254007,-0.0195791,0.0,0.0,0.0
17960000,0.00670603,-0.0259645,-0.0196584,0.0,0.0,0.0
17992000,0.00775831,-0.0260022,-0.0191672,0.0,0.0,0.0
18020000,0.00795288,-0.0259113,-0.0189495,0.0,0.0,0.0
18052000,0.00913132,-0.0248672,-0.0183632,0.0,0.0,0.0
18080000,0.00837186,-0.0258319,-0.01848,0.0,0.0,0.0
18112000,0.00811897,-0.0269918,-0.0184167,0.0,0.0,0.0
18136000,0.00794865,-0.0266266,-0.0186524,0.0,0.0,0.0
18164000,0.00867927,-0.0259796,-0.0187237,0.0,0.0,0.0
18196000,0.00895131,-0.0256332,-0.018716,0.0,0.0,0.0
18228000,0.00923053,-0.024939,-0.018392,0.0,0.0,0.0
18256000,0.00744048,-0.0248088,-0.0186887,0.0,0.0,0.0
18284000,0.00741236,-0.0256052,-0.018415,0.0,0.0,0.0
18316000,0.00809143,-0.0267161,-0.0189472,0.0,0.0,0.0
18348000,0.00875788,-0.0268626,-0.0190321,0.0,0.0,0.0
18380000,0.00867708,-0.0270014,-0.0190126,0.0,0.0,0.0
18412000,0.00743797,-0.0257966,-0.0192624,0.0,0.0,0.0
18444000,0.00595998,-0.0248143,-0.0189818,0.0,0.0,0.0
18472000,0.00594285,-0.0237535,-0.0188008,0.0,0.0,0.0
18504000,0.00634068,-0.0226681,-0.0187653,0.0,0.0,0.0
18532000,0.00621862,-0.0221411,-0.019467,0.0,0.0,0.0
18564000,0.00628049,-0.0217162,-0.0192547,0.0,0.0,0.0
18592000,0.00635527,-0.0221725,-0.0193329,0.0,0.0,0.0
18620000,0.0065505,-0.0219924,-0.0193167,0.0,0.0,0.0
18652000,0.00661344,-0.0216964,-0.0190455,0.0,0.0,0.0
18684000,0.00583355,-0.0206609,-0.0190959,0.0,0.0,0.0
18716000,0.00667886,-0.0201794,-0.0189103,0.0,0.0,0.0
18748000,0.00727284,-0.0197633,-0.0189356,0.0,0.0,0.0
18776000,0.00689336,-0.0201618,-0.0191463,0.0,0.0,0.0
18808000,0.00684427,-0.0210868,-0.0194238,0.0,0.0,0.0
18840000,0.00726356,-0.0213028,-0.0191112,0.0,0.0,0.0
18872000,0.00707715,-0.021131,-0.0193516,0.0,0.0,0.0
18904000,0.00745027,-0.0215454,-0.0190268,0.0,0.0,0.0
18936000,0.00767361,-0.0200484,-0.0194894,0.0,0.0,0.0
18968000,0.00760417,-0.0207867,-0.0192757,0.0,0.0,0.0
18992000,0.00770599,-0.0208744,-0.0196376,0.0,0.0,0.0
19024000,0.00730499,-0.0207913,-0.0194826,0.0,0.0,0.0
19052000,0.00762338,-0.0207206,-0.0195023,0.0,0.0,0.0
19084000,0.00650617,-0.0195597,-0.0200063,0.0,0.0,0.0
19112000,0.00746004,-0.0201444,-0.019758,0.0,0.0,0.0
19140000,0.00743609,-0.02005,-0.0196632,0.0,0.0,0.0
19172000,0.00641208,-0.0193527,-0.0200025,0.0,0.0,0.0
19204000,0.00735913,-0.0176113,-0.0198485,0.0,0.0,0.0
19232000,0.00756363,-0.0176381,-0.0199384,0.0,0.0,0.0
19264000,0.00740119,-0.0179471,-0.0201136,0.0,0.0,0.0
19292000,0.00771965,-0.018169,-0.0206355,0.0,0.0,0.0
19320000,0.00860128,-0.0177963,-0.0208536,0.0,0.0,0.0
19344000,0.00896215,-0.0180442,-0.020825,0.0,0.0,0.0
19372000,0.00980514,-0.0187939,-0.0208564,0.0,0.0,0.0
19400000,0.00970874,-0.0180738,-0.0211154,0.0,0.0,0.0
19432000,0.00970948,-0.0176554,-0.0208879,0.0,0.0,0.0
19464000,0.00918464,-0.0175917,-0.021168,0.0,0.0,0.0
19488000,0.00917956,-0.0179102,-0.0206719,0.0,0.0,0.0
19516000,0.00867769,-0.0173848,-0.0204112,0.0,0.0,0.0
19548000,0.00851879,-0.0166779,-0.0204997,0.0,0.0,0.0
19576000,0.00889492,-0.0169854,-0.020904,0.0,0.0,0.0
19608000,0.00978245,-0.015776,-0.0207734,0.0,0.0,0.0
19640000,0.0108654,-0.0157695,-0.0210888,0.0,0.0,0.0
19672000,0.010931,-0.0154006,-0.0208197,0.0,0.0,0.0
19704000,0.011387,-0.0155664,-0.0207075,0.0,0.0,0.0
19736000,0.0109194,-0.0161906,-0.020581,0.0,0.0,0.0
19768000,0.0104032,-0.0155318,-0.0203327,0.0,0.0,0.0
19800000,0.0105762,-0.0150168,-0.0208541,0.0,0.0,0.0
19832000,0.00998123,-0.014754,-0.0207639,0.0,0.0,0.0
19864000,0.00930828,-0.0152571,-0.0206531,0.0,0.0,0.0
19896000,0.00967073,-0.0143522,-0.0206554,0.0,0.0,0.0
19928000,0.0101509,-0.0142284,-0.0206107,0.0,0.0,0.0
19960000,0.0101701,-0.0128301,-0.0205206,0.0,0.0,0.0
19988000,0.00882751,-0.0121967,-0.0206113,0.0,0.0,0.0
20020000,0.00820686,-0.0118619,-0.0203676,0.0,0.0,0.0
20052000,0.00848478,-0.0112262,-0.0205394,0.0,0.0,0.0
20084000,0.00883815,-0.0114355,-0.0204155,0.0,0.0,0.0
20116000,0.00904976,-0.0118991,-0.0205425,0.0,0.0,0.0
20144000,0.0088806,-0.012348,-0.0210606,0.0,0.0,0.0
20176000,0.00926007,-0.0114796,-0.0212857,0.0,0.0,0.0
20204000,0.00923701,-0.0106995,-0.0207379,0.0,0.0,0.0
20236000,0.00904765,-0.0103901,-0.0205627,0.0,0.0,0.0
20264000,0.00894076,-0.0108716,-0.0205391,0.0,0.0,0.0
20296000,0.00924078,-0.0115794,-0.0207607,0.0,0.0,0.0
20328000,0.00864818,-0.0118677,-0.0207394,0.0,0.0,0.0
20360000,0.00901561,-0.0119171,-0.0210351,0.0,0.0,0.0
20392000,0.00947124,-0.0119925,-0.021381,0.0,0.0,0.0
20420000,0.00936219,-0.010959,-0.0210624,0.0,0.0,0.0
20452000,0.00852866,-0.0105924,-0.0209132,0.0,0.0,0.0
20484000,0.00786455,-0.0106869,-0.0205629,0.0,0.0,0.0
20516000,0.00866436,-0.0106818,-0.0200713,0.0,0.0,0.0
20548000,0.00823265,-0.00971175,-0.0198174,0.0,0.0,0.0
20580000,0.00753021,-0.00848597,-0.0192483,0.0,0.0,0.0
20608000,0.00841754,-0.00893467,-0.019183,0.0,0.0,0.0
20640000,0.0082071,-0.00871327,-0.0189232,0.0,0.0,0.0
20672000,0.008132,-0.00851642,-0.0188956,0.0,0.0,0.0
20704000,0.00847279,-0.00827386,-0.0185386,0.0,0.0,0.0
20732000,0.00907355,-0.00794865,-0.0188369,0.0,0.0,0.0
20764000,0.00897909,-0.00725811,-0.0187552,0.0,0.0,0.0
20796000,0.00893057,-0.00755119,-0.0188405,0.0,0.0,0.0
20824000,0.00809977,-0.0066967,-0.0187953,0.0,0.0,0.0
20856000,0.00835854,-0.00705699,-0.0187373,0.0,0.0,0.0
20888000,0.00817265,-0.00664097,-0.0185671,0.0,0.0,0.0
20916000,0.00825448,-0.00619038,-0.0181611,0.0,0.0,0.0
20948000,0.00723268,-0.00593869,-0.0183158,0.0,0.0,0.0
20976000,0.00729547,-0.00629667,-0.0184895,0.0,0.0,0.0
21008000,0.00638576,-0.0057825,-0.0183638,0.0,0.0,0.0
21040000,0.00648917,-0.00548486,-0.0183352,0.0,0.0,0.0
21068000,0.0064715,-0.00499245,-0.0177524,0.0,0.0,0.0
21100000,0.0061598,-0.00511368,-0.0174495,0.0,0.0,0.0
21128000,0.00758326,-0.00477366,-0.0170414,0.0,0.0,0.0
21160000,0.00718655,-0.00575634,-0.0171879,0.0,0.0,0.0
21192000,0.00683237,-0.00564715,-0.0174126,0.0,0.0,0.0
21224000,0.00672618,-0.00548844,-0.0174724,0.0,0.0,0.0
21252000,0.00662997,-0.0055729,-0.0176585,0.0,0.0,0.0
21280000,0.00693455,-0.00641662,-0.0171857,0.0,0.0,0.0
21308000,0.00750369,-0.00663158,-0.0171776,0.0,0.0,0.0
21340000,0.00658668,-0.00732542,-0.0165278,0.0,0.0,0.0
21368000,0.00614866,-0.00723607,-0.0162592,0.0,0.0,0.0
21400000,0.00634351,-0.00889094,-0.0165284,0.0,0.0,0.0
21428000,0.00611334,-0.00881562,-0.0165577,0.0,0.0,0.0
21460000,0.00572205,-0.00856698,-0.0170145,0.0,0.0,0.0
21488000,0.00651306,-0.00925221,-0.0168898,0.0,0.0,0.0
21516000,0.00595671,-0.00976656,-0.0167322,0.0,0.0,0.0
21548000,0.00653038,-0.00994802,-0.0168049,0.0,0.0,0.0
21576000,0.00596635,-0.00939162,-0.0167393,0.0,0.0,0.0
21604000,0.0065044,-0.00958682,-0.0167225,0.0,0.0,0.0
21632000,0.00604898,-0.00903191,-0.0164259,0.0,0.0,0.0
21664000,0.00639145,-0.0100929,-0.0156395,0.0,0.0,0.0
21692000,0.00647962,-0.00986649,-0.0153639,0.0,0.0,0.0
21720000,0.0054577,-0.00949591,-0.0152349,0.0,0.0,0.0
21748000,0.00541392,-0.0087349,-0.0153895,0.0,0.0,0.0
21780000,0.00506785,-0.00841245,-0.0155884,0.0,0.0,0.0
21804000,0.00468572,-0.00907297,-0.0157095,0.0,0.0,0.0
21836000,0.00511055,-0.00944903,-0.015569,0.0,0.0,0.0
21868000,0.00483721,-0.00913768,-0.015287,0.0,0.0,0.0
21900000,0.00482997,-0.00882762,-0.0159827,0.0,0.0,0.0
21928000,0.0041703,-0.00797611,-0.0160359,0.0,0.0,0.0
21960000,0.00396298,-0.00695693,-0.0162223,0.0,0.0,0.0
21992000,0.00392675,-0.00694899,-0.01652,0.0,0.0,0.0
22024000,0.00363462,-0.00837366,-0.0164707,0.0,0.0,0.0
22052000,0.00279368,-0.00886372,-0.0167276,0.0,0.0,0.0
22080000,0.00336643,-0.00718378,-0.0171143,0.0,0.0,0.0
22112000,0.00295775,-0.00756539,-0.0174008,0.0,0.0,0.0
22144000,0.00250341,-0.00847932,-0.0172475,0.0,0.0,0.0
22168000,0.00273855,-0.00915004,-0.0174418,0.0,0.0,0.0
22200000,0.00220436,-0.00922927,-0.0177325,0.0,0.0,0.0
22232000,0.000933395,-0.0088618,-0.0176312,0.0,0.0,0.0
22264000,0.000996873,-0.00918004,-0.0174156,0.0,0.0,0.0
22296000,0.00131809,-0.00988863,-0.0170063,0.0,0.0,0.0
22328000,0.000596662,-0.00976548,-0.017506,0.0,0.0,0.0
22360000,0.00176404,-0.00973786,-0.0173536,0.0,0.0,0.0
22392000,0.00187303,-0.00965551,-0.0173399,0.0,0.0,0.0
22424000,0.00135522,-0.00927861,-0.0172205,0.0,0.0,0.0
22456000,0.0012696,-0.0101592,-0.0173236,0.0,0.0,0.0
22488000,0.000966589,-0.00878036,-0.0175242,0.0,0.0,0.0
22520000,0.000643646,-0.0083587,-0.0174184,0.0,0.0,0.0
22552000,-0.000264614,-0.00861064,-0.017195,0.0,0.0,0.0
22584000,-4.56912e-05,-0.00760929,-0.0171395,0.0,0.0,0.0
22612000,4.35838e-05,-0.00739863,-0.0170258,0.0,0.0,0.0
22640000,-3.21498e-05,-0.00687355,-0.0167429,0.0,0.0,0.0
22672000,-0.00133074,-0.00710751,-0.0166727,0.0,0.0,0.0
22696000,-0.00229755,-0.00701853,-0.0169076,0.0,0.0,0.0
22724000,-0.00234928,-0.00740348,-0.0167229,0.0,0.0,0.0
22752000,-0.00249031,-0.00783138,-0.0165781,0.0,0.0,0.0
22780000,-0.00275735,-0.00785876,-0.0164325,0.0,0.0,0.0
22808000,-0.00305925,-0.00762723,-0.0161675,0.0,0.0,0.0
22836000,-0.00331236,-0.00642403,-0.0166151,0.0,0.0,0.0
22868000,-0.00306202,-0.00689529,-0.016749,0.0,0.0,0.0
22896000,-0.00296983,-0.00674976,-0.0167685,0.0,0.0,0.0
22928000,-0.00325969,-0.00720233,-0.0169094,0.0,0.0,0.0
22956000,-0.00378771,-0.00853554,-0.0169226,0.0,0.0,0.0
22984000,-0.00242999,-0.00793505,-0.0172127,0.0,0.0,0.0
23012000,-0.00326878,-0.00771437,-0.017568,0.0,0.0,0.0
23044000,-0.00279443,-0.00733146,-0.0175052,0.0,0.0,0.0
23072000,-0.003445,-0.00715697,-0.0177673,0.0,0.0,0.0
23104000,-0.00337872,-0.00630639,-0.0178856,0.0,0.0,0.0
23132000,-0.00428094,-0.00546895,-0.0182509,0.0,0.0,0.0
23160000,-0.00355246,-0.00578861,-0.0183756,0.0,0.0,0.0
23192000,-0.00310566,-0.00614353,-0.0183602,0.0,0.0,0.0
23220000,-0.00310429,-0.00661178,-0.0189548,0.0,0.0,0.0
23244000,-0.0033505,-0.00553017,-0.0192643,0.0,0.0,0.0
23272000,-0.00303275,-0.00527172,-0.0192482,0.0,0.0,0.0
23304000,-0.00257287,-0.00609762,-0.0194073,0.0,0.0,0.0
23336000,-0.00192038,-0.00648553,-0.0194609,0.0,0.0,0.0
23368000,-0.000620787,-0.00544958,-0.0192007,0.0,0.0,0.0
23400000,-0.000947136,-0.00490283,-0.0192657,0.0,0.0,0.0
23432000,-0.000395223,-0.00428376,-0.0191725,0.0,0.0,0.0
23460000,0.000445614,-0.00424425,-0.0192993,0.0,0.0,0.0
23492000,0.00164923,-0.00483506,-0.0197742,0.0,0.0,0.0
23516000,0.00197916,-0.00452412,-0.0197434,0.0,0.0,0.0
23544000,0.00173262,-0.00437321,-0.0197268,0.0,0.0,0.0
23576000,0.00232417,-0.00361204,-0.0196413,0.0,0.0,0.0
23608000,0.00257036,-0.0037729,-0.0196456,0.0,0.0,0.0
23640000,0.00288743,-0.0040094,-0.0191904,0.0,0.0,0.0
23668000,0.00272147,-0.00383794,-0.0190855,0.0,0.0,0.0
23696000,0.000617592,-0.00506353,-0.0190367,0.0,0.0,0.0
23728000,0.00111532,-0.00488858,-0.0193707,0.0,0.0,0.0
23760000,0.0025361,-0.00446796,-0.019332,0.0,0.0,0.0
23788000,0.00244386,-0.00444431,-0.0197323,0.0,0.0,0.0
23812000,0.00217212,-0.00437517,-0.019894,0.0,0.0,0.0
23844000,0.00191166,-0.00428448,-0.019413,0.0,0.0,0.0
23876000,0.00247723,-0.00421406,-0.0194817,0.0,0.0,0.0
23908000,0.00210303,-0.00458475,-0.0193365,0.0,0.0,0.0
23936000,0.00231577,-0.00460887,-0.0190459,0.0,0.0,0.0
23964000,0.00245261,-0.00461135,-0.0191058,0.0,0.0,0.0
23996000,0.0033993,-0.00533494,-0.0190388,0.0,0.0,0.0
24028000,0.00362221,-0.00524336,-0.0191949,0.0,0.0,0.0
24056000,0.00307683,-0.00514882,-0.0191402,0.0,0.0,0.0
24084000,0.00261237,-0.0044894,-0.0191612,0.0,0.0,0.0
24112000,0.00242906,-0.0035409,-0.0195792,0.0,0.0,0.0
24140000,0.00323078,-0.00490399,-0.0197043,0.0,0.0,0.0
24172000,0.00253988,-0.00451936,-0.019849,0.0,0.0,0.0
24204000,0.00300536,-0.00475835,-0.0200519,0.0,0.0,0.0
24232000,0.00216122,-0.00384917,-0.0201433,0.0,0.0,0.0
24260000,0.00221404,-0.00372774,-0.0202835,0.0,0.0,0.0
24292000,0.00212138,-0.0039909,-0.0198958,0.0,0.0,0.0
24320000,0.00273592,-0.00467795,-0.0196873,0.0,0.0,0.0
24352000,0.0031413,-0.00449923,-0.0197786,0.0,0.0,0.0
24384000,0.00521627,-0.00582578,-0.0202063,0.0,0.0,0.0
24412000,0.0050709,-0.00690406,-0.0203226,0.0,0.0,0.0
24444000,0.00595167,-0.00659721,-0.0202141,0.0,0.0,0.0
24476000,0.00534372,-0.00676424,-0.0198656,0.0,0.0,0.0
24508000,0.00587731,-0.00656977,-0.0196973,0.0,0.0,0.0
24540000,0.00615693,-0.00638541,-0.0197754,0.0,0.0,0.0
24568000,0.00519969,-0.00686989,-0.0195947,0.0,0.0,0.0
24596000,0.00563703,-0.0070215,-0.0191717,0.0,0.0,0.0
24624000,0.00543968,-0.0075222,-0.0187852,0.0,0.0,0.0
24656000,0.00521638,-0.00787181,-0.0181809,0.0,0.0,0.0
24688000,0.00492097,-0.00769429,-0.0181779,0.0,0.0,0.0
24716000,0.0049792,-0.00724782,-0.0183277,0.0,0.0,0.0
24748000,0.00471568,-0.00767666,-0.0180856,0.0,0.0,0.0
24780000,0.00516185,-0.00751485,-0.0178338,0.0,0.0,0.0
24812000,0.00512022,-0.0073797,-0.0176049,0.0,0.0,0.0
24844000,0.00568069,-0.00768554,-0.0171845,0.0,0.0,0.0
24876000,0.00695896,-0.00794248,-0.0169024,0.0,0.0,0.0
24908000,0.00679782,-0.00772459,-0.0170493,0.0,0.0,0.0
24940000,0.00591618,-0.00728983,-0.0172704,0.0,0.0,0.0
24968000,0.00690094,-0.00635042,-0.0169239,0.0,0.0,0.0
24996000,0.0067316,-0.00643149,-0.0168778,0.0,0.0,0.0
25024000,0.00660045,-0.00672794,-0.0170194,0.0,0.0,0.0
25056000,0.00643861,-0.00528705,-0.016714,0.0,0.0,0.0
25084000,0.00601017,-0.00453219,-0.0167989,0.0,0.0,0.0
25112000,0.00678636,-0.00461571,-0.0164936,0.0,0.0,0.0
25144000,0.0064487,-0.00532347,-0.0169911,0.0,0.0,0.0
25168000,0.00657,-0.00599782,-0.0171688,0.0,0.0,0.0
25196000,0.00657638,-0.00618982,-0.0166134,0.0,0.0,0.0
25228000,0.0063773,-0.00575853,-0.0167962,0.0,0.0,0.0
25260000,0.00562348,-0.0060478,-0.0163062,0.0,0.0,0.0
25288000,0.00618535,-0.00532027,-0.0163184,0.0,0.0,0.0
25320000,0.0073069,-0.00560662,-0.0164772,0.0,0.0,0.0
25352000,0.00720473,-0.00567932,-0.0168508,0.0,0.0,0.0
25380000,0.00680593,-0.00527103,-0.0165902,0.0,0.0,0.0
25408000,0.00714253,-0.00584744,-0.0169744,0.0,0.0,0.0
25440000,0.00776652,-0.00607416,-0.0171919,0.0,0.0,0.0
25472000,0.00771219,-0.00598897,-0.0175835,0.0,0.0,0.0
25504000,0.00766575,-0.00635144,-0.0173552,0.0,0.0,0.0
25536000,0.00800204,-0.006926,-0.0172856,0.0,0.0,0.0
25564000,0.00781194,-0.00624132,-0.017285,0.0,0.0,0.0
25592000,0.00786657,-0.00664815,-0.0177153,0.0,0.0,0.0
25616000,0.00782684,-0.0058041,-0.0172844,0.0,0.0,0.0
25644000,0.00752151,-0.00653193,-0.0173084,0.0,0.0,0.0
25676000,0.00676949,-0.00749897,-0.0172166,0.0,0.0,0.0
25708000,0.00803264,-0.00729058,-0.0173057,0.0,0.0,0.0
25740000,0.00728962,-0.00666444,-0.0170587,0.0,0.0,0.0
25772000,0.00673416,-0.00657866,-0.0174014,0.0,0.0,0.0
25804000,0.00603813,-0.00733056,-0.0173769,0.0,0.0,0.0
25832000,0.00617331,-0.00718334,-0.0175409,0.0,0.0,0.0
25864000,0.00586677,-0.00662549,-0.0171741,0.0,0.0,0.0
25896000,0.00582969,-0.00717068,-0.0173411,0.0,0.0,0.0
25928000,0.00656556,-0.00713658,-0.0170702,0.0,0.0,0.0
25956000,0.00679734,-0.00641033,-0.017406,0.0,0.0,0.0
25984000,0.00704635,-0.00576294,-0.0173285,0.0,0.0,0.0
26012000,0.00709284,-0.00568437,-0.0175786,0.0,0.0,0.0
26040000,0.00740658,-0.00551662,-0.0171472,0.0,0.0,0.0
26072000,0.00680904,-0.00580326,-0.0170556,0.0,0.0,0.0
26100000,0.00732851,-0.00541737,-0.0169617,0.0,0.0,0.0
26128000,0.00796859,-0.00545086,-0.017092,0.0,0.0,0.0
26160000,0.0078421,-0.00497556,-0.0162525,0.0,0.0,0.0
26188000,0.00821587,-0.00523669,-0.016442,0.0,0.0,0.0
26220000,0.00794052,-0.00602151,-0.0165871,0.0,0.0,0.0
26252000,0.00722857,-0.00673503,-0.0166354,0.0,0.0,0.0
26284000,0.00730388,-0.00663312,-0.016997,0.0,0.0,0.0
26312000,0.00753679,-0.00555363,-0.0170076,0.0,0.0,0.0
26344000,0.00738736,-0.00513315,-0.0175861,0.0,0.0,0.0
26372000,0.00713305,-0.004824,-0.0178229,0.0,0.0,0.0
26404000,0.00701026,-0.00443594,-0.0179206,0.0,0.0,0.0
26428000,0.00702292,-0.00375097,-0.0177879,0.0,0.0,0.0
26460000,0.0067817,-0.0043873,-0.0177995,0.0,0.0,0.0
26492000,0.0068366,-0.00534298,-0.0180126,0.0,0.0,0.0
26520000,0.00724119,-0.00544658,-0.017602,0.0,0.0,0.0
26548000,0.00725141,-0.00588409,-0.0176204,0.0,0.0,0.0
26580000,0.0081113,-0.00478352,-0.0175456,0.0,0.0,0.0
26612000,0.00881853,-0.00430871,-0.0175246,0.0,0.0,0.0
26644000,0.00924307,-0.00546194,-0.0172923,0.0,0.0,0.0
26676000,0.0100813,-0.00555955,-0.0172319,0.0,0.0,0.0
26708000,0.00916434,-0.00514094,-0.0176401,0.0,0.0,0.0
26740000,0.00978187,-0.00497045,-0.0174062,0.0,0.0,0.0
26772000,0.00834253,-0.00512822,-0.0173472,0.0,0.0,0.0
26796000,0.00896433,-0.00486943,-0.017527,0.0,0.0,0.0
26824000,0.00991211,-0.003992,-0.0180069,0.0,0.0,0.0
26852000,0.00994863,-0.0028108,-0.0178892,0.0,0.0,0.0
26880000,0.00944524,-0.0029455,-0.0180716,0.0,0.0,0.0
26912000,0.00988256,-0.00388363,-0.0182329,0.0,0.0,0.0
26944000,0.00985886,-0.00375028,-0.0188216,0.0,0.0,0.0
26976000,0.00926783,-0.00407272,-0.0185569,0.0,0.0,0.0
27008000,0.00941158,-0.00465438,-0.0188179,0.0,0.0,0.0
27036000,0.0101397,-0.00475068,-0.0190459,0.0,0.0,0.0
27068000,0.0102173,-0.00551461,-0.0193472,0.0,0.0,0.0
27100000,0.00946323,-0.00705354,-0.0192972,0.0,0.0,0.0
27128000,0.010217,-0.00725188,-0.0194589,0.0,0.0,0.0
27160000,0.00915735,-0.00832327,-0.0193513,0.0,0.0,0.0
27192000,0.00883818,-0.00814641,-0.0194912,0.0,0.0,0.0
27220000,0.00944198,-0.00707943,-0.019224,0.0,0.0,0.0
27248000,0.00905644,-0.00739858,-0.0190708,0.0,0.0,0.0
27276000,0.00974663,-0.00816161,-0.0191689,0.0,0.0,0.0
27308000,0.00984486,-0.00863807,-0.0199148,0.0,0.0,0.0
27336000,0.0100291,-0.00859846,-0.0197607,0.0,0.0,0.0
27364000,0.00979353,-0.00860284,-0.0194152,0.0,0.0,0.0
27396000,0.0100096,-0.00927408,-0.0195466,0.0,0.0,0.0
27424000,0.0105273,-0.00896289,-0.0193736,0.0,0.0,0.0
27456000,0.0105987,-0.00881978,-0.0192836,0.0,0.0,0.0
27484000,0.00964142,-0.00803782,-0.0188273,0.0,0.0,0.0
27516000,0.00967895,-0.00826041,-0.0184967,0.0,0.0,0.0
27544000,0.0092574,-0.00757693,-0.0189772,0.0,0.0,0.0
27576000,0.00914894,-0.00699839,-0.0191166,0.0,0.0,0.0
27608000,0.00837785,-0.00772057,-0.0198814,0.0,0.0,0.0
27636000,0.00848335,-0.0075549,-0.0198848,0.0,0.0,0.0
27664000,0.00934479,-0.00719405,-0.019991,0.0,0.0,0.0
27696000,0.00917826,-0.00759401,-0.0196176,0.0,0.0,0.0
27728000,0.00883155,-0.00805109,-0.0197142,0.0,0.0,0.0
27756000,0.0079773,-0.00737845,-0.0203021,0.0,0.0,0.0
27788000,0.00745012,-0.00774498,-0.0206149,0.0,0.0,0.0
27820000,0.0079187,-0.00750607,-0.0209589,0.0,0.0,0.0
27852000,0.00793464,-0.00821665,-0.0202785,0.0,0.0,0.0
27884000,0.00803109,-0.00828791,-0.0201427,0.0,0.0,0.0
27912000,0.00769393,-0.00946842,-0.0201729,0.0,0.0,0.0
27944000,0.00731669,-0.00889126,-0.0201894,0.0,0.0,0.0
27976000,0.00695276,-0.00921638,-0.019961,0.0,0.0,0.0
28008000,0.00663611,-0.00926272,-0.0199841,0.0,0.0,0.0
28036000,0.00673887,-0.0086942,-0.0197912,0.0,0.0,0.0
28064000,0.00795671,-0.00778968,-0.0194873,0.0,0.0,0.0
28096000,0.00816096,-0.00791624,-0.0196792,0.0,0.0,0.0
28128000,0.0085784,-0.00876491,-0.0193326,0.0,0.0,0.0
28160000,0.00873061,-0.00928164,-0.0191207,0.0,0.0,0.0
28188000,0.00919008,-0.00931242,-0.019244,0.0,0.0,0.0
28216000,0.00885136,-0.00953481,-0.0192137,0.0,0.0,0.0
28248000,0.00918975,-0.00830156,-0.0193998,0.0,0.0,0.0
28280000,0.00814046,-0.00943707,-0.0194624,0.0,0.0,0.0
28308000,0.00891167,-0.00997252,-0.0188973,0.0,0.0,0.0
28336000,0.00935026,-0.00958353,-0.0189988,0.0,0.0,0.0
28368000,0.00901242,-0.010096,-0.018642,0.0,0.0,0.0
28396000,0.0087401,-0.01065,-0.0187599,0.0,0.0,0.0
28424000,0.00855079,-0.0108771,-0.0186787,0.0,0.0,0.0
28456000,0.00957814,-0.00967958,-0.0187895,0.0,0.0,0.0
28488000,0.0089195,-0.00985018,-0.0188859,0.0,0.0,0.0
28520000,0.00874546,-0.00897529,-0.0188386,0.0,0.0,0.0
28552000,0.0080113,-0.00896924,-0.0191662,0.0,0.0,0.0
28584000,0.00764105,-0.00796488,-0.0185467,0.0,0.0,0.0
28612000,0.00789915,-0.00709814,-0.0186863,0.0,0.0,0.0
28644000,0.00872068,-0.0062479,-0.0189595,0.0,0.0,0.0
28676000,0.00840419,-0.00615029,-0.0191678,0.0,0.0,0.0
28704000,0.006981,-0.00617781,-0.0192655,0.0,0.0,0.0
28732000,0.00755899,-0.00520001,-0.0193904,0.0,0.0,0.0
28760000,0.00712954,-0.00517965,-0.0197986,0.0,0.0,0.0
28792000,0.00764437,-0.00535492,-0.0194886,0.0,0.0,0.0
28824000,0.0069004,-0.00521102,-0.0193812,0.0,0.0,0.0
28856000,0.00819643,-0.00506136,-0.0196106,0.0,0.0,0.0
28888000,0.00901632,-0.00449727,-0.0192542,0.0,0.0,0.0
28916000,0.00903331,-0.00409899,-0.018861,0.0,0.0,0.0
28948000,0.00912232,-0.00382817,-0.0187025,0.0,0.0,0.0
28976000,0.00977777,-0.00436077,-0.0187792,0.0,0.0,0.0
29008000,0.0100375,-0.00423332,-0.0190465,0.0,0.0,0.0
29040000,0.0103339,-0.00402418,-0.0187401,0.0,0.0,0.0
29072000,0.0107619,-0.00371146,-0.0187803,0.0,0.0,0.0
29104000,0.0113072,-0.00404948,-0.0190104,0.0,0.0,0.0
29136000,0.0105681,-0.00512553,-0.019502,0.0,0.0,0.0
29168000,0.010247,-0.00471486,-0.0194957,0.0,0.0,0.0
29196000,0.00941176,-0.0052204,-0.0194029,0.0,0.0,0.0
29228000,0.00991561,-0.00478116,-0.0191585,0.0,0.0,0.0
29256000,0.010015,-0.00433978,-0.0188857,0.0,0.0,0.0
29284000,0.0102476,-0.00481379,-0.0192658,0.0,0.0,0.0
29316000,0.00995044,-0.00535244,-0.0189997,0.0,0.0,0.0
29348000,0.00919739,-0.00512561,-0.0185547,0.0,0.0,0.0
29380000,0.00998196,-0.00583401,-0.0183049,0.0,0.0,0.0
29412000,0.00935786,-0.00573377,-0.0178431,0.0,0.0,0.0
29444000,0.00892313,-0.00517402,-0.0176111,0.0,0.0,0.0
29476000,0.00879317,-0.00560777,-0.0180608,0.0,0.0,0.0
29504000,0.00908816,-0.00523624,-0.017639,0.0,0.0,0.0
29532000,0.00936869,-0.00564101,-0.0182712,0.0,0.0,0.0
29560000,0.00896877,-0.00666922,-0.0177859,0.0,0.0,0.0
29592000,0.00997505,-0.00649916,-0.0178158,0.0,0.0,0.0
29620000,0.00918874,-0.00628186,-0.0179058,0.0,0.0,0.0
29652000,0.00877941,-0.0063497,-0.0181208,0.0,0.0,0.0
29684000,0.00828402,-0.0073841,-0.0183838,0.0,0.0,0.0
29708000,0.00862457,-0.00656582,-0.0188074,0.0,0.0,0.0
29740000,0.0084628,-0.00543688,-0.0185275,0.0,0.0,0.0
29764000,0.00785871,-0.00513957,-0.0185556,0.0,0.0,0.0
29796000,0.00819079,-0.00601813,-0.0182512,0.0,0.0,0.0
29824000,0.00781586,-0.00582638,-0.0183377,0.0,0.0,0.0
29856000,0.00726957,-0.00633947,-0.0187846,0.0,0.0,0.0
29888000,0.00743379,-0.00641235,-0.0190246,0.0,0.0,0.0
29920000,0.00675572,-0.0063271,-0.0186799,0.0,0.0,0.0
29952000,0.00678446,-0.00473217,-0.0188805,0.0,0.0,0.0
29980000,0.00645067,-0.00487483,-0.0192785,0.0,0.0,0.0
30012000,0.00528382,-0.00445547,-0.0193726,0.0,0.0,0.0
30044000,0.00474227,-0.0030536,-0.0196355,0.0,0.0,0.0
30076000,0.00498571,-0.00270889,-0.0199657,0.0,0.0,0.0
30108000,0.00421786,-0.00296201,-0.0197982,0.0,0.0,0.0
30140000,0.00375321,-0.00234508,-0.0192867,0.0,0.0,0.0
30172000,0.00314089,-0.00135024,-0.0196163,0.0,0.0,0.0
30200000,0.00298963,-0.00164787,-0.0197753,0.0,0.0,0.0
30228000,0.00317588,-0.00195825,-0.0198018,0.0,0.0,0.0
30256000,0.00229749,-0.00224822,-0.0196507,0.0,0.0,0.0
30288000,0.00154248,-0.00142984,-0.0197141,0.0,0.0,0.0
30312000,0.0020432,-0.00146977,-0.0196352,0.0,0.0,0.0
30344000,0.00159753,-7.34265e-05,-0.0200956,0.0,0.0,0.0
30376000,0.000983068,1.83729e-05,-0.0200186,0.0,0.0,0.0
30408000,0.0013602,0.000554514,-0.0201797,0.0,0.0,0.0
30440000,0.00186256,0.00141265,-0.0199222,0.0,0.0,0.0
30472000,0.00155832,2.31539e-05,-0.0199429,0.0,0.0,0.0
30496000,0.0020416,0.000853945,-0.0198122,0.0,0.0,0.0
30528000,0.00184726,0.000244232,-0.0201123,0.0,0.0,0.0
30560000,0.00221428,0.000623878,-0.0199368,0.0,0.0,0.0
30592000,0.00186258,0.00061763,-0.0202633,0.0,0.0,0.0
30624000,0.00176303,0.000599787,-0.0203213,0.0,0.0,0.0
30656000,0.000524965,0.00210322,-0.0201327,0.0,0.0,0.0
30688000,-0.000266498,0.00329771,-0.0202861,0.0,0.0,0.0
30716000,-0.000554464,0.00387837,-0.0206414,0.0,0.0,0.0
30748000,-0.000486143,0.00321593,-0.0205331,0.0,0.0,0.0
30780000,-0.000828127,0.00305106,-0.0213159,0.0,0.0,0.0
30808000,-0.00230876,0.00280951,-0.0213223,0.0,0.0,0.0
30840000,-0.00355183,0.00282641,-0.0213938,0.0,0.0,0.0
30872000,-0.0050368,0.00474913,-0.0209065,0.0,0.0,0.0
30904000,-0.00608253,0.00445492,-0.0209139,0.0,0.0,0.0
30936000,-0.00648575,0.0040532,-0.0209842,0.0,0.0,0.0
30968000,-0.00629905,0.0036144,-0.0210503,0.0,0.0,0.0
30996000,-0.00696062,0.00382741,-0.021366,0.0,0.0,0.0
31028000,-0.00709266,0.00448481,-0.0213459,0.0,0.0,0.0
31060000,-0.00684,0.00550613,-0.0214869,0.0,0.0,0.0
31092000,-0.00682021,0.00472313,-0.0215897,0.0,0.0,0.0
31120000,-0.0070483,0.0044587,-0.0215471,0.0,0.0,0.0
31152000,-0.0060646,0.00328719,-0.0215271,0.0,0.0,0.0
31184000,-0.00524871,0.00302054,-0.0214934,0.0,0.0,0.0
31216000,-0.00549782,0.00251021,-0.0215079,0.0,0.0,0.0
31248000,-0.00604709,0.00134909,-0.0216252,0.0,0.0,0.0
31280000,-0.00626561,0.00219001,-0.0217585,0.0,0.0,0.0
31312000,-0.00629869,0.00192452,-0.0216023,0.0,0.0,0.0
31344000,-0.00570882,0.00114203,-0.0217145,0.0,0.0,0.0
31372000,-0.00675356,0.000582238,-0.0218493,0.0,0.0,0.0
31404000,-0.00682491,9.53863e-05,-0.0221115,0.0,0.0,0.0
31432000,-0.00703435,0.000297468,-0.0223545,0.0,0.0,0.0
31456000,-0.00681531,0.000242539,-0.0226634,0.0,0.0,0.0
31488000,-0.00702668,0.00124379,-0.0224506,0.0,0.0,0.0
31516000,-0.00729911,0.000996495,-0.0227704,0.0,0.0,0.0
31548000,-0.00660257,0.00112041,-0.0223584,0.0,0.0,0.0
31580000,-0.00742106,0.000661822,-0.0223465,0.0,0.0,0.0
31612000,-0.00762064,0.000603289,-0.0228273,0.0,0.0,0.0
31640000,-0.00903732,8.25127e-05,-0.0231949,0.0,0.0,0.0
31668000,-0.00954541,0.000114149,-0.0231227,0.0,0.0,0.0
31700000,-0.00891928,4.03427e-05,-0.0237363,0.0,0.0,0.0
31732000,-0.00838924,0.000203049,-0.024033,0.0,0.0,0.0
31760000,-0.00740749,-0.000451275,-0.0243251,0.0,0.0,0.0
31792000,-0.00728541,-0.000784116,-0.0250203,0.0,0.0,0.0
31824000,-0.00777333,-0.00103889,-0.0252105,0.0,0.0,0.0
31856000,-0.00768921,-0.000884222,-0.0252424,0.0,0.0,0.0
31884000,-0.0082927,-0.00157203,-0.025493,0.0,0.0,0.0
31912000,-0.00680734,-0.00114434,-0.0254536,0.0,0.0,0.0
31944000,-0.00648122,0.000133429,-0.0254695,0.0,0.0,0.0
31976000,-0.00581635,-0.00020537,-0.0258518,0.0,0.0,0.0
32008000,-0.00446256,-0.00119092,-0.026177,0.0,0.0,0.0
32040000,-0.00511845,-0.00107537,-0.026236,0.0,0.0,0.0
32072000,-0.00416956,-0.000894249,-0.0264216,0.0,0.0,0.0
32104000,-0.00276138,-0.0007441,-0.0262199,0.0,0.0,0.0
32132000,-0.00200842,-0.00128047,-0.0260489,0.0,0.0,0.0
32160000,-0.00156613,-0.00137237,-0.0262867,0.0,0.0,0.0
32192000,-0.00183108,-0.00195879,-0.0259196,0.0,0.0,0.0
32224000,-0.00102103,-0.00192001,-0.0256991,0.0,0.0,0.0
32256000,-0.000258672,-0.00174792,-0.0258121,0.0,0.0,0.0
32284000,-0.000948173,-0.00181751,-0.0251254,0.0,0.0,0.0
32312000,-0.000713834,-0.00142747,-0.0251473,0.0,0.0,0.0
32344000,-0.000785334,-0.00241668,-0.0257327,0.0,0.0,0.0
32372000,-0.000952601,-0.00275481,-0.0256674,0.0,0.0,0.0
32400000,-1.24824e-05,-0.0024361,-0.0259148,0.0,0.0,0.0
32432000,0.00139508,-0.0033144,-0.0260837,0.0,0.0,0.0
32464000,0.00098955,-0.00270522,-0.0253805,0.0,0.0,0.0
32496000,0.0027839,-0.00341027,-0.025501,0.0,0.0,0.0
32524000,0.00192194,-0.00346108,-0.0250564,0.0,0.0,0.0
32552000,0.000412501,-0.00310199,-0.0244889,0.0,0.0,0.0
32584000,0.000514826,-0.00266981,-0.0246255,0.0,0.0,0.0
32612000,0.000129994,-0.00296055,-0.0249099,0.0,0.0,0.0
32640000,8.25837e-05,-0.0037558,-0.0250586,0.0,0.0,0.0
32664000,-1.16753e-06,-0.00394846,-0.0248722,0.0,0.0,0.0
32696000,0.000484539,-0.00425927,-0.0252494,0.0,0.0,0.0
32728000,-0.000460458,-0.00495435,-0.0251371,0.0,0.0,0.0
32756000,-0.00128358,-0.00464192,-0.024878,0.0,0.0,0.0
32788000,-0.00020577,-0.00384193,-0.024604,0.0,0.0,0.0
32820000,7.77543e-05,-0.00270333,-0.0241606,0.0,0.0,0.0
32852000,0.000337826,-0.00258828,-0.0242303,0.0,0.0,0.0
32884000,0.000412803,-0.00215722,-0.0244051,0.0,0.0,0.0
32916000,-0.000320099,-0.00226651,-0.0240783,0.0,0.0,0.0
32944000,-0.000925607,-0.0017625,-0.0245255,0.0,0.0,0.0
32976000,-0.00139737,-0.00179527,-0.0250356,0.0,0.0,0.0
33008000,-0.00159688,-0.00208178,-0.0251896,0.0,0.0,0.0
33036000,-0.000965578,-0.00199734,-0.0250848,0.0,0.0,0.0
33068000,-0.00124429,-0.00270252,-0.0256436,0.0,0.0,0.0
33096000,-0.000656434,-0.0026113,-0.0257384,0.0,0.0,0.0
33124000,0.000764087,-0.00182818,-0.0260603,0.0,0.0,0.0
33156000,0.0007691,-0.00189126,-0.0267733,0.0,0.0,0.0
33188000,0.000170521,-0.00224023,-0.0267581,0.0,0.0,0.0
33216000,0.00119904,-0.00327,-0.0270452,0.0,0.0,0.0
33248000,0.00186999,-0.00271124,-0.0273058,0.0,0.0,0.0
33280000,0.00176984,-0.0025018,-0.0267741,0.0,0.0,0.0
33308000,0.0019714,-0.00271192,-0.0267952,0.0,0.0,0.0
33340000,0.00319609,-0.00222453,-0.0271004,0.0,0.0,0.0
33364000,0.00360285,-0.0011445,-0.0267949,0.0,0.0,0.0
33392000,0.00413646,-0.00106745,-0.0271573,0.0,0.0,0.0
33424000,0.00415296,-0.000751831,-0.0270905,0.0,0.0,0.0
33456000,0.00578926,0.000453515,-0.0269569,0.0,0.0,0.0
33484000,0.00535501,0.000288387,-0.0264561,0.0,0.0,0.0
33516000,0.00527521,0.000762652,-0.026359,0.0,0.0,0.0
33548000,0.0052473,0.000953607,-0.0262163,0.0,0.0,0.0
33576000,0.00510642,0.000710399,-0.0258873,0.0,0.0,0.0
33608000,0.00509604,0.000593003,-0.0260412,0.0,0.0,0.0
33640000,0.00647175,0.000748409,-0.0262715,0.0,0.0,0.0
33668000,0.0046613,0.000884021,-0.0264247,0.0,0.0,0.0
33696000,0.00372689,0.00105184,-0.0259538,0.0,0.0,0.0
33728000,0.00346265,-0.000198247,-0.0263693,0.0,0.0,0.0
33756000,0.00324243,-0.000972033,-0.0264554,0.0,0.0,0.0
33784000,0.00396709,-0.00107318,-0.0263378,0.0,0.0,0.0
33816000,0.003746,-0.00190927,-0.0262367,0.0,0.0,0.0
33844000,0.00431961,-0.00177212,-0.0258936,0.0,0.0,0.0
33872000,0.00451416,-0.00168816,-0.0258553,0.0,0.0,0.0
33904000,0.00505143,-0.00236859,-0.0253253,0.0,0.0,0.0
33932000,0.00559104,-0.00276227,-0.0244401,0.0,0.0,0.0
33964000,0.00550682,-0.00316821,-0.0246162,0.0,0.0,0.0
33992000,0.00556314,-0.00262957,-0.0239975,0.0,0.0,0.0
34020000,0.0046133,-0.00231172,-0.0239839,0.0,0.0,0.0
34052000,0.0047454,-0.00227792,-0.0243255,0.0,0.0,0.0
34080000,0.00469641,-0.00104491,-0.0249032,0.0,0.0,0.0
34112000,0.00569493,-0.000761238,-0.0245018,0.0,0.0,0.0
34144000,0.00535776,-0.00111522,-0.0243533,0.0,0.0,0.0
34176000,0.00542513,-0.00223505,-0.024422,0.0,0.0,0.0
34208000,0.00560929,-0.00224351,-0.0241669,0.0,0.0,0.0
34240000,0.00518742,-0.00183218,-0.024435,0.0,0.0,0.0
34272000,0.00574739,-0.00262885,-0.0243839,0.0,0.0,0.0
34304000,0.0062535,-0.00351688,-0.0246819,0.0,0.0,0.0
34336000,0.00692388,-0.00349048,-0.0251292,0.0,0.0,0.0
34360000,0.00726934,-0.00286848,-0.0253421,0.0,0.0,0.0
34392000,0.00649716,-0.00156098,-0.025011,0.0,0.0,0.0
34424000,0.00654776,-0.00154204,-0.02564,0.0,0.0,0.0
34456000,0.00624617,-0.00209956,-0.0260738,0.0,0.0,0.0
