timestamp,ref_timestamp,ref_lat,ref_lon,x,y,z,delta_xy[0],delta_xy[1],delta_z,vx,vy,vz,z_deriv,delta_vxy[0],delta_vxy[1],delta_vz,ax,ay,az,yaw,ref_alt,dist_bottom,dist_bottom_rate,eph,epv,evh,evv,vxy_max,vz_max,hagl_min,hagl_max,xy_valid,z_valid,v_xy_valid,v_z_valid,xy_reset_counter,z_reset_counter,vxy_reset_counter,vz_reset_counter,xy_global,z_global,dist_bottom_valid
1332000,0,0.0,0.0,9.63248e-05,-0.000240543,-0.0113192,-8.71213e-07,-1.84043e-06,0.0,-0.00170696,0.00117795,0.0049658,0.000616228,-0.000217803,-0.000460107,0.0,0.0183465,-0.00966798,-0.0130329,0.00701198,0.0,0.123496,-0.0049658,0.272493,0.442884,0.889407,0.726364,inf,inf,inf,inf,1,1,1,1,1,0,1,1,0,0,0
1428000,0,0.0,0.0,-0.000123998,4.09138e-05,-0.00295282,-8.71213e-07,-1.84043e-06,0.0,-0.00296648,0.00230734,0.00727893,0.010456,-0.000217803,-0.000460107,0.0,-0.0460166,0.0241812,-0.0355169,0.00687039,0.0,0.114458,-0.00727893,0.259632,0.433172,0.717878,0.713181,inf,inf,inf,inf,1,1,1,1,1,0,1,1,0,0,0
1524000,0,0.0,0.0,-0.000541743,0.000308592,0.00404492,-8.71213e-07,-1.84043e-06,0.0,-0.0045847,0.00193717,0.010051,0.0184135,-0.000217803,-0.000460107,0.0,-0.0130786,0.0254441,0.0160905,0.00686213,0.0,0.113707,-0.010051,0.24821,0.430355,0.598477,0.696771,inf,inf,inf,inf,1,1,1,1,1,0,1,1,0,0,0
1620000,0,0.0,0.0,-0.00103818,0.000585615,0.0113762,-8.71213e-07,-1.84043e-06,0.0,-0.00587203,0.00223202,0.0143117,0.0273293,-0.000217803,-0.000460107,0.0,0.00533294,0.0183209,0.0155438,0.00697728,0.0,0.108078,-0.0143117,0.22572,0.422001,0.493628,0.671151,inf,inf,inf,inf,1,1,1,1,1,0,1,1,0,0,0
1716000,0,0.0,0.0,-0.00160169,0.000846243,0.0143478,-8.71213e-07,-1.84043e-06,0.0,-0.00692047,0.00251935,0.0155127,0.0279207,-0.000217803,-0.000460107,0.0,-0.0272412,-0.0110423,0.0975616,0.00701626,0.0,0.1,-0.0155127,0.21853,0.425468,0.43654,0.648901,inf,inf,inf,inf,1,1,1,1,1,0,1,1,0,0,0
1812000,0,0.0,0.0,-0.00222434,0.0010347,0.0148485,-8.71213e-07,-1.84043e-06,0.0,-0.00794505,0.00278378,0.0126695,0.0224127,-0.000217803,-0.000460107,0.0,0.00490423,-0.00504092,-0.0230754,0.00726242,0.0,0.1,-0.0126695,0.203454,0.420209,0.384468,0.618109,inf,inf,inf,inf,1,1,1,1,1,0,1,1,0,0,0
1908000,0,0.0,0.0,-0.00288833,0.00128486,0.0135649,-8.71213e-07,-1.84043e-06,0.0,-0.00935178,0.00323677,0.00904555,0.0153147,-0.000217803,-0.000460107,0.0,0.0388689,-0.00469245,0.0352915,0.00705009,0.0,0.1,-0.00904555,0.198998,0.42426,0.358177,0.593547,inf,inf,inf,inf,1,1,1,1,1,0,1,1,0,0,0
2004000,0,0.0,0.0,-0.00343683,0.00152211,0.0134877,-8.71213e-07,-1.84043e-06,0.0,-0.00987396,0.0036595,0.00650724,0.0114664,-0.000217803,-0.000460107,0.0,-0.133518,-0.0128436,-0.00394229,0.00714039,0.0,0.1,-0.00650724,0.195422,0.42783,0.341335,0.569223,inf,inf,inf,inf,1,1,1,1,1,0,1,1,0,0,0
2100000,0,0.0,0.0,-0.00401173,0.00167675,0.0127968,-8.71213e-07,-1.84043e-06,0.0,-0.00955138,0.0031363,0.00506434,0.0085295,-0.000217803,-0.000460107,0.0,0.0160863,-0.0132118,-0.028071,0.00728523,0.0,0.1,-0.00506434,0.185824,0.420875,0.324345,0.537941,inf,inf,inf,inf,1,1,1,1,1,0,1,1,0,0,0
2196000,0,0.0,0.0,-0.00443765,0.00169149,0.0119945,-8.71213e-07,-1.84043e-06,0.0,-0.0103526,0.00143384,0.00486336,0.00698473,-0.000217803,-0.000460107,0.0,-0.0164878,-0.0243029,-0.0657001,0.00707664,0.0,0.1,-0.00486336,0.184151,0.422649,0.320812,0.515386,inf,inf,inf,inf,1,1,1,1,1,0,1,1,0,0,0
2292000,0,0.0,0.0,-0.00485615,0.00146843,0.0111093,-8.71213e-07,-1.84043e-06,0.0,-0.0112594,-0.000577512,0.00438623,0.0053421,-0.000217803,-0.000460107,0.0,-0.0243205,0.023412,0.039746,0.00717886,0.0,0.100804,-0.00438623,0.177391,0.414389,0.315155,0.487373,inf,inf,inf,inf,1,1,1,1,1,0,1,1,0,0,0
2388000,0,0.0,0.0,-0.00540203,0.00117465,0.0117033,-8.71213e-07,-1.84043e-06,0.0,-0.0131564,-0.000707734,0.00329176,0.00468419,-0.000217803,-0.000460107,0.0,-0.0184837,0.0444515,-0.0779079,0.00736979,0.0,0.1,-0.00329176,0.177518,0.414816,0.318643,0.468323,inf,inf,inf,inf,1,1,1,1,1,0,1,1,0,0,0
2484000,0,0.0,0.0,-0.00598584,0.000797885,0.0127863,-8.71213e-07,-1.84043e-06,0.0,-0.0140061,-0.00202291,0.00478487,0.00699942,-0.000217803,-0.000460107,0.0,0.00404305,-0.0331135,0.000730157,0.00744617,0.0,0.100194,-0.00478487,0.178344,0.414642,0.323715,0.451029,inf,inf,inf,inf,1,1,1,1,1,0,1,1,0,0,0
2580000,0,0.0,0.0,-0.00652315,0.000342543,0.0132964,-8.71213e-07,-1.84043e-06,0.0,-0.0142186,-0.00353446,0.00460502,0.00670927,-0.000217803,-0.000460107,0.0,0.0210291,-0.0033581,-0.0708746,0.00743169,0.0,0.1,-0.00460502,0.174278,0.4054,0.323551,0.42956,inf,inf,inf,inf,1,1,1,1,1,0,1,1,0,0,0
2676000,0,0.0,0.0,-0.00702884,-0.000259089,0.0115135,-8.71213e-07,-1.84043e-06,0.0,-0.0147353,-0.00447425,0.0025577,0.00230974,-0.000217803,-0.000460107,0.0,0.000942611,-0.0118455,-0.0398178,0.0072284,0.0,0.1,-0.0025577,0.176273,0.404574,0.329309,0.416147,inf,inf,inf,inf,1,1,1,1,1,0,1,1,0,0,0
2772000,0,0.0,0.0,-0.00763078,-0.000919133,0.00983723,-8.71213e-07,-1.84043e-06,0.0,-0.0173079,-0.00669132,0.00287142,0.00094361,-0.000217803,-0.000460107,0.0,0.0135727,-0.0574209,0.0639902,0.00724923,0.0,0.10031,-0.00287142,0.178692,0.403519,0.334617,0.404447,inf,inf,inf,inf,1,1,1,1,1,0,1,1,0,0,0
2868000,0,0.0,0.0,-0.00829534,-0.00180928,0.00944439,-8.71213e-07,-1.84043e-06,0.0,-0.0192296,-0.0094201,0.00126543,-0.000793792,-0.000217803,-0.000460107,0.0,-0.0254646,0.0128624,-0.0189487,0.00711208,0.0,0.100982,-0.00126543,0.175833,0.394521,0.332559,0.389371,inf,inf,inf,inf,1,1,1,1,1,0,1,1,0,0,0
2964000,0,0.0,0.0,-0.00894202,-0.00265929,0.00886415,-8.71213e-07,-1.84043e-06,0.0,-0.0191238,-0.00852178,0.000991366,-0.00137336,-0.000217803,-0.000460107,0.0,-0.0434809,0.00938491,0.0816174,0.00715592,0.0,0.1,-0.000991366,0.178688,0.393527,0.335871,0.381112,inf,inf,inf,inf,1,1,1,1,1,0,1,1,0,0,0
3060000,0,0.0,0.0,-0.00942736,-0.00341646,0.00800622,-8.71213e-07,-1.84043e-06,0.0,-0.0179149,-0.00881612,-0.000485685,-0.00333852,-0.000217803,-0.000460107,0.0,0.0223548,0.00465265,-0.0357088,0.00686395,0.0,0.1,0.000485685,0.175996,0.385275,0.331317,0.369758,inf,inf,inf,inf,1,1,1,1,1,0,1,1,0,0,0
3156000,0,0.0,0.0,-0.00964822,-0.00398606,0.00548693,-8.71213e-07,-1.84043e-06,0.0,-0.0158746,-0.00831934,-0.00204555,-0.00692213,-0.000217803,-0.000460107,0.0,-0.0209695,-0.00132957,-0.0116639,0.00693248,0.0,0.1,0.00204555,0.178924,0.384641,0.332517,0.364391,inf,inf,inf,inf,1,1,1,1,1,0,1,1,0,0,0
3252000,0,0.0,0.0,-0.00956694,-0.00440589,0.00509925,-8.71213e-07,-1.84043e-06,0.0,-0.0145421,-0.0085144,-0.00277672,-0.00695668,-0.000217803,-0.000460107,0.0,0.00124774,-0.0259788,-0.00235904,0.00677924,0.0,0.104236,0.00277672,0.181689,0.384088,0.332563,0.360063,inf,inf,inf,inf,1,1,1,1,1,0,1,1,0,0,0
3348000,0,0.0,0.0,-0.00932466,-0.00473491,0.00647075,-8.71213e-07,-1.84043e-06,0.0,-0.0134378,-0.00885859,-0.000185405,-0.00216635,-0.000217803,-0.000460107,0.0,0.0878159,0.0129493,0.0569746,0.007155,0.0,0.102951,0.000185405,0.178288,0.376788,0.324237,0.352595,inf,inf,inf,inf,1,1,1,1,1,0,1,1,0,0,0
3444000,0,0.0,0.0,-0.00889236,-0.00495803,0.00792773,-8.71213e-07,-1.84043e-06,0.0,-0.0132974,-0.00902305,0.00186437,0.00153254,-0.000217803,-0.000460107,0.0,0.00350315,0.00750188,-0.00634883,0.0071348,0.0,0.104978,-0.00186437,0.180405,0.376532,0.322226,0.350015,inf,inf,inf,inf,1,1,1,1,1,0,1,1,0,0,0
3540000,0,0.0,0.0,-0.00830864,-0.0051464,0.0104865,-8.71213e-07,-1.84043e-06,0.0,-0.0107002,-0.00957502,0.00269239,0.00463158,-0.000217803,-0.000460107,0.0,-0.0252894,-0.0459352,-0.0465242,0.00706066,0.0,0.101614,-0.00269239,0.176652,0.370023,0.31274,0.3444,inf,inf,inf,inf,1,1,1,1,1,0,1,1,0,0,0
3636000,0,0.0,0.0,-0.00760593,-0.00521506,0.0114134,-8.71213e-07,-1.84043e-06,0.0,-0.00871235,-0.0092597,0.00423021,0.00641628,-0.000217803,-0.000460107,0.0,0.0914871,0.0455243,0.028328,0.00736042,0.0,0.1,-0.00423021,0.178425,0.370263,0.309971,0.343156,inf,inf,inf,inf,1,1,1,1,1,0,1,1,0,0,0
3732000,0,0.0,0.0,-0.00677869,-0.00521361,0.0108541,-8.71213e-07,-1.84043e-06,0.0,-0.00817145,-0.00796309,0.00407194,0.0048242,-0.000217803,-0.000460107,0.0,0.0295306,0.000105931,-0.0408143,0.00725509,0.0,0.1,-0.00407194,0.180138,0.370757,0.307225,0.342393,inf,inf,inf,inf,1,1,1,1,1,0,1,1,0,0,0
3828000,0,0.0,0.0,-0.00584819,-0.00502769,0.00889228,-8.71213e-07,-1.84043e-06,0.0,-0.00557536,-0.00623278,0.00350318,0.00177688,-0.000217803,-0.000460107,0.0,0.0442447,0.0291794,0.0470495,0.00743411,0.0,0.1,-0.00350318,0.17595,0.365186,0.297442,0.338352,inf,inf,inf,inf,1,1,1,1,1,0,1,1,0,0,0
3924000,0,0.0,0.0,-0.00481859,-0.00466156,0.00686159,-8.71213e-07,-1.84043e-06,0.0,-0.00425975,-0.00470756,0.00249818,-0.00129957,-0.000217803,-0.000460107,0.0,0.046575,-0.0202267,0.0352189,0.0075468,0.0,0.1,-0.00249818,0.177417,0.366132,0.294708,0.338207,inf,inf,inf,inf,1,1,1,1,1,0,1,1,0,0,0
4020000,0,0.0,0.0,-0.00372775,-0.00425284,0.00445742,-8.71213e-07,-1.84043e-06,0.0,-0.00106239,-0.00443209,0.000986754,-0.00480645,-0.000217803,-0.000460107,0.0,-0.0147418,0.0409826,-0.0441233,0.00737993,0.0,0.1,-0.000986754,0.173291,0.361197,0.285673,0.334715,inf,inf,inf,inf,1,1,1,1,1,0,1,1,0,0,0
4116000,0,0.0,0.0,-0.00254036,-0.0038839,0.00142353,-8.71213e-07,-1.84043e-06,0.0,0.000605341,-0.00541405,-0.000133877,-0.00815135,-0.000217803,-0.000460107,0.0,0.0157591,0.00195707,0.0348417,0.00709311,0.0,0.1,0.000133877,0.174508,0.362457,0.283181,0.33476,inf,inf,inf,inf,1,1,1,1,1,0,1,1,0,0,0
4212000,0,0.0,0.0,-0.00138624,-0.00351215,-0.00222129,-8.71213e-07,-1.84043e-06,0.0,0.00214444,-0.00529027,-0.00367052,-0.014056,-0.000217803,-0.000460107,0.0,-0.0149482,-0.058693,0.0272971,0.00695649,0.0,0.1,0.00367052,0.175645,0.363846,0.280877,0.334795,inf,inf,inf,inf,1,1,1,1,1,0,1,1,0,0,0
4308000,0,0.0,0.0,-0.000249164,-0.00319532,-0.00589433,-8.71213e-07,-1.84043e-06,0.0,0.00395999,-0.00429553,-0.00578194,-0.0179293,-0.000217803,-0.000460107,0.0,0.0206402,0.00172201,-0.00796653,0.00685038,0.0,0.1,0.00578194,0.17145,0.359401,0.272833,0.331318,inf,inf,inf,inf,1,1,1,1,1,0,1,1,0,0,0
4404000,0,0.0,0.0,0.000960406,-0.00297602,-0.00663733,-8.71213e-07,-1.84043e-06,0.0,0.00712478,-0.00596442,-0.0051703,-0.0157774,-0.000217803,-0.000460107,0.0,0.0232667,-0.00349294,0.0414951,0.00684011,0.0,0.105765,0.0051703,0.172606,0.361056,0.271267,0.331245,inf,inf,inf,inf,1,1,1,1,1,0,1,1,0,0,0
4500000,0,0.0,0.0,0.00215353,-0.00293472,-0.00569867,-8.71213e-07,-1.84043e-06,0.0,0.00792977,-0.00612189,-0.00469225,-0.0124643,-0.000217803,-0.000460107,0.0,-0.0063535,0.0175455,-0.0109682,0.00668653,0.0,0.107247,0.00469225,0.173727,0.362779,0.26987,0.331024,inf,inf,inf,inf,1,1,1,1,1,0,1,1,0,0,0
4596000,0,0.0,0.0,0.00330905,-0.00300589,-0.00354428,-8.71213e-07,-1.84043e-06,0.0,0.00995281,-0.00714009,-0.00265675,-0.00696016,-0.000217803,-0.000460107,0.0,0.0748471,0.0257408,-0.00901334,0.00668827,0.0,0.109198,0.00265675,0.16963,0.358581,0.26295,0.327107,inf,inf,inf,inf,1,1,1,1,1,0,1,1,0,0,0
4692000,0,0.0,0.0,0.00441043,-0.00318147,-0.00219581,-8.71213e-07,-1.84043e-06,0.0,0.0106576,-0.00763088,-0.00145291,-0.0038616,-0.000217803,-0.000460107,0.0,0.00131047,-0.00186185,-0.0116108,0.00690936,0.0,0.103443,0.00145291,0.170663,0.360309,0.261988,0.326464,inf,inf,inf,inf,1,1,1,1,1,0,1,1,0,0,0
4788000,0,0.0,0.0,0.00541893,-0.00354804,-0.000401274,-8.71213e-07,-1.84043e-06,0.0,0.0127547,-0.010511,0.00151524,0.00102858,-0.000217803,-0.000460107,0.0,0.0430697,0.0865461,-0.040343,0.00677045,0.0,0.107579,-0.00151524,0.171717,0.362053,0.261196,0.32562,inf,inf,inf,inf,1,1,1,1,1,0,1,1,0,0,0
4884000,0,0.0,0.0,0.0064145,-0.00399839,0.00304744,-8.71213e-07,-1.84043e-06,0.0,0.0123612,-0.0109171,0.00502945,0.00753126,-0.000217803,-0.000460107,0.0,-0.0499053,-0.0261589,0.0448087,0.00687898,0.0,0.107366,-0.00502945,0.167858,0.357923,0.255309,0.321107,inf,inf,inf,inf,1,1,1,1,1,0,1,1,0,0,0
4980000,0,0.0,0.0,0.00724356,-0.00454954,0.00564613,-8.71213e-07,-1.84043e-06,0.0,0.0135038,-0.0113563,0.00641057,0.0103835,-0.000217803,-0.000460107,0.0,-0.0674805,-0.0112628,-0.00100862,0.00681898,0.0,0.101989,-0.00641057,0.168969,0.359631,0.254903,0.319845,inf,inf,inf,inf,1,1,1,1,1,0,1,1,0,0,0
5076000,0,0.0,0.0,0.0,0.0,0.00760908,-8.71213e-07,-1.84043e-06,0.0,0.0151682,-0.0110034,0.00591646,0.0105596,-0.000217803,-0.000460107,0.0,-0.0119186,-0.0756819,0.0625458,0.00652488,0.0,0.105088,-0.00591646,0.165391,0.355552,0.249685,0.314988,inf,inf,inf,inf,0,1,0,1,1,0,1,1,0,0,0
5172000,0,0.0,0.0,0.0,0.0,0.0100068,-8.71213e-07,-1.84043e-06,0.0,0.0146732,-0.0119772,0.00605063,0.0117206,-0.000217803,-0.000460107,0.0,0.00744063,-0.0272678,-0.0142222,0.00613977,0.0,0.10247,-0.00605063,0.166559,0.35717,0.249589,0.31332,inf,inf,inf,inf,0,1,0,1,1,0,1,1,0,0,0
5268000,0,0.0,0.0,0.0,0.0,0.0121832,-8.71213e-07,-1.84043e-06,0.0,0.0148256,-0.0123289,0.00856954,0.0148833,-0.000217803,-0.000460107,0.0,-0.0230014,-0.00597931,0.0478001,0.00599682,0.0,0.101438,-0.00856954,0.167756,0.358732,0.249581,0.311454,inf,inf,inf,inf,0,1,0,1,1,0,1,1,0,0,0
5364000,0,0.0,0.0,0.0,0.0,0.013203,-8.71213e-07,-1.84043e-06,0.0,0.014462,-0.0115845,0.00717478,0.0127746,-0.000217803,-0.000460107,0.0,0.0174573,0.0285251,-0.0354024,0.00621147,0.0,0.1,-0.00717478,0.164353,0.354523,0.24481,0.306067,inf,inf,inf,inf,0,1,0,1,1,0,1,1,0,0,0
5460000,0,0.0,0.0,0.0,0.0,0.0121496,-8.71213e-07,-1.84043e-06,0.0,0.0157759,-0.0122378,0.00548434,0.00865374,-0.000217803,-0.000460107,0.0,0.00384722,-0.0126914,0.0101114,0.00602755,0.0,0.1,-0.00548434,0.165588,0.355942,0.244798,0.303859,inf,inf,inf,inf,0,1,0,1,1,0,1,1,0,0,0
5556000,0,0.0,0.0,0.0,0.0,0.0110879,-8.71213e-07,-1.84043e-06,0.0,0.0162285,-0.0121819,0.0037416,0.00500452,-0.000217803,-0.000460107,0.0,0.00769586,-0.0450695,-0.0560293,0.00606216,0.0,0.1,-0.0037416,0.166841,0.357281,0.244851,0.30149,inf,inf,inf,inf,0,1,0,1,1,0,1,1,0,0,0
5652000,0,0.0,0.0,0.0,0.0,0.0113553,-8.71213e-07,-1.84043e-06,0.0,0.0168329,-0.0120635,0.00550593,0.00649695,-0.000217803,-0.000460107,0.0,0.0661717,0.0081813,-0.0124807,0.00568564,0.0,0.1,-0.00550593,0.163548,0.352912,0.240137,0.295727,inf,inf,inf,inf,0,1,0,1,1,0,1,1,0,0,0
5748000,0,0.0,0.0,0.0,0.0,0.0113963,-8.71213e-07,-1.84043e-06,0.0,0.0182864,-0.0114374,0.00388505,0.00441017,-0.000217803,-0.000460107,0.0,-0.00866753,0.0526446,-0.000895932,0.00571116,0.0,0.1,-0.00388505,0.164806,0.354086,0.240089,0.293106,inf,inf,inf,inf,0,1,0,1,1,0,1,1,0,0,0
5844000,0,0.0,0.0,0.0,0.0,0.0103651,-8.71213e-07,-1.84043e-06,0.0,0.0181831,-0.0110409,0.00335678,0.00256515,-0.000217803,-0.000460107,0.0,0.0146911,0.0358554,0.0226554,0.00582015,0.0,0.1,-0.00335678,0.166063,0.355174,0.239892,0.290368,inf,inf,inf,inf,0,1,0,1,1,0,1,1,0,0,0
5940000,0,0.0,0.0,0.0,0.0,0.0106719,-8.71213e-07,-1.84043e-06,0.0,0.0155007,-0.0103265,0.00299254,0.00237509,-0.000217803,-0.000460107,0.0,-0.0396513,-0.000958437,0.0011446,0.00600167,0.0,0.1,-0.00299254,0.16282,0.350655,0.235127,0.284399,inf,inf,inf,inf,0,1,0,1,1,0,1,1,0,0,0
6036000,0,0.0,0.0,0.0,0.0,0.00915615,-8.71213e-07,-1.84043e-06,0.0,0.0142277,-0.00905505,0.000549731,-0.00157873,-0.000217803,-0.000460107,0.0,0.0077781,-0.0231472,0.0528479,0.00584999,0.0,0.1,-0.000549731,0.16405,0.351581,0.234804,0.281505,inf,inf,inf,inf,0,1,0,1,1,0,1,1,0,0,0
6132000,0,0.0,0.0,0.0,0.0,0.00743021,-8.71213e-07,-1.84043e-06,0.0,0.0115723,-0.00769711,0.000489435,-0.00310478,-0.000217803,-0.000460107,0.0,-0.00512573,-0.000308419,-0.0391658,0.00596146,0.0,0.1,-0.000489435,0.160929,0.347072,0.230073,0.275554,inf,inf,inf,inf,0,1,0,1,1,0,1,1,0,0,0
6228000,0,0.0,0.0,0.0,0.0,0.00645196,-8.71213e-07,-1.84043e-06,0.0,0.0111148,-0.00726701,0.00160249,-0.00252879,-0.000217803,-0.000460107,0.0,-0.00380471,0.00334383,0.0795536,0.0061191,0.0,0.1,-0.00160249,0.162117,0.347846,0.229584,0.272562,inf,inf,inf,inf,0,1,0,1,1,0,1,1,0,0,0
6324000,0,0.0,0.0,0.0,0.0,0.00621506,-8.71213e-07,-1.84043e-06,0.0,0.0127943,-0.00699862,-0.000530331,-0.00438014,-0.000217803,-0.000460107,0.0,0.0118016,0.0320168,-0.0482583,0.00630839,0.0,0.1,0.000530331,0.163281,0.348538,0.228946,0.269517,inf,inf,inf,inf,0,1,0,1,1,0,1,1,0,0,0
6420000,0,0.0,0.0,0.0,0.0,0.0055122,-8.71213e-07,-1.84043e-06,0.0,0.0111477,-0.00350978,-0.00241142,-0.00627027,-0.000217803,-0.000460107,0.0,0.00211149,0.0519954,-0.0504283,0.00626957,0.0,0.1,0.00241142,0.160146,0.343948,0.223978,0.263606,inf,inf,inf,inf,0,1,0,1,1,0,1,1,0,0,0
6516000,0,0.0,0.0,0.0,0.0,0.00468564,-8.71213e-07,-1.84043e-06,0.0,0.0111175,-0.0013645,-0.0017257,-0.00572741,-0.000217803,-0.000460107,0.0,0.0736012,-0.0197388,-0.0231937,0.00637797,0.0,0.1,0.0017257,0.16125,0.34451,0.223271,0.260537,inf,inf,inf,inf,0,1,0,1,1,0,1,1,0,0,0
6612000,0,0.0,0.0,0.0,0.0,0.00330281,-8.71213e-07,-1.84043e-06,0.0,0.00802011,0.00217448,-0.00270757,-0.00741694,-0.000217803,-0.000460107,0.0,-0.0374333,0.0933233,-0.0318913,0.00665316,0.0,0.1,0.00270757,0.162328,0.344999,0.222418,0.257446,inf,inf,inf,inf,0,1,0,1,1,0,1,1,0,0,0
6708000,0,0.0,0.0,0.0,0.0,0.00226318,-8.71213e-07,-1.84043e-06,0.0,0.00877252,0.00389598,-0.00235105,-0.0071994,-0.000217803,-0.000460107,0.0,0.0193693,0.0150024,-0.0519231,0.00700586,0.0,0.1,0.00235105,0.15918,0.340378,0.217338,0.251679,inf,inf,inf,inf,0,1,0,1,1,0,1,1,0,0,0
6804000,0,0.0,0.0,0.0,0.0,0.00130123,-8.71213e-07,-1.84043e-06,0.0,0.00911664,0.0064303,-0.00219105,-0.00718997,-0.000217803,-0.000460107,0.0,-0.0155045,0.0161532,0.0101887,0.007069,0.0,0.100588,0.00219105,0.160189,0.34076,0.216354,0.248619,inf,inf,inf,inf,0,1,0,1,1,0,1,1,0,0,0
6900000,0,0.0,0.0,0.0,0.0,0.0013202,-8.71213e-07,-1.84043e-06,0.0,0.00956562,0.00921762,-0.00148149,-0.0056759,-0.000217803,-0.000460107,0.0,0.0235328,0.0740709,0.00976026,0.00706177,0.0,0.103506,0.00148149,0.161168,0.341079,0.215241,0.24556,inf,inf,inf,inf,0,1,0,1,1,0,1,1,0,0,0
6996000,0,0.0,0.0,0.0,0.0,0.00342751,-8.71213e-07,-1.84043e-06,0.0,0.00788998,0.0114812,-0.000314591,-0.0018519,-0.000217803,-0.000460107,0.0,0.0564066,-0.00542881,-0.0479128,0.00720085,0.0,0.107717,0.000314591,0.158011,0.336471,0.210156,0.240013,inf,inf,inf,inf,0,1,0,1,1,0,1,1,0,0,0
7092000,0,0.0,0.0,0.0,0.0,0.00521441,-8.71213e-07,-1.84043e-06,0.0,0.00846377,0.0125694,0.0018252,0.00211485,-0.000217803,-0.000460107,0.0,0.0515826,-0.00138604,0.00951067,0.00740036,0.0,0.102509,-0.0018252,0.158923,0.336707,0.20897,0.237023,inf,inf,inf,inf,0,1,0,1,1,0,1,1,0,0,0
7188000,0,0.0,0.0,0.0,0.0,0.0055334,-8.71213e-07,-1.84043e-06,0.0,0.0074595,0.0130271,0.00357005,0.00372722,-0.000217803,-0.000460107,0.0,0.00787174,-0.0182826,0.0277562,0.00787008,0.0,0.1,-0.00357005,0.155873,0.332209,0.204082,0.231703,inf,inf,inf,inf,0,1,0,1,1,0,1,1,0,0,0
7284000,0,0.0,0.0,0.0,0.0,0.00249424,-8.71213e-07,-1.84043e-06,0.0,0.00679636,0.014606,0.00087354,-0.0023805,-0.000217803,-0.000460107,0.0,-0.0303182,0.0256345,-0.0225864,0.0081735,0.0,0.1,-0.00087354,0.156727,0.332376,0.20282,0.228801,inf,inf,inf,inf,0,1,0,1,1,0,1,1,0,0,0
7380000,0,0.0,0.0,0.0,0.0,-0.00128033,-8.71213e-07,-1.84043e-06,0.0,0.0062021,0.015467,-0.00131138,-0.0078798,-0.000217803,-0.000460107,0.0,0.00509817,0.0334928,-0.00338443,0.00851681,0.0,0.1,0.00131138,0.157549,0.332495,0.201541,0.225923,inf,inf,inf,inf,0,1,0,1,1,0,1,1,0,0,0
7476000,0,0.0,0.0,0.0,0.0,-0.00352643,-8.71213e-07,-1.84043e-06,0.0,0.00555455,0.0165586,-0.00405637,-0.0117708,-0.000217803,-0.000460107,0.0,-0.0538423,0.085217,-0.0188267,0.00838541,0.0,0.1,0.00405637,0.154516,0.328063,0.196759,0.220884,inf,inf,inf,inf,0,1,0,1,1,0,1,1,0,0,0
7572000,0,0.0,0.0,0.0,0.0,-0.00548117,-8.71213e-07,-1.84043e-06,0.0,0.00449935,0.0191857,-0.00433896,-0.0125697,-0.000217803,-0.000460107,0.0,-0.0184482,0.0811107,0.0259327,0.00864975,0.0,0.1,0.00433896,0.15529,0.328131,0.195473,0.218111,inf,inf,inf,inf,0,1,0,1,1,0,1,1,0,0,0
7668000,0,0.0,0.0,0.0,0.0,-0.00618346,-8.71213e-07,-1.84043e-06,0.0,0.00422478,0.0216129,-0.00530376,-0.0127321,-0.000217803,-0.000460107,0.0,-0.0331106,0.0613644,-0.0128923,0.00871243,0.0,0.101523,0.00530376,0.156039,0.328159,0.194196,0.215372,inf,inf,inf,inf,0,1,0,1,1,0,1,1,0,0,0
7764000,0,0.0,0.0,0.0,0.0,-0.00633995,-8.71213e-07,-1.84043e-06,0.0,0.00384392,0.0227375,-0.00361383,-0.00982698,-0.000217803,-0.000460107,0.0,-0.00981354,0.0425296,-0.00609085,0.009033,0.0,0.108069,0.00361383,0.153046,0.323819,0.189553,0.210628,inf,inf,inf,inf,0,1,0,1,1,0,1,1,0,0,0
7860000,0,0.0,0.0,0.0,0.0,-0.00524888,-8.71213e-07,-1.84043e-06,0.0,0.00366705,0.0242353,-0.00426995,-0.00832429,-0.000217803,-0.000460107,0.0,0.00842068,0.0335682,-0.0373786,0.00912691,0.0,0.104878,0.00426995,0.153754,0.323812,0.188279,0.208004,inf,inf,inf,inf,0,1,0,1,1,0,1,1,0,0,0
7956000,0,0.0,0.0,0.0,0.0,-0.00528773,-8.71213e-07,-1.84043e-06,0.0,0.00385036,0.0251114,-0.00477348,-0.00804656,-0.000217803,-0.000460107,0.0,0.0480587,0.00846012,0.0148518,0.00953471,0.0,0.103215,0.00477348,0.154438,0.323771,0.186972,0.205417,inf,inf,inf,inf,0,1,0,1,1,0,1,1,0,0,0
8052000,0,0.0,0.0,0.0,0.0,-0.00482346,-8.71213e-07,-1.84043e-06,0.0,0.00383127,0.0250897,-0.00469124,-0.00679974,-0.000217803,-0.000460107,0.0,0.00721285,-0.0200717,-0.0573974,0.00972083,0.0,0.104956,0.00469124,0.151499,0.31954,0.182566,0.200971,inf,inf,inf,inf,0,1,0,1,1,0,1,1,0,0,0
8148000,0,0.0,0.0,0.0,0.0,-0.00515502,-8.71213e-07,-1.84043e-06,0.0,0.00269701,0.0253728,-0.00451646,-0.00640321,-0.000217803,-0.000460107,0.0,-0.0234434,-0.00752868,-0.111041,0.00953795,0.0,0.1,0.00451646,0.152152,0.319476,0.181315,0.198504,inf,inf,inf,inf,0,1,0,1,1,0,1,1,0,0,0
8244000,0,0.0,0.0,0.0,0.0,-0.0058804,-8.71213e-07,-1.84043e-06,0.0,0.00191338,0.0266387,-0.00525502,-0.00723705,-0.000217803,-0.000460107,0.0,-0.00772425,0.022551,-0.0251587,0.00964356,0.0,0.102193,0.00525502,0.149338,0.315388,0.17715,0.194292,inf,inf,inf,inf,0,1,0,1,1,0,1,1,0,0,0
8340000,0,0.0,0.0,0.0,0.0,-0.0066103,-8.71213e-07,-1.84043e-06,0.0,0.00149938,0.0264456,-0.00590555,-0.0079355,-0.000217803,-0.000460107,0.0,0.0894358,0.0412793,-0.0381432,0.00954651,0.0,0.1,0.00590555,0.150065,0.315369,0.176058,0.19198,inf,inf,inf,inf,0,1,0,1,1,0,1,1,0,0,0
8436000,0,0.0,0.0,0.0,0.0,-0.00833176,-8.71213e-07,-1.84043e-06,0.0,0.000985468,0.0264333,-0.00734514,-0.0103123,-0.000217803,-0.000460107,0.0,0.0267729,0.0433615,-0.0394303,0.00983985,0.0,0.1,0.00734514,0.15076,0.31532,0.174961,0.189702,inf,inf,inf,inf,0,1,0,1,1,0,1,1,0,0,0
8532000,0,0.0,0.0,0.0,0.0,-0.0118278,-8.71213e-07,-1.84043e-06,0.0,0.00224689,0.0271752,-0.0092712,-0.0146073,-0.000217803,-0.000460107,0.0,0.00438153,0.0443836,-0.0617178,0.00997791,0.0,0.1,0.0092712,0.148068,0.311398,0.171057,0.185797,inf,inf,inf,inf,0,1,0,1,1,0,1,1,0,0,0
8628000,0,0.0,0.0,0.0,0.0,-0.0141676,-8.71213e-07,-1.84043e-06,0.0,0.00215638,0.0283333,-0.00939414,-0.0154736,-0.000217803,-0.000460107,0.0,0.00107351,0.0388472,0.0645816,0.0102147,0.0,0.100466,0.00939414,0.148715,0.311327,0.170002,0.183625,inf,inf,inf,inf,0,1,0,1,1,0,1,1,0,0,0
8724000,0,0.0,0.0,0.0,0.0,-0.0139278,-8.71213e-07,-1.84043e-06,0.0,0.00323297,0.0272099,-0.00727568,-0.0116284,-0.000217803,-0.000460107,0.0,0.00492837,0.0686211,-0.0323616,0.010503,0.0,0.10449,0.00727568,0.146115,0.307531,0.166309,0.179922,inf,inf,inf,inf,0,1,0,1,1,0,1,1,0,0,0
8820000,0,0.0,0.0,0.0,0.0,-0.0130925,-8.71213e-07,-1.84043e-06,0.0,0.00517705,0.0260239,-0.0067227,-0.00908258,-0.000217803,-0.000460107,0.0,0.0194101,-0.0340279,-0.0165245,0.0106087,0.0,0.108153,0.0067227,0.146725,0.307445,0.165243,0.177856,inf,inf,inf,inf,0,1,0,1,1,0,1,1,0,0,0
8916000,0,0.0,0.0,0.0,0.0,-0.0115609,-8.71213e-07,-1.84043e-06,0.0,0.00485293,0.0251067,-0.00621182,-0.00619787,-0.000217803,-0.000460107,0.0,-0.0256926,0.0011472,-0.00983663,0.0105707,0.0,0.107214,0.00621182,0.147175,0.307254,0.164034,0.175778,inf,inf,inf,inf,0,1,0,1,1,0,1,1,0,0,0
9012000,0,0.0,0.0,0.0,0.0,-0.0102332,-8.71213e-07,-1.84043e-06,0.0,0.00387822,0.0249053,-0.00514144,-0.00339281,-0.000217803,-0.000460107,0.0,0.0810645,-0.01604,-0.0271955,0.0103255,0.0,0.10392,0.00514144,0.147583,0.307024,0.16285,0.173728,inf,inf,inf,inf,0,1,0,1,1,0,1,1,0,0,0
9108000,0,0.0,0.0,0.0,0.0,-0.0109935,-8.71213e-07,-1.84043e-06,0.0,0.00233596,0.0252568,-0.00442082,-0.00332579,-0.000217803,-0.000460107,0.0,0.0606119,0.0279864,0.0515329,0.010348,0.0,0.100185,0.00442082,0.14486,0.303238,0.159251,0.170279,inf,inf,inf,inf,0,1,0,1,1,0,1,1,0,0,0
9204000,0,0.0,0.0,0.0,0.0,-0.0114744,-8.71213e-07,-1.84043e-06,0.0,0.00108962,0.0261181,-0.00366847,-0.00285623,-0.000217803,-0.000460107,0.0,-0.0270318,0.02087,-0.0446616,0.0106863,0.0,0.10209,0.00366847,0.145299,0.303025,0.158191,0.168347,inf,inf,inf,inf,0,1,0,1,1,0,1,1,0,0,0
9300000,0,0.0,0.0,0.0,0.0,-0.0120323,-8.71213e-07,-1.84043e-06,0.0,3.13439e-05,0.0237622,-0.00457249,-0.00405769,-0.000217803,-0.000460107,0.0,-0.0615803,-0.0189149,-0.0157515,0.0107384,0.0,0.100778,0.00457249,0.145741,0.302803,0.157168,0.166456,inf,inf,inf,inf,0,1,0,1,1,0,1,1,0,0,0
9396000,0,0.0,0.0,0.0,0.0,-0.0117074,-8.71213e-07,-1.84043e-06,0.0,-0.00159633,0.0215981,-0.00511999,-0.00390635,-0.000217803,-0.000460107,0.0,0.019842,0.00140942,-0.0660634,0.0106186,0.0,0.104022,0.00511999,0.143158,0.299169,0.153873,0.163262,inf,inf,inf,inf,0,1,0,1,1,0,1,1,0,0,0
9492000,0,0.0,0.0,0.0,0.0,-0.0116719,-8.71213e-07,-1.84043e-06,0.0,-0.00335247,0.0201267,-0.00453986,-0.00302611,-0.000217803,-0.000460107,0.0,-0.0363822,0.0206155,-0.0131102,0.0103245,0.0,0.101507,0.00453986,0.14362,0.298963,0.15297,0.16148,inf,inf,inf,inf,0,1,0,1,1,0,1,1,0,0,0
9588000,0,0.0,0.0,0.0,0.0,-0.0115092,-8.71213e-07,-1.84043e-06,0.0,-0.00462996,0.0189371,-0.00508798,-0.00316539,-0.000217803,-0.000460107,0.0,-0.00165246,0.061149,-0.025495,0.00997151,0.0,0.103045,0.00508798,0.144083,0.29875,0.152108,0.159736,inf,inf,inf,inf,0,1,0,1,1,0,1,1,0,0,0
9684000,0,0.0,0.0,0.0,0.0,-0.0111403,-8.71213e-07,-1.84043e-06,0.0,-0.00420737,0.0189557,-0.00595829,-0.00340459,-0.000217803,-0.000460107,0.0,0.0487795,0.0467162,-0.00648759,0.00990595,0.0,0.103761,0.00595829,0.141619,0.295259,0.149077,0.156775,inf,inf,inf,inf,0,1,0,1,1,0,1,1,0,0,0
9780000,0,0.0,0.0,0.0,0.0,-0.00978235,-8.71213e-07,-1.84043e-06,0.0,-0.00453553,0.0171,-0.00524946,-0.00114217,-0.000217803,-0.000460107,0.0,-0.00818721,-0.0232257,-0.0144728,0.00997861,0.0,0.107626,0.00524946,0.142096,0.295062,0.148303,0.15513,inf,inf,inf,inf,0,1,0,1,1,0,1,1,0,0,0
9876000,0,0.0,0.0,0.0,0.0,-0.00839315,-8.71213e-07,-1.84043e-06,0.0,-0.00329247,0.0158382,-0.0038504,0.00150863,-0.000217803,-0.000460107,0.0,0.00379898,0.00405127,0.0197096,0.00986643,0.0,0.102041,0.0038504,0.13976,0.291705,0.145495,0.152336,inf,inf,inf,inf,0,1,0,1,1,0,1,1,0,0,0
9972000,0,0.0,0.0,0.0,0.0,-0.0073595,-8.71213e-07,-1.84043e-06,0.0,-0.00413732,0.0140478,-0.00220818,0.0037789,-0.000217803,-0.000460107,0.0,-0.0456838,-0.00936015,-0.0288645,0.00990963,0.0,0.104897,0.00220818,0.140248,0.291524,0.144795,0.150784,inf,inf,inf,inf,0,1,0,1,1,0,1,1,0,0,0
10068000,0,0.0,0.0,0.0,0.0,-0.00579077,-8.71213e-07,-1.84043e-06,0.0,-0.00486611,0.013122,-0.00320344,0.00382228,-0.000217803,-0.000460107,0.0,0.0645597,-0.0164004,-0.00154786,0.00982102,0.0,0.10381,0.00320344,0.140733,0.291337,0.144105,0.149266,inf,inf,inf,inf,0,1,0,1,1,0,1,1,0,0,0
10164000,0,0.0,0.0,0.0,0.0,-0.00529845,-8.71213e-07,-1.84043e-06,0.0,-0.00586879,0.0115856,-0.00171238,0.00519267,-0.000217803,-0.000460107,0.0,-0.0197876,8.27854e-05,0.0239452,0.00983282,0.0,0.100871,0.00171238,0.138483,0.288107,0.141487,0.14667,inf,inf,inf,inf,0,1,0,1,1,0,1,1,0,0,0
10260000,10216000,47.3977419,8.5455938,0.0,0.0,-0.00451394,-8.71213e-07,-1.84043e-06,0.0,-0.00629709,0.00951438,-0.0014692,0.00552806,-0.000217803,-0.000460107,0.0,0.0510136,0.0688522,0.0394871,0.0047291,487.997,0.102804,0.0014692,0.138947,0.287936,0.137774,0.145238,inf,inf,inf,inf,0,1,0,1,1,0,1,1,1,1,0
10356000,10216000,47.3977419,8.5455938,0.0,0.0,-0.00251876,-8.71213e-07,-1.84043e-06,0.0,-0.00605897,0.00738322,-0.000475639,0.00774825,-0.000217803,-0.000460107,0.0,-0.0324805,-0.00722898,0.0334782,0.00472504,487.997,0.104946,0.000475639,0.138954,0.287759,0.13078,0.143836,inf,inf,inf,inf,0,1,0,1,1,0,1,1,1,1,0
10452000,10216000,47.3977419,8.5455938,0.0,0.0,-0.00054142,-8.71213e-07,-1.84043e-06,0.0,-0.00566139,0.00511497,-0.000802306,0.00843735,-0.000217803,-0.000460107,0.0,-0.0219398,0.0490215,-0.0555692,0.00479014,487.997,0.103365,0.000802306,0.135929,0.28465,0.127033,0.141423,inf,inf,inf,inf,0,1,0,1,1,0,1,1,1,1,0
10548000,10216000,47.3977419,8.5455938,0.0,0.0,0.00103478,-8.71213e-07,-1.84043e-06,0.0,-0.00534276,0.00449327,-0.00011063,0.00968457,-0.000217803,-0.000460107,0.0,-0.00350549,-0.03564,0.0130581,0.00516211,487.997,0.103248,0.00011063,0.135331,0.284489,0.129645,0.140101,inf,inf,inf,inf,0,1,0,1,1,0,1,1,1,1,0
10644000,10216000,47.3977419,8.5455938,0.0,0.0,0.00258046,-8.71213e-07,-1.84043e-06,0.0,-0.00495753,0.00449046,0.00208765,0.0121863,-0.000217803,-0.000460107,0.0,0.0011032,-0.0375837,0.0465978,0.00507175,487.997,0.102577,-0.00208765,0.134749,0.284323,0.136259,0.138806,inf,inf,inf,inf,0,1,0,1,1,0,1,1,1,1,0
10740000,10216000,47.3977419,8.5455938,0.0,0.0,0.00354065,-8.71213e-07,-1.84043e-06,0.0,-0.00561472,0.00410219,0.00217582,0.0118966,-0.000217803,-0.000460107,0.0,-0.00586137,-0.0232156,0.0494793,0.00523811,487.997,0.1,-0.00217582,0.132051,0.281328,0.144779,0.136562,inf,inf,inf,inf,0,1,0,1,1,0,1,1,1,1,0
10836000,10216000,47.3977419,8.5455938,0.0,0.0,0.00366627,-8.71213e-07,-1.84043e-06,0.0,-0.00478168,0.0027367,0.00174947,0.0103648,-0.000217803,-0.000460107,0.0,-0.0511343,0.0177031,0.0519101,0.00534858,487.997,0.1,-0.00174947,0.132206,0.281179,0.156593,0.135342,inf,inf,inf,inf,0,1,0,1,1,0,1,1,1,1,0
10932000,10216000,47.3977419,8.5455938,0.0,0.0,0.00457644,-8.71213e-07,-1.84043e-06,0.0,-0.00287775,0.00266748,0.00329656,0.0115887,-0.000217803,-0.000460107,0.0,0.0418877,0.0332658,0.0493675,0.00561305,487.997,0.1,-0.00329656,0.132995,0.281025,0.16967,0.134153,inf,inf,inf,inf,0,1,0,1,1,0,1,1,1,1,0
11028000,10216000,47.3977419,8.5455938,0.0,0.0,0.00487483,-8.71213e-07,-1.84043e-06,0.0,-0.00260032,0.00236153,0.00190194,0.00931198,-0.000217803,-0.000460107,0.0,0.0484763,0.000285537,0.0428557,0.00632261,487.997,0.1,-0.00190194,0.132131,0.278107,0.181827,0.132058,inf,inf,inf,inf,0,1,0,1,1,0,1,1,1,1,0
11124000,10216000,47.3977419,8.5455938,0.0,0.0,0.00485671,-8.71213e-07,-1.84043e-06,0.0,-0.00104702,0.00168524,0.00117342,0.00756318,-0.000217803,-0.000460107,0.0,0.0199875,-0.00184677,-0.061403,0.00666104,487.997,0.1,-0.00117342,0.134402,0.277939,0.195124,0.130936,inf,inf,inf,inf,0,1,0,1,1,0,1,1,1,1,0
11220000,10216000,47.3977419,8.5455938,0.0,0.0,0.00219572,-8.71213e-07,-1.84043e-06,0.0,-0.00141671,0.000223091,-0.0016738,0.0013907,-0.000217803,-0.000460107,0.0,0.00881601,0.088623,-0.0617476,0.00655725,487.997,0.1,0.0016738,0.137491,0.277771,0.207839,0.129849,inf,inf,inf,inf,0,1,0,1,1,0,1,1,1,1,0
11316000,10216000,47.3977419,8.5455938,0.0,0.0,0.00116687,-8.71213e-07,-1.84043e-06,0.0,0.000263328,0.000613122,-0.00219423,-0.000207103,-0.000217803,-0.000460107,0.0,-0.0174309,-0.0164012,0.00627432,0.00655149,487.997,0.1,0.00219423,0.138578,0.274967,0.217321,0.127932,inf,inf,inf,inf,0,1,0,1,1,0,1,1,1,1,0
11412000,10216000,47.3977419,8.5455938,0.0,0.0,2.79948e-05,-8.71213e-07,-1.84043e-06,0.0,0.00288751,-0.000804974,-0.00283202,-0.0018783,-0.000217803,-0.000460107,0.0,0.0146252,0.0316355,0.00451412,0.00621216,487.997,0.1,0.00283202,0.142789,0.27482,0.227239,0.126934,inf,inf,inf,inf,0,1,0,1,1,0,1,1,1,1,0
11508000,10216000,47.3977419,8.5455938,0.0,0.0,-0.000353504,-8.71213e-07,-1.84043e-06,0.0,0.0031222,-0.0015714,-0.00441263,-0.00354762,-0.000217803,-0.000460107,0.0,0.0356761,-0.00897656,0.00362657,0.00586626,487.997,0.1,0.00441263,0.144258,0.272121,0.232533,0.125148,inf,inf,inf,inf,0,1,0,1,1,0,1,1,1,1,0
11604000,10216000,47.3977419,8.5455938,0.0,0.0,-0.000435089,-8.71213e-07,-1.84043e-06,0.0,0.00514143,-0.00295202,-0.00464467,-0.00343403,-0.000217803,-0.000460107,0.0,0.0702273,-0.0313504,0.0138506,0.00609683,487.997,0.102671,0.00464467,0.14873,0.271996,0.238484,0.124241,inf,inf,inf,inf,0,1,0,1,1,0,1,1,1,1,0
11700000,10216000,47.3977419,8.5455938,0.0,0.0,-0.000416328,-8.71213e-07,-1.84043e-06,0.0,0.00825633,-0.00299438,-0.00536831,-0.00374947,-0.000217803,-0.000460107,0.0,0.0943611,0.00720892,0.0267494,0.00598873,487.997,0.101279,0.00536831,0.153128,0.271873,0.242524,0.123372,inf,inf,inf,inf,0,1,0,1,1,0,1,1,1,1,0
11796000,10216000,47.3977419,8.5455938,0.0,0.0,-0.00028577,-8.71213e-07,-1.84043e-06,0.0,0.00781298,-0.00467457,-0.00654449,-0.00439041,-0.000217803,-0.000460107,0.0,-0.00526607,0.0253391,0.02087,0.00635957,487.997,0.102472,0.00654449,0.153528,0.269278,0.240815,0.121763,inf,inf,inf,inf,0,1,0,1,1,0,1,1,1,1,0
11892000,10216000,47.3977419,8.5455938,0.0,0.0,-0.000692661,-8.71213e-07,-1.84043e-06,0.0,0.00965935,-0.0054605,-0.00551823,-0.00344372,-0.000217803,-0.000460107,0.0,-0.0279888,-0.0334448,-0.0461563,0.00621312,487.997,0.100131,0.00551823,0.157112,0.269179,0.241042,0.120987,inf,inf,inf,inf,0,1,0,1,1,0,1,1,1,1,0
11988000,10216000,47.3977419,8.5455938,0.0,0.0,-0.00132744,-8.71213e-07,-1.84043e-06,0.0,0.00970983,-0.00698938,-0.00625108,-0.00445971,-0.000217803,-0.000460107,0.0,-0.0185776,0.0212503,0.00175461,0.00597442,487.997,0.1,0.00625108,0.160265,0.269083,0.239804,0.120251,inf,inf,inf,inf,0,1,0,1,1,0,1,1,1,1,0
12084000,10216000,47.3977419,8.5455938,0.0,0.0,-0.0022357,-8.71213e-07,-1.84043e-06,0.0,0.0129394,-0.00736474,-0.00800226,-0.00657731,-0.000217803,-0.000460107,0.0,0.0383037,0.015583,0.0235783,0.00602024,487.997,0.1,0.00800226,0.158788,0.266592,0.233002,0.118815,inf,inf,inf,inf,0,1,0,1,1,0,1,1,1,1,0
12180000,10216000,47.3977419,8.5455938,0.0,0.0,-0.0042628,-8.71213e-07,-1.84043e-06,0.0,0.0146099,-0.00812702,-0.00932314,-0.00919005,-0.000217803,-0.000460107,0.0,0.0193773,0.0893514,0.0226153,0.00614181,487.997,0.101173,0.00932314,0.160914,0.266523,0.229519,0.11817,inf,inf,inf,inf,0,1,0,1,1,0,1,1,1,1,0
12276000,10216000,47.3977419,8.5455938,0.0,0.0,-0.00538007,-8.71213e-07,-1.84043e-06,0.0,0.0146573,-0.0083052,-0.00811809,-0.00823823,-0.000217803,-0.000460107,0.0,4.27781e-05,-0.0327907,0.0091251,0.00625295,487.997,0.1,0.00811809,0.162619,0.26646,0.225307,0.117566,inf,inf,inf,inf,0,1,0,1,1,0,1,1,1,1,0
12372000,10216000,47.3977419,8.5455938,0.0,0.0,-0.00737546,-8.71213e-07,-1.84043e-06,0.0,0.0143741,-0.00851698,-0.0100133,-0.0111718,-0.000217803,-0.000460107,0.0,-0.000155906,0.00475896,0.0125067,0.00642499,487.997,0.1,0.0100133,0.1597,0.264071,0.216358,0.116298,inf,inf,inf,inf,0,1,0,1,1,0,1,1,1,1,0
12468000,10216000,47.3977419,8.5455938,0.0,0.0,-0.00799829,-8.71213e-07,-1.84043e-06,0.0,0.0145118,-0.00955665,-0.0108192,-0.0114232,-0.000217803,-0.000460107,0.0,-0.0456472,-0.0645025,-0.0530118,0.00652132,487.997,0.104594,0.0108192,0.160668,0.264037,0.211349,0.115783,inf,inf,inf,inf,0,1,0,1,1,0,1,1,1,1,0
12564000,10216000,47.3977419,8.5455938,0.0,0.0,-0.00804526,-8.71213e-07,-1.84043e-06,0.0,0.0146853,-0.00986963,-0.0098049,-0.00936204,-0.000217803,-0.000460107,0.0,-0.0444377,-0.0129665,0.0319583,0.00636443,487.997,0.104535,0.0098049,0.157306,0.261742,0.20231,0.114632,inf,inf,inf,inf,0,1,0,1,1,0,1,1,1,1,0
12660000,10216000,47.3977419,8.5455938,0.0,0.0,-0.00819353,-8.71213e-07,-1.84043e-06,0.0,0.0141589,-0.0087988,-0.0081831,-0.00707285,-0.000217803,-0.000460107,0.0,-0.0243572,0.00930899,-0.0192067,0.00657624,487.997,0.101623,0.0081831,0.157774,0.261739,0.197153,0.114203,inf,inf,inf,inf,0,1,0,1,1,0,1,1,1,1,0
12756000,10216000,47.3977419,8.5455938,0.0,0.0,-0.00827327,-8.71213e-07,-1.84043e-06,0.0,0.0119045,-0.00904123,-0.00754898,-0.00589641,-0.000217803,-0.000460107,0.0,-0.0291696,-0.0765831,-0.0189478,0.00652292,487.997,0.103338,0.00754898,0.158043,0.261747,0.191987,0.113812,inf,inf,inf,inf,0,1,0,1,1,0,1,1,1,1,0
12852000,10216000,47.3977419,8.5455938,0.0,0.0,-0.00643652,-8.71213e-07,-1.84043e-06,0.0,0.0113085,-0.0099973,-0.00541554,-0.00145771,-0.000217803,-0.000460107,0.0,-0.0221654,0.00756503,-0.0287658,0.00644623,487.997,0.10718,0.00541554,0.154328,0.259552,0.183511,0.112813,inf,inf,inf,inf,0,1,0,1,1,0,1,1,1,1,0
12948000,10216000,47.3977419,8.5455938,0.0,0.0,-0.00456073,-8.71213e-07,-1.84043e-06,0.0,0.00972034,-0.00907486,-0.00481789,0.00100508,-0.000217803,-0.000460107,0.0,-0.045996,-0.0120818,-0.00424683,0.00661201,487.997,0.104497,0.00481789,0.154345,0.259594,0.178673,0.112503,inf,inf,inf,inf,0,1,0,1,1,0,1,1,1,1,0
13044000,10216000,47.3977419,8.5455938,0.0,0.0,-0.00348751,-8.71213e-07,-1.84043e-06,0.0,0.00977287,-0.00888243,-0.00436836,0.00228563,-0.000217803,-0.000460107,0.0,0.0322533,-0.0194895,0.0277096,0.00704988,487.997,0.103078,0.00436836,0.154248,0.259649,0.173968,0.112228,inf,inf,inf,inf,0,1,0,1,1,0,1,1,1,1,0
13140000,10216000,47.3977419,8.5455938,0.0,0.0,-0.00301172,-8.71213e-07,-1.84043e-06,0.0,0.0101779,-0.00891092,-0.00280762,0.0039273,-0.000217803,-0.000460107,0.0,0.0381917,-0.0685768,0.0992585,0.00711595,487.997,0.102327,0.00280762,0.150526,0.257554,0.166537,0.111368,inf,inf,inf,inf,0,1,0,1,1,0,1,1,1,1,0
13236000,10216000,47.3977419,8.5455938,0.0,0.0,-0.00215507,-8.71213e-07,-1.84043e-06,0.0,0.00746686,-0.00904953,-0.00113906,0.00587034,-0.000217803,-0.000460107,0.0,-0.0342955,-0.0049309,0.00181142,0.00696552,487.997,0.10236,0.00113906,0.150327,0.257646,0.162323,0.111168,inf,inf,inf,inf,0,1,0,1,1,0,1,1,1,1,0
13332000,10216000,47.3977419,8.5455938,0.0,0.0,-0.00162927,-8.71213e-07,-1.84043e-06,0.0,0.00598697,-0.00734283,0.000162608,0.00698235,-0.000217803,-0.000460107,0.0,-0.044077,-0.0281714,0.0207117,0.00690416,487.997,0.1,-0.000162608,0.150067,0.257753,0.158296,0.111,inf,inf,inf,inf,0,1,0,1,1,0,1,1,1,1,0
13428000,10216000,47.3977419,8.5455938,0.0,0.0,-0.0014803,-8.71213e-07,-1.84043e-06,0.0,0.00554799,-0.00625999,0.00121419,0.00741286,-0.000217803,-0.000460107,0.0,0.0675646,-0.0214352,0.0597164,0.00709445,487.997,0.101072,-0.00121419,0.146508,0.255758,0.151983,0.110266,inf,inf,inf,inf,0,1,0,1,1,0,1,1,1,1,0
13524000,10216000,47.3977419,8.5455938,0.0,0.0,-0.000797729,-8.71213e-07,-1.84043e-06,0.0,0.00658852,-0.00686964,0.00209738,0.00810999,-0.000217803,-0.000460107,0.0,0.0770788,0.000207139,-0.0548307,0.00674778,487.997,0.100091,-0.00209738,0.146226,0.255904,0.148471,0.110164,inf,inf,inf,inf,0,1,0,1,1,0,1,1,1,1,0
13620000,10216000,47.3977419,8.5455938,0.0,0.0,0.000362615,-8.71213e-07,-1.84043e-06,0.0,0.00622725,-0.00581596,0.00242034,0.00872508,-0.000217803,-0.000460107,0.0,0.0176845,0.0572613,-0.0212407,0.00672904,487.997,0.101757,-0.00242034,0.142903,0.253994,0.142958,0.109513,inf,inf,inf,inf,0,1,0,1,1,0,1,1,1,1,0
13716000,10216000,47.3977419,8.5455938,0.0,0.0,0.00120124,-8.71213e-07,-1.84043e-06,0.0,0.00576472,-0.00610927,0.00155621,0.00781503,-0.000217803,-0.000460107,0.0,0.0263554,-0.0196111,-0.0207303,0.00685392,487.997,0.1,-0.00155621,0.142629,0.254181,0.139942,0.109473,inf,inf,inf,inf,0,1,0,1,1,0,1,1,1,1,0
13812000,10216000,47.3977419,8.5455938,0.0,0.0,0.00164238,-8.71213e-07,-1.84043e-06,0.0,0.00499773,-0.0069947,0.000518046,0.00648145,-0.000217803,-0.000460107,0.0,-0.0220885,0.059168,0.0122627,0.00694235,487.997,0.100287,-0.000518046,0.142339,0.254386,0.137121,0.109459,inf,inf,inf,inf,0,1,0,1,1,0,1,1,1,1,0
13908000,10216000,47.3977419,8.5455938,0.0,0.0,0.00240043,-8.71213e-07,-1.84043e-06,0.0,0.00445126,-0.0049068,0.00157676,0.0075378,-0.000217803,-0.000460107,0.0,-0.0145082,0.00193867,0.0713002,0.00722141,487.997,0.1,-0.00157676,0.139258,0.25257,0.132591,0.108907,inf,inf,inf,inf,0,1,0,1,1,0,1,1,1,1,0
14004000,10216000,47.3977419,8.5455938,0.0,0.0,0.0028417,-8.71213e-07,-1.84043e-06,0.0,0.00347605,-0.00478986,0.00178434,0.0073585,-0.000217803,-0.000460107,0.0,0.00016922,-0.0184045,-0.0721784,0.00733103,487.997,0.1,-0.00178434,0.139006,0.252816,0.130229,0.108947,inf,inf,inf,inf,0,1,0,1,1,0,1,1,1,1,0
14100000,10216000,47.3977419,8.5455938,0.0,0.0,0.00207523,-8.71213e-07,-1.84043e-06,0.0,0.0036973,-0.00316421,0.00242964,0.00644887,-0.000217803,-0.000460107,0.0,0.00163392,-0.0111133,-0.0158567,0.0070845,487.997,0.1,-0.00242964,0.138754,0.25308,0.128049,0.109009,inf,inf,inf,inf,0,1,0,1,1,0,1,1,1,1,0
14196000,10216000,47.3977419,8.5455938,0.0,0.0,0.00203917,-8.71213e-07,-1.84043e-06,0.0,0.00589634,-0.00303424,0.00156776,0.00495895,-0.000217803,-0.000460107,0.0,0.0386153,-0.0355759,-0.0157356,0.00705158,487.997,0.1,-0.00156776,0.135924,0.251355,0.124384,0.108541,inf,inf,inf,inf,0,1,0,1,1,0,1,1,1,1,0
14292000,10216000,47.3977419,8.5455938,0.0,0.0,0.00235654,-8.71213e-07,-1.84043e-06,0.0,0.00728208,-0.00127088,-0.000483987,0.00282794,-0.000217803,-0.000460107,0.0,0.0132289,0.0354826,-0.0542207,0.00688557,487.997,0.100147,0.000483987,0.13573,0.251662,0.122625,0.108647,inf,inf,inf,inf,0,1,0,1,1,0,1,1,1,1,0
14388000,10216000,47.3977419,8.5455938,0.0,0.0,0.00311341,-8.71213e-07,-1.84043e-06,0.0,0.00607048,0.000189169,0.000395567,0.00418989,-0.000217803,-0.000460107,0.0,-0.0174508,0.0254307,0.0254763,0.00717201,487.997,0.102961,-0.000395567,0.135546,0.251987,0.121044,0.108772,inf,inf,inf,inf,0,1,0,1,1,0,1,1,1,1,0
14484000,10216000,47.3977419,8.5455938,0.0,0.0,0.00550286,-8.71213e-07,-1.84043e-06,0.0,0.00615861,0.000601604,0.000115073,0.00590877,-0.000217803,-0.000460107,0.0,0.0644555,0.00144625,0.0131,0.00743514,487.997,0.104736,-0.000115073,0.132964,0.250348,0.118155,0.108373,inf,inf,inf,inf,0,1,0,1,1,0,1,1,1,1,0
14580000,10216000,47.3977419,8.5455938,0.0,0.0,0.00761086,-8.71213e-07,-1.84043e-06,0.0,0.00629647,0.000424407,0.000638822,0.00785456,-0.000217803,-0.000460107,0.0,0.0416878,0.0111109,0.039123,0.00760526,487.997,0.102915,-0.000638822,0.132801,0.250693,0.116911,0.108525,inf,inf,inf,inf,0,1,0,1,1,0,1,1,1,1,0
14676000,10216000,47.3977419,8.5455938,0.000836424,0.0142933,0.00962201,-0.00300525,0.0159124,0.0,-0.000913494,-0.000889446,-0.00110884,0.00994799,-0.00580886,-0.00149319,-0.00282836,-0.0862834,0.0331413,-0.0196276,0.00748435,487.997,0.103052,0.00110884,0.6,0.251059,0.316228,0.237171,inf,inf,inf,inf,1,1,1,1,2,0,2,2,1,1,0
14772000,10216000,47.3977419,8.5455938,0.000321655,0.0146192,0.0105432,-0.00300525,0.0159124,0.0,-0.00108812,-0.000150071,-0.000406525,0.00978187,-0.00580886,-0.00149319,-0.00282836,-0.059619,-0.0194977,0.0172257,0.00754484,487.997,0.1,0.000406525,0.484624,0.242654,0.288826,0.226291,inf,inf,inf,inf,1,1,1,1,2,0,2,2,1,1,0
14868000,10216000,47.3977419,8.5455938,-0.000321358,0.0148788,0.0099524,-0.00300525,0.0159124,0.0,-0.00179276,0.000588612,-0.000677111,0.00744978,-0.00580886,-0.00149319,-0.00282836,-0.064789,-0.0327891,0.0060033,0.00749709,487.997,0.1,0.000677111,0.486447,0.238628,0.289277,0.226402,inf,inf,inf,inf,1,1,1,1,2,0,2,2,1,1,0
14964000,10216000,47.3977419,8.5455938,8.42306e-05,0.0157854,0.00858527,-0.00300525,0.0159124,0.0,-0.00250678,0.00149347,-0.000701359,0.00497186,-0.00580886,-0.00149319,-0.00282836,0.00356426,0.0146857,0.00638515,0.00761042,487.997,0.1,0.000701359,0.418947,0.236095,0.267996,0.216736,inf,inf,inf,inf,1,1,1,1,2,0,2,2,1,1,0
15060000,10216000,47.3977419,8.5455938,0.000859449,0.016865,0.00727785,-0.00300525,0.0159124,0.0,-0.00276841,0.000435077,-0.000914504,0.00276263,-0.00580886,-0.00149319,-0.00282836,-0.0266511,0.0252043,0.0344049,0.00733066,487.997,0.1,0.000914504,0.373381,0.233114,0.250815,0.207931,inf,inf,inf,inf,1,1,1,1,2,0,2,2,1,1,0
15156000,10216000,47.3977419,8.5455938,0.00122574,0.0166375,0.00641034,-0.00300525,0.0159124,0.0,-0.000495093,0.00159494,-0.00136411,0.000935342,-0.00580886,-0.00149319,-0.00282836,-0.00024567,-0.0390511,0.00736397,0.00729784,487.997,0.1,0.00136411,0.340108,0.232577,0.236513,0.200034,inf,inf,inf,inf,1,1,1,1,2,0,2,2,1,1,0
15252000,10216000,47.3977419,8.5455938,0.00139365,0.0156097,0.0047047,-0.00300525,0.0159124,0.0,-0.000607589,0.00173265,-0.00234826,-0.00194526,-0.00580886,-0.00149319,-0.00282836,0.0680608,-0.0156761,-0.0048615,0.00732147,487.997,0.1,0.00234826,0.31463,0.231062,0.224407,0.192567,inf,inf,inf,inf,1,1,1,1,2,0,2,2,1,1,0
15348000,10216000,47.3977419,8.5455938,0.00137069,0.014006,0.00323482,-0.00300525,0.0159124,0.0,-0.000950602,0.000888157,-0.00177063,-0.00277195,-0.00580886,-0.00149319,-0.00282836,0.0191972,0.0106893,0.00116043,0.00727037,487.997,0.1,0.00177063,0.294365,0.231511,0.21394,0.185857,inf,inf,inf,inf,1,1,1,1,2,0,2,2,1,1,0
15444000,10216000,47.3977419,8.5455938,0.0012518,0.0126177,0.00203313,-0.00300525,0.0159124,0.0,-0.000488404,0.000281063,-0.00144457,-0.00342789,-0.00580886,-0.00149319,-0.00282836,0.00928344,0.0363308,0.0156676,0.00747402,487.997,0.1,0.00144457,0.277879,0.232234,0.204827,0.179632,inf,inf,inf,inf,1,1,1,1,2,0,2,2,1,1,0
15540000,10216000,47.3977419,8.5455938,0.00149928,0.0117197,0.00108033,-0.00300525,0.0159124,0.0,-0.00020094,0.000143453,-0.00128657,-0.00390016,-0.00580886,-0.00149319,-0.00282836,0.0797596,-0.0132231,0.055111,0.00738809,487.997,0.1,0.00128657,0.264123,0.231567,0.196754,0.173477,inf,inf,inf,inf,1,1,1,1,2,0,2,2,1,1,0
15636000,10216000,47.3977419,8.5455938,0.0013415,0.012077,0.000488006,-0.00300525,0.0159124,0.0,-0.000478938,0.000985863,-0.00277562,-0.00553302,-0.00580886,-0.00149319,-0.00282836,-0.0198061,-0.0268938,-0.0331961,0.00741559,487.997,0.1,0.00277562,0.252507,0.232565,0.189605,0.168018,inf,inf,inf,inf,1,1,1,1,2,0,2,2,1,1,0
15732000,10216000,47.3977419,8.5455938,0.00108968,0.0130128,0.000434476,-0.00300525,0.0159124,0.0,-0.000320871,2.9369e-05,-0.00502815,-0.00715155,-0.00580886,-0.00149319,-0.00282836,-0.00515401,-0.0398325,0.0458676,0.00712593,487.997,0.101609,0.00502815,0.243055,0.233615,0.183232,0.162895,inf,inf,inf,inf,1,1,1,1,2,0,2,2,1,1,0
15828000,10216000,47.3977419,8.5455938,0.000576466,0.0137778,0.000612837,-0.00300525,0.0159124,0.0,-0.00115604,-0.000330756,-0.00583215,-0.0070514,-0.00580886,-0.00149319,-0.00282836,-0.0300314,0.00910231,-0.0131186,0.00700715,487.997,0.102343,0.00583215,0.235323,0.23308,0.177592,0.157655,inf,inf,inf,inf,1,1,1,1,2,0,2,2,1,1,0
15924000,10216000,47.3977419,8.5455938,3.22049e-05,0.0145899,0.000758425,-0.00300525,0.0159124,0.0,-0.000683849,-0.000777667,-0.00615032,-0.00653093,-0.00580886,-0.00149319,-0.00282836,0.0402874,-0.0660083,-0.00866689,0.00726632,487.997,0.102456,0.00615032,0.228876,0.234117,0.172529,0.153101,inf,inf,inf,inf,1,1,1,1,2,0,2,2,1,1,0
16020000,10216000,47.3977419,8.5455938,-0.000132793,0.0156195,0.000543,-0.00300525,0.0159124,0.0,-0.00187595,-0.000779791,-0.00766472,-0.00754673,-0.00580886,-0.00149319,-0.00282836,0.00109976,-0.037466,0.0273567,0.00714136,487.997,0.10138,0.00766472,0.223511,0.235118,0.168041,0.14881,inf,inf,inf,inf,1,1,1,1,2,0,2,2,1,1,0
16116000,10216000,47.3977419,8.5455938,-0.000254989,0.0163441,3.84735e-05,-0.00300525,0.0159124,0.0,-0.00220385,0.000169581,-0.00679918,-0.00648273,-0.00580886,-0.00149319,-0.00282836,-0.087218,-0.00311063,0.0329884,0.00671576,487.997,0.101276,0.00679918,0.218957,0.234439,0.164007,0.144297,inf,inf,inf,inf,1,1,1,1,2,0,2,2,1,1,0
16212000,10216000,47.3977419,8.5455938,-0.000315333,0.0167045,-0.000718998,-0.00300525,0.0159124,0.0,-0.00370824,0.00170645,-0.00697864,-0.00683308,-0.00580886,-0.00149319,-0.00282836,-0.0792079,0.0257224,-0.0580931,0.00680271,487.997,0.100175,0.00697864,0.215121,0.23532,0.160449,0.14047,inf,inf,inf,inf,1,1,1,1,2,0,2,2,1,1,0
16308000,10216000,47.3977419,8.5455938,-0.000170267,0.016819,-0.00164715,-0.00300525,0.0159124,0.0,-0.00356231,0.000257266,-0.0082024,-0.00826422,-0.00580886,-0.00149319,-0.00282836,0.0158509,-0.00654091,-0.0197124,0.00675591,487.997,0.101216,0.0082024,0.211818,0.234514,0.157257,0.136393,inf,inf,inf,inf,1,1,1,1,2,0,2,2,1,1,0
16404000,10216000,47.3977419,8.5455938,-0.000142956,0.0167412,-0.00185727,-0.00300525,0.0159124,0.0,-0.00422054,0.000695289,-0.0077557,-0.00723619,-0.00580886,-0.00149319,-0.00282836,-0.0114846,0.0396017,-0.0366531,0.00681681,487.997,0.10375,0.0077557,0.20901,0.235261,0.154481,0.132992,inf,inf,inf,inf,1,1,1,1,2,0,2,2,1,1,0
16500000,10216000,47.3977419,8.5455938,-0.00044587,0.0166843,-0.00144845,-0.00300525,0.0159124,0.0,-0.00521877,0.00140028,-0.00832724,-0.0067078,-0.00580886,-0.00149319,-0.00282836,-0.0506498,0.0198573,-0.0375146,0.00698012,487.997,0.103894,0.00832724,0.20656,0.235935,0.152022,0.129787,inf,inf,inf,inf,1,1,1,1,2,0,2,2,1,1,0
16596000,10216000,47.3977419,8.5455938,-0.000789191,0.0167952,-0.000948302,-0.00300525,0.0159124,0.0,-0.00681822,0.00314723,-0.00749861,-0.00481656,-0.00580886,-0.00149319,-0.00282836,-0.0380224,0.00412946,0.0404986,0.00695268,487.997,0.103906,0.00749861,0.204463,0.2349,0.149914,0.126295,inf,inf,inf,inf,1,1,1,1,2,0,2,2,1,1,0
16692000,10216000,47.3977419,8.5455938,-0.00112447,0.0169297,-0.000417177,-0.00300525,0.0159124,0.0,-0.00686563,0.00433779,-0.00770883,-0.00412836,-0.00580886,-0.00149319,-0.00282836,-0.0111203,0.000860889,-0.0370461,0.00672277,487.997,0.103381,0.00770883,0.202609,0.235429,0.148072,0.12346,inf,inf,inf,inf,1,1,1,1,2,0,2,2,1,1,0
16788000,10216000,47.3977419,8.5455938,-0.00184123,0.0171195,3.66175e-05,-0.00300525,0.0159124,0.0,-0.00809708,0.005198,-0.00669054,-0.00244734,-0.00580886,-0.00149319,-0.00282836,-0.00662749,0.0426294,0.00942871,0.00685241,487.997,0.102681,0.00669054,0.201016,0.235889,0.146534,0.120801,inf,inf,inf,inf,1,1,1,1,2,0,2,2,1,1,0
16884000,10216000,47.3977419,8.5455938,-0.00267725,0.0173981,-6.40446e-05,-0.00300525,0.0159124,0.0,-0.00707029,0.00393352,-0.0064076,-0.00215635,-0.00580886,-0.00149319,-0.00282836,0.0410461,0.0401595,0.0212733,0.0069349,487.997,0.1,0.0064076,0.199589,0.23465,0.145221,0.117842,inf,inf,inf,inf,1,1,1,1,2,0,2,2,1,1,0
16980000,10216000,47.3977419,8.5455938,-0.0032358,0.0180523,-0.00033211,-0.00300525,0.0159124,0.0,-0.00756324,0.00540063,-0.00490938,-0.000902497,-0.00580886,-0.00149319,-0.00282836,0.0375287,-0.0174735,-0.00465289,0.00675631,487.997,0.102153,0.00490938,0.19836,0.234984,0.14417,0.115518,inf,inf,inf,inf,1,1,1,1,2,0,2,2,1,1,0
17076000,10216000,47.3977419,8.5455938,-0.00353648,0.0190229,-0.000199626,-0.00300525,0.0159124,0.0,-0.00913041,0.00492383,-0.00453584,-0.000385999,-0.00580886,-0.00149319,-0.00282836,0.0151441,0.0447839,-0.0671223,0.00653712,487.997,0.102238,0.00453584,0.197245,0.233648,0.143296,0.112899,inf,inf,inf,inf,1,1,1,1,2,0,2,2,1,1,0
17172000,10216000,47.3977419,8.5455938,-0.00332725,0.0197859,-4.44431e-05,-0.00300525,0.0159124,0.0,-0.00991346,0.00570988,-0.0059542,-0.00162883,-0.00580886,-0.00149319,-0.00282836,-0.0531117,0.0472963,-0.0364259,0.00688482,487.997,0.10149,0.0059542,0.196284,0.233872,0.142642,0.11089,inf,inf,inf,inf,1,1,1,1,2,0,2,2,1,1,0
17268000,10216000,47.3977419,8.5455938,-0.0029142,0.0207517,0.000112229,-0.00300525,0.0159124,0.0,-0.0108888,0.00559663,-0.00688153,-0.00224836,-0.00580886,-0.00149319,-0.00282836,0.0233584,-0.0484335,0.00941846,0.00717603,487.997,0.102259,0.00688153,0.205226,0.23552,0.147638,0.110199,inf,inf,inf,inf,1,1,1,1,2,0,2,2,1,1,0
17364000,10216000,47.3977419,8.5455938,-0.0026677,0.0213101,9.08656e-05,-0.00300525,0.0159124,0.0,-0.0137671,0.00529433,-0.00795854,-0.00316643,-0.00580886,-0.00149319,-0.00282836,-0.0284033,0.0466115,-0.0164593,0.00697123,487.997,0.102891,0.00795854,0.204382,0.23399,0.147301,0.107981,inf,inf,inf,inf,1,1,1,1,2,0,2,2,1,1,0
17460000,10216000,47.3977419,8.5455938,-0.0026796,0.0217667,0.000355689,-0.00300525,0.0159124,0.0,-0.0158974,0.00400005,-0.00728228,-0.00200562,-0.00580886,-0.00149319,-0.00282836,-0.0105146,0.0109307,0.0375183,0.00686205,487.997,0.103298,0.00728228,0.203667,0.234046,0.147127,0.106357,inf,inf,inf,inf,1,1,1,1,2,0,2,2,1,1,0
17556000,10216000,47.3977419,8.5455938,-0.00294481,0.0215777,0.00101955,-0.00300525,0.0159124,0.0,-0.0191445,0.00399116,-0.0078017,-0.00174404,-0.00580886,-0.00149319,-0.00282836,-0.0555388,0.0145643,-0.0172872,0.00699139,487.997,0.103204,0.0078017,0.203002,0.234064,0.147041,0.104869,inf,inf,inf,inf,1,1,1,1,2,0,2,2,1,1,0
17652000,10216000,47.3977419,8.5455938,-0.00369721,0.0211462,0.000897984,-0.00300525,0.0159124,0.0,-0.020865,0.00465707,-0.00759304,-0.00158864,-0.00580886,-0.00149319,-0.00282836,0.0291799,0.0450962,0.0208318,0.00680926,487.997,0.100824,0.00759304,0.202446,0.232464,0.147066,0.103098,inf,inf,inf,inf,1,1,1,1,2,0,2,2,1,1,0
17748000,10216000,47.3977419,8.5455938,-0.00469419,0.0206333,0.000390788,-0.00300525,0.0159124,0.0,-0.0228964,0.00385535,-0.00835123,-0.00274504,-0.00580886,-0.00149319,-0.00282836,-0.0332958,-0.0223576,-0.0413489,0.00693856,487.997,0.1005,0.00835123,0.201921,0.232431,0.147147,0.101876,inf,inf,inf,inf,1,1,1,1,2,0,2,2,1,1,0
17844000,10216000,47.3977419,8.5455938,-0.00561692,0.0198107,-9.29867e-05,-0.00300525,0.0159124,0.0,-0.0238303,0.00260007,-0.00648435,-0.00122727,-0.00580886,-0.00149319,-0.00282836,-0.0211744,0.0779416,-0.0075195,0.00694337,487.997,0.100135,0.00648435,0.201487,0.232375,0.147316,0.100777,inf,inf,inf,inf,1,1,1,1,2,0,2,2,1,1,0
17940000,10216000,47.3977419,8.5455938,-0.0064938,0.0190878,-0.000680308,-0.00300525,0.0159124,0.0,-0.0252021,0.00303865,-0.00701476,-0.00225013,-0.00580886,-0.00149319,-0.00282836,0.00462673,-0.0023619,-0.0455026,0.007011,487.997,0.100978,0.00701476,0.201069,0.230746,0.147494,0.0994029,inf,inf,inf,inf,1,1,1,1,2,0,2,2,1,1,0
18036000,10216000,47.3977419,8.5455938,-0.00749715,0.0184917,-0.00140549,-0.00300525,0.0159124,0.0,-0.0274737,0.00074485,-0.00821683,-0.00393501,-0.00580886,-0.00149319,-0.00282836,-0.0249599,-0.00837272,0.0146246,0.00662068,487.997,0.100017,0.00821683,0.200729,0.230655,0.14771,0.0985351,inf,inf,inf,inf,1,1,1,1,2,0,2,2,1,1,0
18132000,10216000,47.3977419,8.5455938,-0.00861741,0.0175561,-0.00228892,-0.00300525,0.0159124,0.0,-0.0306178,-0.000903451,-0.00743784,-0.00367087,-0.00580886,-0.00149319,-0.00282836,-0.112249,0.00989838,0.027989,0.00664565,487.997,0.100107,0.00743784,0.200392,0.229042,0.147923,0.0974041,inf,inf,inf,inf,1,1,1,1,2,0,2,2,1,1,0
18228000,10216000,47.3977419,8.5455938,-0.00996427,0.016122,-0.0028586,-0.00300525,0.0159124,0.0,-0.0330569,-0.0029142,-0.00712686,-0.00358188,-0.00580886,-0.00149319,-0.00282836,0.00207892,0.0348184,-0.0360114,0.00657046,487.997,0.100997,0.00712686,0.200122,0.228946,0.148176,0.0967522,inf,inf,inf,inf,1,1,1,1,2,0,2,2,1,1,0
18324000,10216000,47.3977419,8.5455938,-0.0113515,0.0146898,-0.00333283,-0.00300525,0.0159124,0.0,-0.0342852,-0.0026923,-0.00777206,-0.00431676,-0.00580886,-0.00149319,-0.00282836,-0.0620191,0.0027186,-0.00965968,0.00682807,487.997,0.101494,0.00777206,0.199843,0.228851,0.148356,0.0961959,inf,inf,inf,inf,1,1,1,1,2,0,2,2,1,1,0
18420000,10216000,47.3977419,8.5455938,-0.0129437,0.0136045,-0.00313832,-0.00300525,0.0159124,0.0,-0.0365002,-0.00386634,-0.0069634,-0.00292208,-0.00580886,-0.00149319,-0.00282836,-0.0920676,0.00408406,0.0355272,0.00678898,487.997,0.103167,0.0069634,0.199623,0.227271,0.148561,0.0953811,inf,inf,inf,inf,1,1,1,1,2,0,2,2,1,1,0
18516000,10216000,47.3977419,8.5455938,-0.0147701,0.0128164,-0.00224983,-0.00300525,0.0159124,0.0,-0.038242,-0.00340462,-0.00524076,-0.000184373,-0.00580886,-0.00149319,-0.00282836,-0.00990268,0.0102285,-0.0117579,0.00678924,487.997,0.10372,0.00524076,0.199383,0.227182,0.148701,0.0950031,inf,inf,inf,inf,1,1,1,1,2,0,2,2,1,1,0
18612000,10216000,47.3977419,8.5455938,-0.0162881,0.0119497,-0.00185861,-0.00300525,0.0159124,0.0,-0.0385443,-0.00400467,-0.00475343,0.000652736,-0.00580886,-0.00149319,-0.00282836,0.0332938,0.0254362,0.00355951,0.00690816,487.997,0.102021,0.00475343,0.199194,0.227095,0.148825,0.0947043,inf,inf,inf,inf,1,1,1,1,2,0,2,2,1,1,0
18708000,10216000,47.3977419,8.5455938,-0.017393,0.0109918,-0.00131483,-0.00300525,0.0159124,0.0,-0.0386611,-0.0040784,-0.00335676,0.00243502,-0.00580886,-0.00149319,-0.00282836,0.0822501,-0.0168292,0.00849832,0.00676275,487.997,0.101885,0.00335676,0.198976,0.225565,0.148873,0.0941466,inf,inf,inf,inf,1,1,1,1,2,0,2,2,1,1,0
18804000,10216000,47.3977419,8.5455938,-0.0178644,0.010064,-0.0007003,-0.00300525,0.0159124,0.0,-0.0373522,-0.00589529,-0.00554153,0.000634123,-0.00580886,-0.00149319,-0.00282836,0.00437446,-0.0578417,-0.029169,0.00693509,487.997,0.101915,0.00554153,0.198803,0.2255,0.148913,0.0939934,inf,inf,inf,inf,1,1,1,1,2,0,2,2,1,1,0
18900000,10216000,47.3977419,8.5455938,-0.0180935,0.00893696,-0.000276678,-0.00300525,0.0159124,0.0,-0.0350612,-0.00792734,-0.00341518,0.00297233,-0.00580886,-0.00149319,-0.00282836,0.00230908,-0.0142317,0.0247927,0.00679309,487.997,0.101234,0.00341518,0.198594,0.224025,0.148862,0.0935837,inf,inf,inf,inf,1,1,1,1,2,0,2,2,1,1,0
18996000,10216000,47.3977419,8.5455938,-0.0179088,0.00756906,-0.000211013,-0.00300525,0.0159124,0.0,-0.0350899,-0.00795182,-0.0025579,0.00350331,-0.00580886,-0.00149319,-0.00282836,-0.0598485,-0.0655363,-0.00843499,0.00701619,487.997,0.1,0.0025579,0.198424,0.223989,0.148814,0.0935548,inf,inf,inf,inf,1,1,1,1,2,0,2,2,1,1,0
19092000,10216000,47.3977419,8.5455938,-0.0176008,0.00645613,0.000448312,-0.00300525,0.0159124,0.0,-0.0356157,-0.00742701,-0.00101045,0.00523242,-0.00580886,-0.00149319,-0.00282836,-0.0392282,0.0273859,0.0104671,0.00717691,487.997,0.102088,0.00101045,0.198213,0.223966,0.148644,0.0935762,inf,inf,inf,inf,1,1,1,1,2,0,2,2,1,1,0
19188000,10216000,47.3977419,8.5455938,-0.0172842,0.00583095,0.00144487,-0.00300525,0.0159124,0.0,-0.0353097,-0.00839779,-0.00039606,0.00623028,-0.00580886,-0.00149319,-0.00282836,-0.0324005,0.0348326,-0.0100881,0.00706873,487.997,0.100149,0.00039606,0.198035,0.222568,0.148467,0.0933424,inf,inf,inf,inf,1,1,1,1,2,0,2,2,1,1,0
19284000,10216000,47.3977419,8.5455938,-0.0171135,0.00576746,0.00195373,-0.00300525,0.0159124,0.0,-0.0359092,-0.00768374,0.000529851,0.00702254,-0.00580886,-0.00149319,-0.00282836,-0.0466386,0.00920386,0.049497,0.00734744,487.997,0.1,-0.000529851,0.197812,0.222585,0.148197,0.0934581,inf,inf,inf,inf,1,1,1,1,2,0,2,2,1,1,0
19380000,10216000,47.3977419,8.5455938,-0.0173143,0.00569633,0.00229339,-0.00300525,0.0159124,0.0,-0.0357995,-0.00916863,0.00215015,0.00815837,-0.00580886,-0.00149319,-0.00282836,0.0161211,0.0168572,0.00325032,0.00742319,487.997,0.1,-0.00215015,0.197619,0.222621,0.147923,0.0936137,inf,inf,inf,inf,1,1,1,1,2,0,2,2,1,1,0
19476000,10216000,47.3977419,8.5455938,-0.0177961,0.00512336,0.0030492,-0.00300525,0.0159124,0.0,-0.0327696,-0.00868546,0.0029443,0.00887159,-0.00580886,-0.00149319,-0.00282836,0.00225907,-0.0238413,-0.0355756,0.00748661,487.997,0.1,-0.0029443,0.197379,0.221309,0.147549,0.0935066,inf,inf,inf,inf,1,1,1,1,2,0,2,2,1,1,0
19572000,10216000,47.3977419,8.5455938,-0.0180989,0.00425824,0.00321827,-0.00300525,0.0159124,0.0,-0.0325169,-0.00820609,0.00340133,0.00858726,-0.00580886,-0.00149319,-0.00282836,-0.00558993,0.014697,0.0628261,0.00746365,487.997,0.1,-0.00340133,0.197166,0.22139,0.147172,0.0937294,inf,inf,inf,inf,1,1,1,1,2,0,2,2,1,1,0
19668000,10216000,47.3977419,8.5455938,-0.018441,0.00340964,0.0038167,-0.00300525,0.0159124,0.0,-0.0324387,-0.00878625,0.00364972,0.00853953,-0.00580886,-0.00149319,-0.00282836,0.00843314,-0.0385619,-0.0225678,0.00746154,487.997,0.1,-0.00364972,0.207634,0.222388,0.153393,0.0947266,inf,inf,inf,inf,1,1,1,1,2,0,2,2,1,1,0
19764000,10216000,47.3977419,8.5455938,-0.0189727,0.00233658,0.0044947,-0.00300525,0.0159124,0.0,-0.0309765,-0.00959531,0.00349304,0.00825171,-0.00580886,-0.00149319,-0.00282836,-0.0312033,-0.0114644,0.0514602,0.00725943,487.997,0.1,-0.00349304,0.207356,0.221153,0.152889,0.0947083,inf,inf,inf,inf,1,1,1,1,2,0,2,2,1,1,0
19860000,10216000,47.3977419,8.5455938,-0.0195824,0.00123985,0.00500859,-0.00300525,0.0159124,0.0,-0.0297172,-0.0108414,0.00442081,0.00882386,-0.00580886,-0.00149319,-0.00282836,0.0201125,-0.0163567,0.0368785,0.00737415,487.997,0.1,-0.00442081,0.207106,0.221312,0.15239,0.0950097,inf,inf,inf,inf,1,1,1,1,2,0,2,2,1,1,0
19956000,10216000,47.3977419,8.5455938,-0.019958,0.000207119,0.00565116,-0.00300525,0.0159124,0.0,-0.0293983,-0.00995497,0.00443931,0.00865222,-0.00580886,-0.00149319,-0.00282836,-0.0750412,0.0163788,0.0110343,0.00733712,487.997,0.1,-0.00443931,0.206795,0.220148,0.151799,0.0950334,inf,inf,inf,inf,1,1,1,1,2,0,2,2,1,1,0
20052000,10216000,47.3977419,8.5455938,-0.0201339,-0.000627409,0.00659162,-0.00300525,0.0159124,0.0,-0.027008,-0.00976108,0.00551212,0.00975727,-0.00580886,-0.00149319,-0.00282836,0.0317435,0.030478,-0.00567269,0.00733189,487.997,0.1,-0.00551212,0.206512,0.220359,0.151227,0.0953654,inf,inf,inf,inf,1,1,1,1,2,0,2,2,1,1,0
20148000,10216000,47.3977419,8.5455938,-0.019814,-0.00172206,0.00764204,-0.00300525,0.0159124,0.0,-0.0256746,-0.0101761,0.00704191,0.0113527,-0.00580886,-0.00149319,-0.00282836,-0.00848204,-0.00290092,-0.00751764,0.0075651,487.997,0.1,-0.00704191,0.206169,0.220593,0.150567,0.0957056,inf,inf,inf,inf,1,1,1,1,2,0,2,2,1,1,0
