timestamp,roll_body,pitch_body,yaw_body,yaw_sp_move_rate,q_d[0],q_d[1],q_d[2],q_d[3],thrust_body[0],thrust_body[1],thrust_body[2],q_d_valid,roll_reset_integral,pitch_reset_integral,yaw_reset_integral,fw_control_yaw,apply_flaps
1312000,0.0,-0.0,0.00703519,0.0,0.999994,0.0,0.0,0.00351759,0.0,0.0,-0.08,1,0,0,0,0,0
1412000,0.0,-0.0,0.00687969,0.0,0.999994,0.0,0.0,0.00343984,0.0,0.0,-0.08,1,0,0,0,0,0
1508000,0.0,-0.0,0.00676958,0.0,0.999994,0.0,0.0,0.00338478,0.0,0.0,-0.08,1,0,0,0,0,0
1608000,0.0,-0.0,0.00701321,0.0,0.999994,0.0,0.0,0.0035066,0.0,0.0,-0.08,1,0,0,0,0,0
1704000,0.0,-0.0,0.00698242,0.0,0.999994,0.0,0.0,0.0034912,0.0,0.0,-0.08,1,0,0,0,0,0
1800000,0.0,-0.0,0.00729398,0.0,0.999993,0.0,0.0,0.00364698,0.0,0.0,-0.08,1,0,0,0,0,0
1892000,0.0,-0.0,0.00706411,0.0,0.999994,0.0,0.0,0.00353205,0.0,0.0,-0.08,1,0,0,0,0,0
1988000,0.0,-0.0,0.0071689,0.0,0.999994,0.0,0.0,0.00358444,0.0,0.0,-0.08,1,0,0,0,0,0
2084000,0.0,-0.0,0.00736139,0.0,0.999993,0.0,0.0,0.00368069,0.0,0.0,-0.08,1,0,0,0,0,0
2180000,0.0,-0.0,0.00716885,0.0,0.999994,0.0,0.0,0.00358442,0.0,0.0,-0.08,1,0,0,0,0,0
2272000,0.0,-0.0,0.00715203,0.0,0.999994,0.0,0.0,0.00357601,0.0,0.0,-0.08,1,0,0,0,0,0
2368000,0.0,-0.0,0.00730555,0.0,0.999993,0.0,0.0,0.00365277,0.0,0.0,-0.08,1,0,0,0,0,0
2468000,0.0,-0.0,0.00734594,0.0,0.999993,0.0,0.0,0.00367296,0.0,0.0,-0.08,1,0,0,0,0,0
2568000,0.0,-0.0,0.00748298,0.0,0.999993,0.0,0.0,0.00374148,0.0,0.0,-0.08,1,0,0,0,0,0
2664000,0.0,-0.0,0.00736313,0.0,0.999993,0.0,0.0,0.00368156,0.0,0.0,-0.08,1,0,0,0,0,0
2760000,0.0,-0.0,0.00725452,0.0,0.999993,0.0,0.0,0.00362725,0.0,0.0,-0.08,1,0,0,0,0,0
2860000,0.0,-0.0,0.00709281,0.0,0.999994,0.0,0.0,0.0035464,0.0,0.0,-0.08,1,0,0,0,0,0
2956000,0.0,-0.0,0.00710245,0.0,0.999994,0.0,0.0,0.00355122,0.0,0.0,-0.08,1,0,0,0,0,0
3056000,0.0,-0.0,0.00690909,0.0,0.999994,0.0,0.0,0.00345454,0.0,0.0,-0.08,1,0,0,0,0,0
3152000,0.0,-0.0,0.00697115,0.0,0.999994,0.0,0.0,0.00348557,0.0,0.0,-0.08,1,0,0,0,0,0
3252000,0.0,-0.0,0.00682561,0.0,0.999994,0.0,0.0,0.0034128,0.0,0.0,-0.08,1,0,0,0,0,0
3352000,0.0,-0.0,0.00715497,0.0,0.999994,0.0,0.0,0.00357748,0.0,0.0,-0.08,1,0,0,0,0,0
3452000,0.0,-0.0,0.00711239,0.0,0.999994,0.0,0.0,0.00355619,0.0,0.0,-0.08,1,0,0,0,0,0
3552000,0.0,-0.0,0.00709223,0.0,0.999994,0.0,0.0,0.00354611,0.0,0.0,-0.08,1,0,0,0,0,0
3648000,0.0,-0.0,0.00735221,0.0,0.999993,0.0,0.0,0.0036761,0.0,0.0,-0.08,1,0,0,0,0,0
3748000,0.0,-0.0,0.00721621,0.0,0.999994,0.0,0.0,0.0036081,0.0,0.0,-0.08,1,0,0,0,0,0
3848000,0.0,-0.0,0.00748889,0.0,0.999993,0.0,0.0,0.00374444,0.0,0.0,-0.08,1,0,0,0,0,0
3940000,0.0,-0.0,0.00749533,0.0,0.999993,0.0,0.0,0.00374766,0.0,0.0,-0.08,1,0,0,0,0,0
4036000,0.0,-0.0,0.0073596,0.0,0.999993,0.0,0.0,0.00367979,0.0,0.0,-0.08,1,0,0,0,0,0
4132000,0.0,-0.0,0.00710814,0.0,0.999994,0.0,0.0,0.00355406,0.0,0.0,-0.08,1,0,0,0,0,0
4232000,0.0,-0.0,0.00693905,0.0,0.999994,0.0,0.0,0.00346952,0.0,0.0,-0.08,1,0,0,0,0,0
4332000,0.0,-0.0,0.00680661,0.0,0.999994,0.0,0.0,0.0034033,0.0,0.0,-0.08,1,0,0,0,0,0
4424000,0.0,-0.0,0.00668315,0.0,0.999994,0.0,0.0,0.00334157,0.0,0.0,-0.08,1,0,0,0,0,0
4524000,0.0,-0.0,0.00661933,0.0,0.999995,0.0,0.0,0.00330966,0.0,0.0,-0.08,1,0,0,0,0,0
4624000,0.0,-0.0,0.00673728,0.0,0.999994,0.0,0.0,0.00336863,0.0,0.0,-0.08,1,0,0,0,0,0
4720000,0.0,-0.0,0.00697593,0.0,0.999994,0.0,0.0,0.00348796,0.0,0.0,-0.08,1,0,0,0,0,0
4816000,0.0,-0.0,0.0067396,0.0,0.999994,0.0,0.0,0.00336979,0.0,0.0,-0.08,1,0,0,0,0,0
4912000,0.0,-0.0,0.00684322,0.0,0.999994,0.0,0.0,0.0034216,0.0,0.0,-0.08,1,0,0,0,0,0
5012000,0.0,-0.0,0.00675143,0.0,0.999994,0.0,0.0,0.00337571,0.0,0.0,-0.08,1,0,0,0,0,0
5108000,0.0,-0.0,0.00642268,0.0,0.999995,0.0,0.0,0.00321133,0.0,0.0,-0.08,1,0,0,0,0,0
5208000,0.0,-0.0,0.00599087,0.0,0.999996,0.0,0.0,0.00299543,0.0,0.0,-0.08,1,0,0,0,0,0
5304000,0.0,-0.0,0.00598411,0.0,0.999996,0.0,0.0,0.00299205,0.0,0.0,-0.08,1,0,0,0,0,0
5400000,0.0,-0.0,0.00612276,0.0,0.999995,0.0,0.0,0.00306138,0.0,0.0,-0.08,1,0,0,0,0,0
5500000,0.0,-0.0,0.00596045,0.0,0.999996,0.0,0.0,0.00298022,0.0,0.0,-0.08,1,0,0,0,0,0
5596000,0.0,-0.0,0.00588777,0.0,0.999996,0.0,0.0,0.00294388,0.0,0.0,-0.08,1,0,0,0,0,0
5692000,0.0,-0.0,0.00570644,0.0,0.999996,0.0,0.0,0.00285321,0.0,0.0,-0.08,1,0,0,0,0,0
5788000,0.0,-0.0,0.0057517,0.0,0.999996,0.0,0.0,0.00287585,0.0,0.0,-0.08,1,0,0,0,0,0
5888000,0.0,-0.0,0.00587814,0.0,0.999996,0.0,0.0,0.00293907,0.0,0.0,-0.08,1,0,0,0,0,0
5988000,0.0,-0.0,0.00597137,0.0,0.999996,0.0,0.0,0.00298568,0.0,0.0,-0.08,1,0,0,0,0,0
6084000,0.0,-0.0,0.0059418,0.0,0.999996,0.0,0.0,0.00297089,0.0,0.0,-0.08,1,0,0,0,0,0
6180000,0.0,-0.0,0.00598772,0.0,0.999996,0.0,0.0,0.00299386,0.0,0.0,-0.08,1,0,0,0,0,0
6280000,0.0,-0.0,0.00584145,0.0,0.999996,0.0,0.0,0.00292072,0.0,0.0,-0.08,1,0,0,0,0,0
6380000,0.0,-0.0,0.00626408,0.0,0.999995,0.0,0.0,0.00313203,0.0,0.0,-0.08,1,0,0,0,0,0
6476000,0.0,-0.0,0.00637141,0.0,0.999995,0.0,0.0,0.0031857,0.0,0.0,-0.08,1,0,0,0,0,0
6576000,0.0,-0.0,0.00655436,0.0,0.999995,0.0,0.0,0.00327717,0.0,0.0,-0.08,1,0,0,0,0,0
6672000,0.0,-0.0,0.00687005,0.0,0.999994,0.0,0.0,0.00343502,0.0,0.0,-0.08,1,0,0,0,0,0
6772000,0.0,-0.0,0.0069319,0.0,0.999994,0.0,0.0,0.00346594,0.0,0.0,-0.08,1,0,0,0,0,0
6872000,0.0,-0.0,0.00715171,0.0,0.999994,0.0,0.0,0.00357585,0.0,0.0,-0.08,1,0,0,0,0,0
6972000,0.0,-0.0,0.00727684,0.0,0.999993,0.0,0.0,0.00363841,0.0,0.0,-0.08,1,0,0,0,0,0
7072000,0.0,-0.0,0.00734392,0.0,0.999993,0.0,0.0,0.00367195,0.0,0.0,-0.08,1,0,0,0,0,0
7168000,0.0,-0.0,0.00767316,0.0,0.999993,0.0,0.0,0.00383657,0.0,0.0,-0.08,1,0,0,0,0,0
7264000,0.0,-0.0,0.00808219,0.0,0.999992,0.0,0.0,0.00404109,0.0,0.0,-0.08,1,0,0,0,0,0
7364000,0.0,-0.0,0.00842764,0.0,0.999991,0.0,0.0,0.00421381,0.0,0.0,-0.08,1,0,0,0,0,0
7456000,0.0,-0.0,0.00845049,0.0,0.999991,0.0,0.0,0.00422523,0.0,0.0,-0.08,1,0,0,0,0,0
7552000,0.0,-0.0,0.00866957,0.0,0.999991,0.0,0.0,0.00433477,0.0,0.0,-0.08,1,0,0,0,0,0
7652000,0.0,-0.0,0.0087252,0.0,0.99999,0.0,0.0,0.00436259,0.0,0.0,-0.08,1,0,0,0,0,0
7748000,0.0,-0.0,0.00899102,0.0,0.99999,0.0,0.0,0.0044955,0.0,0.0,-0.08,1,0,0,0,0,0
7848000,0.0,-0.0,0.00919949,0.0,0.999989,0.0,0.0,0.00459973,0.0,0.0,-0.08,1,0,0,0,0,0
7944000,0.0,-0.0,0.00946855,0.0,0.999989,0.0,0.0,0.00473426,0.0,0.0,-0.08,1,0,0,0,0,0
8044000,0.0,-0.0,0.00954892,0.0,0.999989,0.0,0.0,0.00477444,0.0,0.0,-0.08,1,0,0,0,0,0
8140000,0.0,-0.0,0.00955561,0.0,0.999989,0.0,0.0,0.00477779,0.0,0.0,-0.08,1,0,0,0,0,0
8236000,0.0,-0.0,0.00955698,0.0,0.999989,0.0,0.0,0.00477847,0.0,0.0,-0.08,1,0,0,0,0,0
8332000,0.0,-0.0,0.00957803,0.0,0.999989,0.0,0.0,0.00478899,0.0,0.0,-0.08,1,0,0,0,0,0
8432000,0.0,-0.0,0.00979558,0.0,0.999988,0.0,0.0,0.00489777,0.0,0.0,-0.08,1,0,0,0,0,0
8532000,0.0,-0.0,0.00994356,0.0,0.999988,0.0,0.0,0.00497176,0.0,0.0,-0.08,1,0,0,0,0,0
8632000,0.0,-0.0,0.0102147,0.0,0.999987,0.0,0.0,0.00510734,0.0,0.0,-0.08,1,0,0,0,0,0
8728000,0.0,-0.0,0.010503,0.0,0.999986,0.0,0.0,0.00525147,0.0,0.0,-0.08,1,0,0,0,0,0
8828000,0.0,-0.0,0.0105962,0.0,0.999986,0.0,0.0,0.00529806,0.0,0.0,-0.08,1,0,0,0,0,0
8924000,0.0,-0.0,0.0105203,0.0,0.999986,0.0,0.0,0.00526013,0.0,0.0,-0.08,1,0,0,0,0,0
9020000,0.0,-0.0,0.0103873,0.0,0.999987,0.0,0.0,0.00519363,0.0,0.0,-0.08,1,0,0,0,0,0
9120000,0.0,-0.0,0.0103878,0.0,0.999987,0.0,0.0,0.00519389,0.0,0.0,-0.08,1,0,0,0,0,0
9220000,0.0,-0.0,0.0107694,0.0,0.999986,0.0,0.0,0.00538467,0.0,0.0,-0.08,1,0,0,0,0,0
9320000,0.0,-0.0,0.0106864,0.0,0.999986,0.0,0.0,0.00534318,0.0,0.0,-0.08,1,0,0,0,0,0
9416000,0.0,-0.0,0.0105655,0.0,0.999986,0.0,0.0,0.00528273,0.0,0.0,-0.08,1,0,0,0,0,0
9512000,0.0,-0.0,0.0103814,0.0,0.999987,0.0,0.0,0.00519066,0.0,0.0,-0.08,1,0,0,0,0,0
9612000,0.0,-0.0,0.00998079,0.0,0.999988,0.0,0.0,0.00499037,0.0,0.0,-0.08,1,0,0,0,0,0
9712000,0.0,-0.0,0.00989664,0.0,0.999988,0.0,0.0,0.0049483,0.0,0.0,-0.08,1,0,0,0,0,0
9812000,0.0,-0.0,0.0100468,0.0,0.999987,0.0,0.0,0.00502337,0.0,0.0,-0.08,1,0,0,0,0,0
9912000,0.0,-0.0,0.0100121,0.0,0.999987,0.0,0.0,0.00500604,0.0,0.0,-0.08,1,0,0,0,0,0
10008000,0.0,-0.0,0.00994495,0.0,0.999988,0.0,0.0,0.00497245,0.0,0.0,-0.08,1,0,0,0,0,0
10104000,0.0,-0.0,0.00988199,0.0,0.999988,0.0,0.0,0.00494097,0.0,0.0,-0.08,1,0,0,0,0,0
10200000,0.0,-0.0,0.00965698,0.0,0.999988,0.0,0.0,0.00482847,0.0,0.0,-0.08,1,0,0,0,0,0
10300000,0.0,-0.0,0.00467394,0.0,0.999997,0.0,0.0,0.00233697,0.0,0.0,-0.08,1,0,0,0,0,0
10400000,0.0,-0.0,0.00469009,0.0,0.999997,0.0,0.0,0.00234504,0.0,0.0,-0.08,1,0,0,0,0,0
10496000,0.0,-0.0,0.00487278,0.0,0.999997,0.0,0.0,0.00243639,0.0,0.0,-0.08,1,0,0,0,0,0
10592000,0.0,-0.0,0.0050332,0.0,0.999997,0.0,0.0,0.0025166,0.0,0.0,-0.08,1,0,0,0,0,0
10684000,0.0,-0.0,0.00515639,0.0,0.999997,0.0,0.0,0.00257819,0.0,0.0,-0.08,1,0,0,0,0,0
10780000,0.0,-0.0,0.00523606,0.0,0.999997,0.0,0.0,0.00261803,0.0,0.0,-0.08,1,0,0,0,0,0
10876000,0.0,-0.0,0.00547979,0.0,0.999996,0.0,0.0,0.00273989,0.0,0.0,-0.08,1,0,0,0,0,0
10972000,0.0,-0.0,0.0059284,0.0,0.999996,0.0,0.0,0.0029642,0.0,0.0,-0.08,1,0,0,0,0,0
11072000,0.0,-0.0,0.00639487,0.0,0.999995,0.0,0.0,0.00319743,0.0,0.0,-0.08,1,0,0,0,0,0
11172000,0.0,-0.0,0.00662821,0.0,0.999995,0.0,0.0,0.0033141,0.0,0.0,-0.08,1,0,0,0,0,0
11268000,0.0,-0.0,0.00656515,0.0,0.999995,0.0,0.0,0.00328257,0.0,0.0,-0.08,1,0,0,0,0,0
11364000,0.0,-0.0,0.00654848,0.0,0.999995,0.0,0.0,0.00327423,0.0,0.0,-0.08,1,0,0,0,0,0
11460000,0.0,-0.0,0.00590695,0.0,0.999996,0.0,0.0,0.00295347,0.0,0.0,-0.08,1,0,0,0,0,0
11552000,0.0,-0.0,0.00593369,0.0,0.999996,0.0,0.0,0.00296684,0.0,0.0,-0.08,1,0,0,0,0,0
11652000,0.0,-0.0,0.00597654,0.0,0.999996,0.0,0.0,0.00298827,0.0,0.0,-0.08,1,0,0,0,0,0
11752000,0.0,-0.0,0.00616433,0.0,0.999995,0.0,0.0,0.00308216,0.0,0.0,-0.08,1,0,0,0,0,0
11852000,0.0,-0.0,0.00632343,0.0,0.999995,0.0,0.0,0.00316171,0.0,0.0,-0.08,1,0,0,0,0,0
11952000,0.0,-0.0,0.00601554,0.0,0.999995,0.0,0.0,0.00300777,0.0,0.0,-0.08,1,0,0,0,0,0
12048000,0.0,-0.0,0.00608349,0.0,0.999995,0.0,0.0,0.00304174,0.0,0.0,-0.08,1,0,0,0,0,0
12148000,0.0,-0.0,0.00607145,0.0,0.999995,0.0,0.0,0.00303572,0.0,0.0,-0.08,1,0,0,0,0,0
12248000,0.0,-0.0,0.00607413,0.0,0.999995,0.0,0.0,0.00303706,0.0,0.0,-0.08,1,0,0,0,0,0
12348000,0.0,-0.0,0.00647031,0.0,0.999995,0.0,0.0,0.00323515,0.0,0.0,-0.08,1,0,0,0,0,0
12444000,0.0,-0.0,0.00640947,0.0,0.999995,0.0,0.0,0.00320473,0.0,0.0,-0.08,1,0,0,0,0,0
12544000,0.0,-0.0,0.00644753,0.0,0.999995,0.0,0.0,0.00322376,0.0,0.0,-0.08,1,0,0,0,0,0
12640000,0.0,-0.0,0.00651758,0.0,0.999995,0.0,0.0,0.00325879,0.0,0.0,-0.08,1,0,0,0,0,0
12736000,0.0,-0.0,0.00659102,0.0,0.999995,0.0,0.0,0.0032955,0.0,0.0,-0.08,1,0,0,0,0,0
12836000,0.0,-0.0,0.00644411,0.0,0.999995,0.0,0.0,0.00322205,0.0,0.0,-0.08,1,0,0,0,0,0
12936000,0.0,-0.0,0.00659554,0.0,0.999995,0.0,0.0,0.00329776,0.0,0.0,-0.08,1,0,0,0,0,0
13032000,0.0,-0.0,0.00698906,0.0,0.999994,0.0,0.0,0.00349452,0.0,0.0,-0.08,1,0,0,0,0,0
13132000,0.0,-0.0,0.00711856,0.0,0.999994,0.0,0.0,0.00355927,0.0,0.0,-0.08,1,0,0,0,0,0
13232000,0.0,-0.0,0.00696759,0.0,0.999994,0.0,0.0,0.00348379,0.0,0.0,-0.08,1,0,0,0,0,0
13328000,0.0,-0.0,0.00692658,0.0,0.999994,0.0,0.0,0.00346328,0.0,0.0,-0.08,1,0,0,0,0,0
13428000,0.0,-0.0,0.00711646,0.0,0.999994,0.0,0.0,0.00355822,0.0,0.0,-0.08,1,0,0,0,0,0
13524000,0.0,-0.0,0.00674778,0.0,0.999994,0.0,0.0,0.00337388,0.0,0.0,-0.08,1,0,0,0,0,0
13624000,0.0,-0.0,0.00672904,0.0,0.999994,0.0,0.0,0.00336451,0.0,0.0,-0.08,1,0,0,0,0,0
13720000,0.0,-0.0,0.00685392,0.0,0.999994,0.0,0.0,0.00342695,0.0,0.0,-0.08,1,0,0,0,0,0
13816000,0.0,-0.0,0.00693704,0.0,0.999994,0.0,0.0,0.00346851,0.0,0.0,-0.08,1,0,0,0,0,0
13916000,0.0,-0.0,0.00727206,0.0,0.999993,0.0,0.0,0.00363602,0.0,0.0,-0.08,1,0,0,0,0,0
14016000,0.0,-0.0,0.00730442,0.0,0.999993,0.0,0.0,0.0036522,0.0,0.0,-0.08,1,0,0,0,0,0
14116000,0.0,-0.0,0.00712554,0.0,0.999994,0.0,0.0,0.00356276,0.0,0.0,-0.08,1,0,0,0,0,0
14216000,0.0,-0.0,0.00696719,0.0,0.999994,0.0,0.0,0.00348359,0.0,0.0,-0.08,1,0,0,0,0,0
14312000,0.0,-0.0,0.00695923,0.0,0.999994,0.0,0.0,0.00347961,0.0,0.0,-0.08,1,0,0,0,0,0
14412000,0.0,-0.0,0.0072489,0.0,0.999993,0.0,0.0,0.00362444,0.0,0.0,-0.08,1,0,0,0,0,0
14508000,0.0,-0.0,0.00750598,0.0,0.999993,0.0,0.0,0.00375298,0.0,0.0,-0.08,1,0,0,0,0,0
14600000,0.0,-0.0,0.00765832,0.0,0.999993,0.0,0.0,0.00382915,0.0,0.0,-0.08,1,0,0,0,0,0
14696000,0.0,-0.0,0.00743924,0.0,0.999993,0.0,0.0,0.00371961,0.0,0.0,-0.08,1,0,0,0,0,0
14796000,0.0,-0.0,0.00748593,0.0,0.999993,0.0,0.0,0.00374295,0.0,0.0,-0.08,1,0,0,0,0,0
14892000,0.0,-0.0,0.0076408,0.0,0.999993,0.0,0.0,0.00382039,0.0,0.0,-0.08,1,0,0,0,0,0
14992000,0.0,-0.0,0.00754076,0.0,0.999993,0.0,0.0,0.00377037,0.0,0.0,-0.08,1,0,0,0,0,0
15084000,0.0,-0.0,0.00748049,0.0,0.999993,0.0,0.0,0.00374023,0.0,0.0,-0.08,1,0,0,0,0,0
15180000,0.0,-0.0,0.00719015,0.0,0.999994,0.0,0.0,0.00359507,0.0,0.0,-0.08,1,0,0,0,0,0
15280000,0.0,-0.0,0.00737382,0.0,0.999993,0.0,0.0,0.0036869,0.0,0.0,-0.08,1,0,0,0,0,0
15380000,0.0,-0.0,0.00738216,0.0,0.999993,0.0,0.0,0.00369107,0.0,0.0,-0.08,1,0,0,0,0,0
15476000,0.0,-0.0,0.00765428,0.0,0.999993,0.0,0.0,0.00382713,0.0,0.0,-0.08,1,0,0,0,0,0
15568000,0.0,-0.0,0.00748827,0.0,0.999993,0.0,0.0,0.00374413,0.0,0.0,-0.08,1,0,0,0,0,0
15668000,0.0,-0.0,0.00729296,0.0,0.999993,0.0,0.0,0.00364647,0.0,0.0,-0.08,1,0,0,0,0,0
15764000,0.0,-0.0,0.00689308,0.0,0.999994,0.0,0.0,0.00344654,0.0,0.0,-0.08,1,0,0,0,0,0
15864000,0.0,-0.0,0.00710818,0.0,0.999994,0.0,0.0,0.00355408,0.0,0.0,-0.08,1,0,0,0,0,0
15964000,0.0,-0.0,0.00729823,0.0,0.999993,0.0,0.0,0.0036491,0.0,0.0,-0.08,1,0,0,0,0,0
16064000,0.0,-0.0,0.00688723,0.0,0.999994,0.0,0.0,0.00344361,0.0,0.0,-0.08,1,0,0,0,0,0
16160000,0.0,-0.0,0.00672181,0.0,0.999994,0.0,0.0,0.0033609,0.0,0.0,-0.08,1,0,0,0,0,0
16260000,0.0,-0.0,0.00687004,0.0,0.999994,0.0,0.0,0.00343501,0.0,0.0,-0.08,1,0,0,0,0,0
16360000,0.0,-0.0,0.00664022,0.0,0.999995,0.0,0.0,0.0033201,0.0,0.0,-0.08,1,0,0,0,0,0
16460000,0.0,-0.0,0.00694018,0.0,0.999994,0.0,0.0,0.00347008,0.0,0.0,-0.08,1,0,0,0,0,0
16560000,0.0,-0.0,0.00683048,0.0,0.999994,0.0,0.0,0.00341523,0.0,0.0,-0.08,1,0,0,0,0,0
16628000,0.0,-0.0,0.00695964,0.0,0.999994,0.0,0.0,0.00347981,0.0,0.0,-0.08,1,0,0,0,0,0
35872000,0.0,-0.0,0.00894023,0.0,0.99999,0.0,-0.0,0.0044701,0.0,0.0,-0.12,1,0,0,0,0,0
35964000,0.0041747,-0.0050314,0.0087132,0.0,0.999985,0.00209828,-0.00250657,0.00436181,0.0,0.0,-0.120003,1,0,0,0,0,0
36060000,-0.00523271,0.000224037,0.0087132,0.0,0.999987,-0.00261682,0.000100619,0.00435686,0.0,0.0,-0.150229,1,0,0,0,0,0
36152000,-0.00660214,-0.00199163,0.0087132,0.0,0.999985,-0.00329669,-0.00101018,0.00435327,0.0,0.0,-0.21428,1,0,0,0,0,0
36244000,-0.00322188,-0.0015758,0.0087132,0.0,0.999989,-0.00160749,-0.000794907,0.00435531,0.0,0.0,-0.279702,1,0,0,0,0,0
36340000,-0.00262477,-0.000672892,0.0087132,0.0,0.99999,-0.00131091,-0.00034216,0.00435614,0.0,0.0,-0.349686,1,0,0,0,0,0
36432000,-0.000617107,-0.00159051,0.0087132,0.0,0.99999,-0.000305086,-0.000796589,0.00435634,0.0,0.0,-0.417872,1,0,0,0,0,0
36524000,0.00173137,-0.00236281,0.0087132,0.0,0.999989,0.000870821,-0.00117762,0.0043576,0.0,0.0,-0.487141,1,0,0,0,0,0
36620000,0.00152384,-0.00253255,0.0087132,0.0,0.999989,0.000767426,-0.00126294,0.00435755,0.0,0.0,-0.547498,1,0,0,0,0,0
36712000,0.000944296,-0.00109806,0.0087132,0.0,0.99999,0.000474535,-0.000546967,0.00435684,0.0,0.0,-0.554396,1,0,0,0,0,0
36804000,0.00114109,-0.000642525,0.0087132,0.0,0.99999,0.00057194,-0.000318774,0.00435677,0.0,0.0,-0.551502,1,0,0,0,0,0
36900000,0.00192107,-0.000671689,0.0087132,0.0,0.99999,0.000961987,-0.000331657,0.00435691,0.0,0.0,-0.557813,1,0,0,0,0,0
36992000,0.000455749,3.46969e-05,0.0087132,0.0,0.99999,0.000227797,1.8341e-05,0.00435658,0.0,0.0,-0.556262,1,0,0,0,0,0
37084000,-0.00092165,0.00038066,0.0087132,0.0,0.99999,-0.00046165,0.000188321,0.00435667,0.0,0.0,-0.555342,1,0,0,0,0,0
37180000,-0.00138779,0.000132552,0.0087132,0.0,0.99999,-0.000694177,6.32522e-05,0.00435663,0.0,0.0,-0.561912,1,0,0,0,0,0
37272000,-0.000851449,-8.97798e-05,0.0087132,0.0,0.99999,-0.000425525,-4.67442e-05,0.00435657,0.0,0.0,-0.558083,1,0,0,0,0,0
37364000,-0.00197723,0.00023421,0.0087132,0.0,0.99999,-0.000989114,0.000112797,0.0043567,0.0,0.0,-0.556845,1,0,0,0,0,0
37460000,-0.00191252,0.00045781,0.0087132,0.0,0.99999,-0.000957247,0.000224737,0.0043568,0.0,0.0,-0.563184,1,0,0,0,0,0
37552000,-0.00277834,0.00151362,0.0087132,0.0,0.999989,-0.00139245,0.000750752,0.00435763,0.0,0.0,-0.559456,1,0,0,0,0,0
37644000,-0.00342838,0.00263122,0.0087132,0.0,0.999988,-0.00171991,0.00130813,0.00435883,0.0,0.0,-0.55699,1,0,0,0,0,0
37740000,-0.00313259,0.00104024,0.0087132,0.0,0.999989,-0.00156855,0.000513292,0.0043574,0.0,0.0,-0.564082,1,0,0,0,0,0
37832000,-0.0042678,0.0019907,0.0087132,0.0,0.999988,-0.00213821,0.000986042,0.0043587,0.0,0.0,-0.56023,1,0,0,0,0,0
37924000,-0.00304389,0.0020291,0.0087132,0.0,0.999989,-0.00152635,0.00100791,0.00435812,0.0,0.0,-0.557884,1,0,0,0,0,0
38020000,-0.0020301,0.0020536,0.0087132,0.0,0.999989,-0.00101951,0.00102237,0.00435762,0.0,0.0,-0.564109,1,0,0,0,0,0
38112000,-0.00144673,0.00225427,0.0087132,0.0,0.99999,-0.000728267,0.00112397,0.0043574,0.0,0.0,-0.559898,1,0,0,0,0,0
38204000,-0.00227992,0.00295315,0.0087132,0.0,0.999989,-0.00114638,0.00147159,0.00435826,0.0,0.0,-0.556452,1,0,0,0,0,0
38300000,-0.00455095,0.00423199,0.0087132,0.0,0.999986,-0.00228467,0.00210605,0.00436138,0.0,0.0,-0.56297,1,0,0,0,0,0
38392000,-0.00462564,0.00554589,0.0087132,0.0,0.999984,-0.00232487,0.00276283,0.00436297,0.0,0.0,-0.558469,1,0,0,0,0,0
38484000,-0.00453389,0.00581977,0.0087132,0.0,0.999984,-0.00227959,0.00289997,0.00436315,0.0,0.0,-0.528922,1,0,0,0,0,0
38580000,-0.00607976,0.00639154,0.0087132,0.0,0.999981,-0.00305375,0.00318248,0.00436626,0.0,0.0,-0.455806,1,0,0,0,0,0
38672000,-0.00751654,0.00644794,0.0087132,0.0,0.999978,-0.00377225,0.00320754,0.00436865,0.0,0.0,-0.441859,1,0,0,0,0,0
38764000,-0.00793264,0.00548723,0.0087132,0.0,0.999979,-0.00397821,0.00272628,0.00436742,0.0,0.0,-0.443457,1,0,0,0,0,0
38860000,-0.00679225,0.00523357,0.0087132,0.0,0.999981,-0.00340747,0.00260195,0.00436543,0.0,0.0,-0.453164,1,0,0,0,0,0
38952000,-0.00635849,0.00694649,0.0087132,0.0,0.999979,-0.00319432,0.00345934,0.00436758,0.0,0.0,-0.451641,1,0,0,0,0,0
39044000,-0.00628123,0.00629021,0.0087132,0.0,0.999981,-0.00315427,0.00313137,0.00436642,0.0,0.0,-0.448908,1,0,0,0,0,0
39140000,-0.0060907,0.00665216,0.0087132,0.0,0.99998,-0.00305979,0.00331276,0.00436667,0.0,0.0,-0.45894,1,0,0,0,0,0
39232000,-0.00657007,0.00596465,0.0087132,0.0,0.999981,-0.00329798,0.00296797,0.00436634,0.0,0.0,-0.459978,1,0,0,0,0,0
39324000,-0.00621717,0.00567418,0.0087132,0.0,0.999982,-0.0031209,0.0028235,0.00436537,0.0,0.0,-0.459771,1,0,0,0,0,0
39420000,-0.00719489,0.00582574,0.0087132,0.0,0.99998,-0.00361008,0.00289715,0.00436702,0.0,0.0,-0.469222,1,0,0,0,0,0
39512000,-0.00618966,0.00543501,0.0087132,0.0,0.999982,-0.00310662,0.00270398,0.00436496,0.0,0.0,-0.469055,1,0,0,0,0,0
39604000,-0.00579658,0.0050592,0.0087132,0.0,0.999983,-0.00290927,0.00251694,0.00436389,0.0,0.0,-0.467166,1,0,0,0,0,0
39700000,-0.00627382,0.00548934,0.0087132,0.0,0.999982,-0.00314882,0.00273096,0.00436516,0.0,0.0,-0.476814,1,0,0,0,0,0
39792000,-0.00699284,0.00505788,0.0087132,0.0,0.999981,-0.00350739,0.00251366,0.00436539,0.0,0.0,-0.474816,1,0,0,0,0,0
39884000,-0.00754202,0.00472926,0.0087132,0.0,0.999981,-0.00378126,0.00234816,0.00436546,0.0,0.0,-0.474051,1,0,0,0,0,0
39980000,-0.00693102,0.00432711,0.0087132,0.0,0.999982,-0.00347489,0.00214842,0.00436405,0.0,0.0,-0.483407,1,0,0,0,0,0
40072000,-0.00561083,0.00340135,0.0087132,0.0,0.999985,-0.00281279,0.00168843,0.00436133,0.0,0.0,-0.481392,1,0,0,0,0,0
40164000,-0.00527326,0.00385206,0.0087132,0.0,0.999985,-0.00264499,0.00191452,0.00436164,0.0,0.0,-0.482947,1,0,0,0,0,0
40260000,-0.00540244,0.00295647,0.0087132,0.0,0.999986,-0.00270763,0.00146645,0.00436056,0.0,0.0,-0.489734,1,0,0,0,0,0
40352000,-0.005549,0.00227727,0.0087132,0.0,0.999986,-0.00277943,0.00112653,0.00435973,0.0,0.0,-0.48592,1,0,0,0,0,0
40444000,-0.00411907,0.00306284,0.0087132,0.0,0.999987,-0.00206618,0.00152243,0.00435973,0.0,0.0,-0.483857,1,0,0,0,0,0
40540000,-0.00446826,0.00169934,0.0087132,0.0,0.999988,-0.00223781,0.000839927,0.00435847,0.0,0.0,-0.490072,1,0,0,0,0,0
40632000,-0.00324338,0.000198151,0.0087132,0.0,0.999989,-0.00162211,9.20094e-05,0.00435674,0.0,0.0,-0.487434,1,0,0,0,0,0
40724000,-0.0049781,-0.00185626,0.0087132,0.0,0.999987,-0.00248498,-0.00093896,0.00435426,0.0,0.0,-0.48309,1,0,0,0,0,0
40820000,-0.00407611,-0.000981723,0.0087132,0.0,0.999988,-0.0020359,-0.000499735,0.00435558,0.0,0.0,-0.490694,1,0,0,0,0,0
40912000,-0.00514928,-0.000118831,0.0087132,0.0,0.999987,-0.00257435,-7.06314e-05,0.00435642,0.0,0.0,-0.489024,1,0,0,0,0,0
41004000,-0.00712844,-0.000722547,0.0087132,0.0,0.999984,-0.00356261,-0.000376795,0.00435527,0.0,0.0,-0.487242,1,0,0,0,0,0
41100000,-0.00535927,-0.00205397,0.0087132,0.0,0.999986,-0.00267513,-0.00103865,0.00435382,0.0,0.0,-0.495757,1,0,0,0,0,0
41192000,-0.00475457,-0.00261688,0.0087132,0.0,0.999987,-0.00237156,-0.00131878,0.00435346,0.0,0.0,-0.491115,1,0,0,0,0,0
41284000,-0.00451129,-0.00328911,0.0087132,0.0,0.999987,-0.00224845,-0.00165436,0.00435286,0.0,0.0,-0.4875,1,0,0,0,0,0
41380000,-0.00580827,-0.002036,0.0087132,0.0,0.999986,-0.00289967,-0.00103064,0.00435361,0.0,0.0,-0.494684,1,0,0,0,0,0
41472000,-0.00623057,-0.0030381,0.0087132,0.0,0.999985,-0.00310863,-0.0015326,0.00435183,0.0,0.0,-0.490573,1,0,0,0,0,0
41564000,-0.00544353,-0.00378352,0.0087132,0.0,0.999985,-0.00271349,-0.00190359,0.00435141,0.0,0.0,-0.487257,1,0,0,0,0,0
41660000,-0.0039163,-0.00371715,0.0087132,0.0,0.999987,-0.00195003,-0.00186708,0.00435293,0.0,0.0,-0.494487,1,0,0,0,0,0
41752000,-0.0049798,-0.0029882,0.0087132,0.0,0.999986,-0.00248336,-0.00150493,0.00435285,0.0,0.0,-0.491166,1,0,0,0,0,0
41844000,-0.00614893,-0.00210357,0.0087132,0.0,0.999985,-0.00306985,-0.00106516,0.00435333,0.0,0.0,-0.486667,1,0,0,0,0,0
41940000,-0.00469454,-0.00304933,0.0087132,0.0,0.999987,-0.0023406,-0.00153487,0.00435299,0.0,0.0,-0.494764,1,0,0,0,0,0
42032000,-0.00397018,-0.0026685,0.0087132,0.0,0.999988,-0.00197925,-0.00134288,0.00435393,0.0,0.0,-0.491485,1,0,0,0,0,0
42124000,-0.00592003,-0.00159043,0.0087132,0.0,0.999986,-0.00295652,-0.000808101,0.00435421,0.0,0.0,-0.489019,1,0,0,0,0,0
42220000,-0.00531125,-0.00177795,0.0087132,0.0,0.999987,-0.00265172,-0.000900535,0.00435421,0.0,0.0,-0.493755,1,0,0,0,0,0
42312000,-0.00445371,-0.00121093,0.0087132,0.0,0.999988,-0.00222419,-0.000615157,0.00435523,0.0,0.0,-0.490428,1,0,0,0,0,0
42404000,-0.00468568,-0.000279013,0.0087132,0.0,0.999988,-0.00234221,-0.000149712,0.00435625,0.0,0.0,-0.4881,1,0,0,0,0,0
42500000,-0.00397791,-0.000673359,0.0087132,0.0,0.999988,-0.00198747,-0.00034534,0.00435591,0.0,0.0,-0.49414,1,0,0,0,0,0
42592000,-0.00479735,-0.000931806,0.0087132,0.0,0.999988,-0.00239662,-0.000476347,0.00435546,0.0,0.0,-0.491775,1,0,0,0,0,0
42684000,-0.00475472,-0.000800209,0.0087132,0.0,0.999988,-0.00237559,-0.000410457,0.00435562,0.0,0.0,-0.488909,1,0,0,0,0,0
42780000,-0.0038337,0.00087162,0.0087132,0.0,0.999989,-0.00191873,0.000427454,0.00435741,0.0,0.0,-0.494135,1,0,0,0,0,0
42872000,-0.00310547,0.00170887,0.0087132,0.0,0.999989,-0.00155644,0.000847662,0.00435791,0.0,0.0,-0.490304,1,0,0,0,0,0
42964000,-0.00422614,0.00180075,0.0087132,0.0,0.999988,-0.00211697,0.000891157,0.00435848,0.0,0.0,-0.487964,1,0,0,0,0,0
43060000,-0.00465427,0.00254886,0.0087132,0.0,0.999987,-0.00233266,0.00126428,0.00435954,0.0,0.0,-0.490055,1,0,0,0,0,0
43156000,-0.00343826,0.00221032,0.0087132,0.0,0.999988,-0.00172393,0.00109766,0.00435848,0.0,0.0,-0.525105,1,0,0,0,0,0
43248000,-0.00357209,0.00250489,0.0087132,0.0,0.999988,-0.00179148,0.00124465,0.00435881,0.0,0.0,-0.558568,1,0,0,0,0,0
43340000,-0.00377538,0.00044989,0.0087132,0.0,0.999989,-0.00188865,0.000216719,0.004357,0.0,0.0,-0.588685,1,0,0,0,0,0
43436000,-0.00405317,0.000852891,0.0087132,0.0,0.999988,-0.00202842,0.000417612,0.00435744,0.0,0.0,-0.648113,1,0,0,0,0,0
43528000,-0.00385868,0.0023563,0.0087132,0.0,0.999988,-0.00193445,0.00116973,0.00435885,0.0,0.0,-0.659955,1,0,0,0,0,0
43620000,-0.00407803,0.00157568,0.0087132,0.0,0.999988,-0.00204243,0.00077895,0.00435818,0.0,0.0,-0.633398,1,0,0,0,0,0
43716000,-0.00511939,0.00296149,0.0087132,0.0,0.999986,-0.00256611,0.00146957,0.00436036,0.0,0.0,-0.619503,1,0,0,0,0,0
43808000,-0.00668459,0.00361758,0.0087132,0.0,0.999983,-0.00335013,0.0017942,0.0043626,0.0,0.0,-0.550096,1,0,0,0,0,0
43900000,-0.00894258,0.00502173,0.0087132,0.0,0.999977,-0.00448215,0.00249134,0.00436776,0.0,0.0,-0.504118,1,0,0,0,0,0
43996000,-0.0104834,0.00480092,0.0087132,0.0,0.999974,-0.00525206,0.00237756,0.0043691,0.0,0.0,-0.5004,1,0,0,0,0,0
44088000,-0.00928878,0.00408494,0.0087132,0.0,0.999978,-0.00465322,0.00202219,0.00436602,0.0,0.0,-0.499168,1,0,0,0,0,0
44180000,-0.0108741,0.00453083,0.0087132,0.0,0.999973,-0.00544685,0.00224167,0.00436883,0.0,0.0,-0.498985,1,0,0,0,0,0
44276000,-0.0105478,0.00390838,0.0087132,0.0,0.999975,-0.00528235,0.00193117,0.00436682,0.0,0.0,-0.496704,1,0,0,0,0,0
44368000,-0.00941527,0.00484759,0.0087132,0.0,0.999976,-0.00471812,0.00240324,0.00436794,0.0,0.0,-0.49446,1,0,0,0,0,0
44460000,-0.00712839,0.0044277,0.0087132,0.0,0.999982,-0.00357379,0.00219828,0.00436444,0.0,0.0,-0.493404,1,0,0,0,0,0
44556000,-0.00706767,0.00438873,0.0087132,0.0,0.999982,-0.00354335,0.00217893,0.0043643,0.0,0.0,-0.493165,1,0,0,0,0,0
44648000,-0.00715756,0.00262365,0.0087132,0.0,0.999983,-0.00358445,0.00129621,0.00436125,0.0,0.0,-0.493675,1,0,0,0,0,0
44740000,-0.00830695,0.000944145,0.0087132,0.0,0.999982,-0.00415548,0.000453969,0.00435851,0.0,0.0,-0.492933,1,0,0,0,0,0
44836000,-0.00672651,-8.71184e-05,0.0087132,0.0,0.999985,-0.00336303,-5.82108e-05,0.00435642,0.0,0.0,-0.492829,1,0,0,0,0,0
44928000,-0.00645049,-0.000400335,0.0087132,0.0,0.999985,-0.00322434,-0.000214215,0.00435592,0.0,0.0,-0.493861,1,0,0,0,0,0
45020000,-0.00774068,-0.00262251,0.0087132,0.0,0.999982,-0.00386458,-0.0013281,0.00435147,0.0,0.0,-0.488102,1,0,0,0,0,0
45116000,-0.00707733,-0.00341532,0.0087132,0.0,0.999983,-0.00353118,-0.00172305,0.00435051,0.0,0.0,-0.496506,1,0,0,0,0,0
45208000,-0.00685689,-0.00135827,0.0087132,0.0,0.999984,-0.00342545,-0.000694061,0.00435423,0.0,0.0,-0.492693,1,0,0,0,0,0
45300000,-0.00709896,-0.000718779,0.0087132,0.0,0.999984,-0.00354787,-0.000374847,0.00435528,0.0,0.0,-0.486082,1,0,0,0,0,0
45396000,-0.00723519,-0.000687865,0.0087132,0.0,0.999984,-0.00361606,-0.000359688,0.00435531,0.0,0.0,-0.500147,1,0,0,0,0,0
45488000,-0.00676252,-0.0015666,0.0087132,0.0,0.999985,-0.00337781,-0.000798021,0.00435391,0.0,0.0,-0.493021,1,0,0,0,0,0
45580000,-0.00596201,-0.00185624,0.0087132,0.0,0.999986,-0.00297693,-0.000941093,0.0043538,0.0,0.0,-0.488511,1,0,0,0,0,0
45676000,-0.00527613,-0.00155136,0.0087132,0.0,0.999987,-0.00263466,-0.000787164,0.00435452,0.0,0.0,-0.502635,1,0,0,0,0,0
45768000,-0.00613964,-0.00128361,0.0087132,0.0,0.999986,-0.00306699,-0.000655172,0.0043546,0.0,0.0,-0.494547,1,0,0,0,0,0
45860000,-0.00527249,-0.00035777,0.0087132,0.0,0.999987,-0.00263544,-0.000190368,0.0043561,0.0,0.0,-0.488972,1,0,0,0,0,0
45956000,-0.00596277,-0.000387405,0.0087132,0.0,0.999986,-0.00298051,-0.000206689,0.00435599,0.0,0.0,-0.503842,1,0,0,0,0,0
46048000,-0.00609764,-0.000512032,0.0087132,0.0,0.999986,-0.00304767,-0.000269295,0.00435579,0.0,0.0,-0.497534,1,0,0,0,0,0
46140000,-0.00584925,-0.000136609,0.0087132,0.0,0.999986,-0.0029243,-8.10449e-05,0.00435637,0.0,0.0,-0.489599,1,0,0,0,0,0
46236000,-0.00742701,-0.000547324,0.0087132,0.0,0.999984,-0.00371227,-0.000289836,0.00435554,0.0,0.0,-0.503045,1,0,0,0,0,0
46328000,-0.00779135,0.00115832,0.0087132,0.0,0.999983,-0.00389815,0.000562177,0.00435881,0.0,0.0,-0.494774,1,0,0,0,0,0
46420000,-0.00733219,0.0013224,0.0087132,0.0,0.999984,-0.00366893,0.000645217,0.00435898,0.0,0.0,-0.490221,1,0,0,0,0,0
46516000,-0.00718309,0.000614848,0.0087132,0.0,0.999984,-0.00359284,0.000291772,0.00435766,0.0,0.0,-0.500539,1,0,0,0,0,0
46608000,-0.00617116,0.000425293,0.0087132,0.0,0.999986,-0.00308647,0.000199201,0.00435722,0.0,0.0,-0.490728,1,0,0,0,0,0
46700000,-0.00545587,0.00136579,0.0087132,0.0,0.999987,-0.00273088,0.000671001,0.00435843,0.0,0.0,-0.485201,1,0,0,0,0,0
46796000,-0.00486131,0.000505161,0.0087132,0.0,0.999988,-0.00243173,0.000241988,0.00435719,0.0,0.0,-0.497817,1,0,0,0,0,0
46888000,-0.00354499,0.000673461,0.0087132,0.0,0.999989,-0.00177394,0.000329005,0.00435718,0.0,0.0,-0.491364,1,0,0,0,0,0
46980000,-0.00499147,-0.000561791,0.0087132,0.0,0.999987,-0.00249448,-0.000291765,0.00435587,0.0,0.0,-0.486755,1,0,0,0,0,0
47076000,-0.00551945,0.000281186,0.0087132,0.0,0.999987,-0.00276031,0.000128568,0.00435696,0.0,0.0,-0.501119,1,0,0,0,0,0
47168000,-0.00620309,0.00154767,0.0087132,0.0,0.999985,-0.00310488,0.000760312,0.00435896,0.0,0.0,-0.494331,1,0,0,0,0,0
47260000,-0.00762043,0.00209657,0.0087132,0.0,0.999983,-0.00381473,0.00103167,0.00436055,0.0,0.0,-0.487528,1,0,0,0,0,0
47356000,-0.00559451,0.00296148,0.0087132,0.0,0.999986,-0.00280367,0.00146853,0.00436071,0.0,0.0,-0.500868,1,0,0,0,0,0
47448000,-0.00675534,0.000886989,0.0087132,0.0,0.999985,-0.00337957,0.000428773,0.00435806,0.0,0.0,-0.493105,1,0,0,0,0,0
47540000,-0.00522077,0.000231191,0.0087132,0.0,0.999987,-0.00261086,0.000104222,0.00435687,0.0,0.0,-0.487659,1,0,0,0,0,0
47636000,-0.00257199,-0.000483408,0.0087132,0.0,0.99999,-0.00128493,-0.000247304,0.00435627,0.0,0.0,-0.501538,1,0,0,0,0,0
47728000,-0.00340605,-0.000664702,0.0087132,0.0,0.999989,-0.00170156,-0.000339767,0.00435601,0.0,0.0,-0.495343,1,0,0,0,0,0
47820000,-0.00388278,-0.00109198,0.0087132,0.0,0.999988,-0.00193899,-0.000554441,0.00435552,0.0,0.0,-0.488739,1,0,0,0,0,0
47916000,-0.00354757,-0.00109547,0.0087132,0.0,0.999989,-0.00177138,-0.000555457,0.00435561,0.0,0.0,-0.503078,1,0,0,0,0,0
48008000,-0.00313637,0.000377542,0.0087132,0.0,0.999989,-0.00156899,0.000181937,0.00435688,0.0,0.0,-0.496073,1,0,0,0,0,0
48100000,-0.00293769,0.000914437,0.0087132,0.0,0.999989,-0.00147082,0.000450814,0.00435725,0.0,0.0,-0.489782,1,0,0,0,0,0
48196000,-0.00319,0.000788451,0.0087132,0.0,0.999989,-0.0015967,0.000387272,0.00435721,0.0,0.0,-0.502036,1,0,0,0,0,0
48288000,-0.00363715,0.0016692,0.0087132,0.0,0.999988,-0.00182219,0.00082667,0.0043581,0.0,0.0,-0.495212,1,0,0,0,0,0
48380000,-0.00506888,0.00211895,0.0087132,0.0,0.999987,-0.00253903,0.00104842,0.00435926,0.0,0.0,-0.489036,1,0,0,0,0,0
48476000,-0.00437706,0.00303886,0.0087132,0.0,0.999987,-0.00219512,0.00150988,0.0043599,0.0,0.0,-0.504412,1,0,0,0,0,0
48568000,-0.00375047,0.00239694,0.0087132,0.0,0.999988,-0.00188044,0.00119029,0.00435882,0.0,0.0,-0.497171,1,0,0,0,0,0
48660000,-0.0027234,0.00102499,0.0087132,0.0,0.999989,-0.00136392,0.00050656,0.00435728,0.0,0.0,-0.490008,1,0,0,0,0,0
48756000,-0.00287612,0.00133029,0.0087132,0.0,0.999989,-0.00144094,0.000658874,0.00435754,0.0,0.0,-0.505805,1,0,0,0,0,0
48848000,-0.0022258,0.000212799,0.0087132,0.0,0.99999,-0.00111335,0.00010155,0.0043567,0.0,0.0,-0.498873,1,0,0,0,0,0
48940000,-0.00188854,-0.000900614,0.0087132,0.0,0.99999,-0.000942297,-0.000454416,0.00435616,0.0,0.0,-0.492176,1,0,0,0,0,0
49036000,-0.00191196,0.000160046,0.0087132,0.0,0.99999,-0.00095632,7.58575e-05,0.00435666,0.0,0.0,-0.504656,1,0,0,0,0,0
49128000,-0.00157742,0.00115258,0.0087132,0.0,0.99999,-0.000791211,0.000572849,0.00435704,0.0,0.0,-0.496311,1,0,0,0,0,0
49220000,-0.000607057,0.00249811,0.0087132,0.0,0.99999,-0.000308967,0.00124772,0.00435696,0.0,0.0,-0.490971,1,0,0,0,0,0
49316000,-0.00136635,0.00300582,0.0087132,0.0,0.999989,-0.000689713,0.00149992,0.00435761,0.0,0.0,-0.505769,1,0,0,0,0,0
49408000,-0.00157856,0.00376714,0.0087132,0.0,0.999988,-0.000797475,0.00188011,0.00435806,0.0,0.0,-0.498239,1,0,0,0,0,0
49500000,-0.00041606,0.00194021,0.0087132,0.0,0.99999,-0.000212254,0.00096919,0.00435679,0.0,0.0,-0.49242,1,0,0,0,0,0
49596000,-0.000276606,0.0016676,0.0087132,0.0,0.99999,-0.000141934,0.000833187,0.0043567,0.0,0.0,-0.505993,1,0,0,0,0,0
49688000,-0.000416664,0.00159973,0.0087132,0.0,0.99999,-0.000211815,0.000798948,0.00435675,0.0,0.0,-0.497609,1,0,0,0,0,0
49780000,0.000407772,0.000691253,0.0087132,0.0,0.99999,0.000202378,0.000346512,0.00435652,0.0,0.0,-0.491619,1,0,0,0,0,0
49876000,0.000764234,0.00022602,0.0087132,0.0,0.99999,0.000381621,0.000114674,0.00435654,0.0,0.0,-0.504682,1,0,0,0,0,0
49968000,0.000123157,0.000604424,0.0087132,0.0,0.99999,6.02611e-05,0.000302477,0.00435657,0.0,0.0,-0.496219,1,0,0,0,0,0
50060000,0.000447223,-0.000489963,0.0087132,0.0,0.99999,0.000224677,-0.000244005,0.00435664,0.0,0.0,-0.48994,1,0,0,0,0,0
50156000,0.00171838,0.00010904,0.0087132,0.0,0.99999,0.000858943,5.82624e-05,0.00435654,0.0,0.0,-0.503106,1,0,0,0,0,0
50248000,0.0016831,0.000380805,0.0087132,0.0,0.99999,0.000840714,0.000194067,0.00435642,0.0,0.0,-0.494267,1,0,0,0,0,0
50340000,0.00160663,-0.000848972,0.0087132,0.0,0.99999,0.000805157,-0.000420982,0.00435693,0.0,0.0,-0.488406,1,0,0,0,0,0
50436000,0.00126569,-0.000436896,0.0087132,0.0,0.99999,0.000633789,-0.000215689,0.00435672,0.0,0.0,-0.503936,1,0,0,0,0,0
50528000,0.00091993,-0.000384106,0.0087132,0.0,0.99999,0.000460797,-0.000190047,0.00435667,0.0,0.0,-0.49764,1,0,0,0,0,0
50620000,0.000588351,0.000388441,0.0087132,0.0,0.99999,0.000293326,0.0001955,0.00435653,0.0,0.0,-0.489839,1,0,0,0,0,0
50716000,0.000209916,0.00202633,0.0087132,0.0,0.99999,0.000100543,0.00101361,0.00435648,0.0,0.0,-0.5028,1,0,0,0,0,0
50808000,0.000285917,0.00128889,0.0087132,0.0,0.99999,0.00014015,0.00064506,0.00435649,0.0,0.0,-0.494984,1,0,0,0,0,0
50900000,-0.00178366,0.00222806,0.0087132,0.0,0.99999,-0.000896674,0.00111013,0.00435758,0.0,0.0,-0.489297,1,0,0,0,0,0
50996000,-0.00210895,0.00149177,0.0087132,0.0,0.99999,-0.00105771,0.000741282,0.00435737,0.0,0.0,-0.503096,1,0,0,0,0,0
51088000,-0.00130398,0.00163707,0.0087132,0.0,0.99999,-0.000655548,0.000815688,0.00435712,0.0,0.0,-0.495232,1,0,0,0,0,0
51180000,-0.00120919,0.00214891,0.0087132,0.0,0.99999,-0.00060927,0.00107181,0.00435723,0.0,0.0,-0.488112,1,0,0,0,0,0
51276000,2.96242e-05,0.00257354,0.0087132,0.0,0.99999,9.20601e-06,0.00128682,0.00435656,0.0,0.0,-0.501343,1,0,0,0,0,0
51368000,-0.00153994,0.00130576,0.0087132,0.0,0.99999,-0.000772807,0.000649517,0.00435709,0.0,0.0,-0.494233,1,0,0,0,0,0
51460000,-0.00065948,0.00092227,0.0087132,0.0,0.99999,-0.000331746,0.000459694,0.00435674,0.0,0.0,-0.48795,1,0,0,0,0,0
51556000,-0.000613944,0.0005292,0.0087132,0.0,0.99999,-0.000308122,0.00026326,0.00435667,0.0,0.0,-0.501907,1,0,0,0,0,0
51648000,-0.00172147,-0.000878822,0.0087132,0.0,0.99999,-0.000858813,-0.000443156,0.00435621,0.0,0.0,-0.495901,1,0,0,0,0,0
51740000,-0.00138025,-0.000889784,0.0087132,0.0,0.99999,-0.000688181,-0.000447894,0.00435628,0.0,0.0,-0.491467,1,0,0,0,0,0
51836000,-0.0025091,-0.00052641,0.0087132,0.0,0.99999,-0.00125339,-0.000268668,0.00435625,0.0,0.0,-0.502684,1,0,0,0,0,0
51928000,-0.00272807,-0.00172175,0.0087132,0.0,0.999989,-0.00136027,-0.00086681,0.00435541,0.0,0.0,-0.499597,1,0,0,0,0,0
52024000,-0.00256116,-0.00222103,0.0087132,0.0,0.999989,-0.00127573,-0.00111608,0.00435516,0.0,0.0,-0.500206,1,0,0,0,0,0
52116000,-0.00135441,-0.00200245,0.0087132,0.0,0.99999,-0.000672835,-0.00100416,0.00435591,0.0,0.0,-0.492954,1,0,0,0,0,0
52212000,-0.0011277,-0.00242233,0.0087132,0.0,0.99999,-0.00055857,-0.00121361,0.0043559,0.0,0.0,-0.49925,1,0,0,0,0,0
52304000,-0.000859539,-0.00293454,0.0087132,0.0,0.999989,-0.000423373,-0.00146913,0.00435595,0.0,0.0,-0.498423,1,0,0,0,0,0
52396000,-0.00167623,-0.00312049,0.0087132,0.0,0.999989,-0.00083131,-0.00156388,0.00435527,0.0,0.0,-0.492894,1,0,0,0,0,0
52492000,-0.00197474,-0.00308932,0.0087132,0.0,0.999989,-0.000980632,-0.00154895,0.00435505,0.0,0.0,-0.498064,1,0,0,0,0,0
52584000,-0.00201544,-0.0011815,0.0087132,0.0,0.99999,-0.00100514,-0.000595133,0.00435599,0.0,0.0,-0.498355,1,0,0,0,0,0
52676000,-0.00080883,-0.00181239,0.0087132,0.0,0.99999,-0.000400463,-0.000907947,0.00435622,0.0,0.0,-0.49132,1,0,0,0,0,0
52772000,-0.00179767,-0.00275931,0.0087132,0.0,0.999989,-0.000892816,-0.00138356,0.00435534,0.0,0.0,-0.500254,1,0,0,0,0,0
52864000,-0.00129122,-0.00302679,0.0087132,0.0,0.999989,-0.00063901,-0.00151619,0.0043556,0.0,0.0,-0.494922,1,0,0,0,0,0
52956000,-0.000492149,-0.00263701,0.0087132,0.0,0.99999,-0.000240328,-0.00131956,0.00435626,0.0,0.0,-0.487547,1,0,0,0,0,0
53052000,0.000696558,-0.00405031,0.0087132,0.0,0.999988,0.000357098,-0.00202362,0.00435728,0.0,0.0,-0.499799,1,0,0,0,0,0
53144000,0.000927922,-0.0053857,0.0087132,0.0,0.999987,0.000475687,-0.0026908,0.00435782,0.0,0.0,-0.49187,1,0,0,0,0,0
53236000,0.00236809,-0.00475951,0.0087132,0.0,0.999987,0.0011944,-0.00237457,0.00435939,0.0,0.0,-0.487957,1,0,0,0,0,0
53332000,0.00143762,-0.00429745,0.0087132,0.0,0.999988,0.000728163,-0.00214557,0.00435812,0.0,0.0,-0.503412,1,0,0,0,0,0
53424000,0.00050776,-0.00330164,0.0087132,0.0,0.999989,0.000261069,-0.0016497,0.004357,0.0,0.0,-0.493203,1,0,0,0,0,0
53516000,0.000109687,-0.0034501,0.0087132,0.0,0.999989,6.23581e-05,-0.0017248,0.00435668,0.0,0.0,-0.488653,1,0,0,0,0,0
53612000,5.07475e-05,-0.0034132,0.0087132,0.0,0.999989,3.28084e-05,-0.00170647,0.00435662,0.0,0.0,-0.503196,1,0,0,0,0,0
53704000,0.000900717,-0.00352827,0.0087132,0.0,0.999989,0.000458039,-0.00176216,0.00435737,0.0,0.0,-0.496556,1,0,0,0,0,0
53796000,0.00135599,-0.0048658,0.0087132,0.0,0.999987,0.000688587,-0.00242992,0.00435822,0.0,0.0,-0.490324,1,0,0,0,0,0
53892000,0.000464524,-0.00469497,0.0087132,0.0,0.999988,0.000242486,-0.00234645,0.00435712,0.0,0.0,-0.501453,1,0,0,0,0,0
53984000,-0.00180194,-0.00407366,0.0087132,0.0,0.999988,-0.000892088,-0.00204073,0.00435474,0.0,0.0,-0.493693,1,0,0,0,0,0
54076000,-0.00348135,-0.00233853,0.0087132,0.0,0.999988,-0.00173556,-0.00117684,0.00435454,0.0,0.0,-0.48712,1,0,0,0,0,0
54172000,-0.0036109,-0.00231103,0.0087132,0.0,0.999988,-0.0018004,-0.00116337,0.00435449,0.0,0.0,-0.499771,1,0,0,0,0,0
54264000,-0.00258866,-0.00105193,0.0087132,0.0,0.99999,-0.00129202,-0.000531599,0.0043559,0.0,0.0,-0.493519,1,0,0,0,0,0
54356000,-0.00148488,-0.00084399,0.0087132,0.0,0.99999,-0.000740592,-0.000425225,0.00435627,0.0,0.0,-0.487293,1,0,0,0,0,0
54452000,-0.0018142,-1.02257e-05,0.0087132,0.0,0.99999,-0.000907069,-9.06467e-06,0.00435658,0.0,0.0,-0.501514,1,0,0,0,0,0
54544000,-0.00108031,-0.00160359,0.0087132,0.0,0.99999,-0.000536657,-0.000804142,0.00435615,0.0,0.0,-0.493702,1,0,0,0,0,0
54636000,-0.00079451,-0.00215963,0.0087132,0.0,0.99999,-0.000392547,-0.00108153,0.00435615,0.0,0.0,-0.487514,1,0,0,0,0,0
54732000,-0.000494218,-0.00224748,0.0087132,0.0,0.99999,-0.000242211,-0.00112481,0.00435631,0.0,0.0,-0.502503,1,0,0,0,0,0
54824000,-0.00148834,-0.00173585,0.0087132,0.0,0.99999,-0.000740381,-0.00087116,0.00435594,0.0,0.0,-0.49513,1,0,0,0,0,0
54916000,-0.0017633,-0.00150869,0.0087132,0.0,0.99999,-0.000878357,-0.000758181,0.00435592,0.0,0.0,-0.488763,1,0,0,0,0,0
55012000,-0.00122717,-0.00223391,0.0087132,0.0,0.99999,-0.000608711,-0.00111962,0.0043559,0.0,0.0,-0.502347,1,0,0,0,0,0
55104000,-0.00155032,-0.000913203,0.0087132,0.0,0.99999,-0.000773163,-0.000459974,0.00435623,0.0,0.0,-0.494727,1,0,0,0,0,0
55196000,-0.00130787,-0.000318097,0.0087132,0.0,0.99999,-0.000653233,-0.000161896,0.00435648,0.0,0.0,-0.488712,1,0,0,0,0,0
55292000,-0.00110676,-0.00040301,0.0087132,0.0,0.99999,-0.000552496,-0.000203914,0.00435647,0.0,0.0,-0.50173,1,0,0,0,0,0
55384000,-0.000583515,8.09337e-05,0.0087132,0.0,0.99999,-0.000291931,3.91954e-05,0.0043566,0.0,0.0,-0.493241,1,0,0,0,0,0
55476000,0.000553528,-0.000663896,0.0087132,0.0,0.99999,0.000278208,-0.000330739,0.00435668,0.0,0.0,-0.487511,1,0,0,0,0,0
55572000,0.00021401,-0.00084528,0.0087132,0.0,0.99999,0.000108845,-0.00042217,0.00435663,0.0,0.0,-0.501415,1,0,0,0,0,0
55664000,0.0008679,-0.000812558,0.0087132,0.0,0.99999,0.000435716,-0.000404385,0.00435676,0.0,0.0,-0.494277,1,0,0,0,0,0
55756000,0.000439125,-0.00179613,0.0087132,0.0,0.99999,0.000223473,-0.000897101,0.00435678,0.0,0.0,-0.489172,1,0,0,0,0,0
55852000,0.000393264,-0.00167308,0.0087132,0.0,0.99999,0.000200275,-0.000835674,0.00435675,0.0,0.0,-0.503735,1,0,0,0,0,0
55944000,0.0011998,-0.00146337,0.0087132,0.0,0.99999,0.00060308,-0.000729063,0.00435702,0.0,0.0,-0.496745,1,0,0,0,0,0
56036000,0.00166679,-0.00339595,0.0087132,0.0,0.999989,0.000840783,-0.00169433,0.00435799,0.0,0.0,-0.490967,1,0,0,0,0,0
56132000,0.00215728,-0.00193241,0.0087132,0.0,0.999989,0.00108284,-0.000961498,0.00435762,0.0,0.0,-0.502907,1,0,0,0,0,0
56224000,0.00128681,0.000402253,0.0087132,0.0,0.99999,0.000642524,0.000203928,0.00435646,0.0,0.0,-0.495992,1,0,0,0,0,0
56316000,0.000385329,-1.02871e-05,0.0087132,0.0,0.999991,0.000192685,-4.30413e-06,0.00435659,0.0,0.0,-0.490892,1,0,0,0,0,0
56412000,-0.000160837,0.00103862,0.0087132,0.0,0.99999,-8.26802e-05,0.000518957,0.00435663,0.0,0.0,-0.501933,1,0,0,0,0,0
56504000,-0.00119224,0.00166601,0.0087132,0.0,0.99999,-0.000599743,0.000830399,0.00435708,0.0,0.0,-0.494081,1,0,0,0,0,0
56596000,-0.000986119,-0.000194717,0.0087132,0.0,0.99999,-0.000492631,-9.95054e-05,0.00435654,0.0,0.0,-0.489708,1,0,0,0,0,0
56692000,-0.00185598,-0.000462151,0.0087132,0.0,0.99999,-0.000926974,-0.000235116,0.00435637,0.0,0.0,-0.502687,1,0,0,0,0,0
56784000,0.000999937,0.000299716,0.0087132,0.0,0.99999,0.000499311,0.000152035,0.00435651,0.0,0.0,-0.495382,1,0,0,0,0,0
56876000,0.0007638,0.00129509,0.0087132,0.0,0.99999,0.000379075,0.000649205,0.00435634,0.0,0.0,-0.488751,1,0,0,0,0,0
56972000,0.000547924,0.000103986,0.0087132,0.0,0.99999,0.000273733,5.3186e-05,0.00435657,0.0,0.0,-0.503047,1,0,0,0,0,0
57064000,0.000339004,0.00119844,0.0087132,0.0,0.99999,0.00016689,0.000599954,0.00435648,0.0,0.0,-0.496628,1,0,0,0,0,0
57156000,0.00120473,0.000347032,0.0087132,0.0,0.99999,0.000601604,0.000176138,0.00435648,0.0,0.0,-0.490288,1,0,0,0,0,0
57252000,0.00103766,0.000891803,0.0087132,0.0,0.99999,0.000516883,0.000448158,0.00435635,0.0,0.0,-0.504159,1,0,0,0,0,0
57344000,-0.000266457,-5.22053e-05,0.0087132,0.0,0.999991,-0.000133114,-2.66828e-05,0.00435658,0.0,0.0,-0.49651,1,0,0,0,0,0
57436000,-0.00036269,0.000263457,0.0087132,0.0,0.999991,-0.000181917,0.000130937,0.00435661,0.0,0.0,-0.49015,1,0,0,0,0,0
57532000,-0.00220127,-0.000158433,0.0087132,0.0,0.99999,-0.00110028,-8.40107e-05,0.0043565,0.0,0.0,-0.504555,1,0,0,0,0,0
57624000,-0.00166704,-0.000431182,0.0087132,0.0,0.99999,-0.000832574,-0.00021922,0.00435641,0.0,0.0,-0.496185,1,0,0,0,0,0
57716000,-0.00250829,0.00236698,0.0087132,0.0,0.999989,-0.00125929,0.00117801,0.00435806,0.0,0.0,-0.49085,1,0,0,0,0,0
57812000,-0.0014089,0.0016809,0.0087132,0.0,0.99999,-0.000708102,0.000837375,0.00435718,0.0,0.0,-0.504097,1,0,0,0,0,0
57904000,-0.00118848,0.00105339,0.0087132,0.0,0.99999,-0.000596527,0.000524099,0.0043569,0.0,0.0,-0.495728,1,0,0,0,0,0
57996000,-0.000205545,-0.000216248,0.0087132,0.0,0.999991,-0.000102301,-0.000108571,0.00435658,0.0,0.0,-0.489596,1,0,0,0,0,0
58092000,-0.000687609,-0.000518743,0.0087132,0.0,0.99999,-0.000342671,-0.000260867,0.0043565,0.0,0.0,-0.502987,1,0,0,0,0,0
58184000,-0.000898682,-0.00108379,0.0087132,0.0,0.99999,-0.000446976,-0.000543849,0.00435634,0.0,0.0,-0.496796,1,0,0,0,0,0
58276000,-0.00173385,-0.00046258,0.0087132,0.0,0.99999,-0.00086591,-0.000235065,0.00435638,0.0,0.0,-0.491541,1,0,0,0,0,0
58372000,-0.00141968,-3.21497e-05,0.0087132,0.0,0.99999,-0.000709763,-1.91671e-05,0.00435657,0.0,0.0,-0.504721,1,0,0,0,0,0
58464000,-0.00104415,0.000681318,0.0087132,0.0,0.99999,-0.000523554,0.000338381,0.00435676,0.0,0.0,-0.497806,1,0,0,0,0,0
58556000,-8.95785e-05,0.00038776,0.0087132,0.0,0.999991,-4.56335e-05,0.000193683,0.0043566,0.0,0.0,-0.49214,1,0,0,0,0,0
58652000,-0.00123675,0.000537698,0.0087132,0.0,0.99999,-0.000619538,0.000266152,0.00435675,0.0,0.0,-0.505977,1,0,0,0,0,0
58744000,-0.00205685,0.00175527,0.0087132,0.0,0.99999,-0.00103224,0.000873145,0.00435749,0.0,0.0,-0.495428,1,0,0,0,0,0
58836000,-0.00205182,0.00174735,0.0087132,0.0,0.99999,-0.00102971,0.000869195,0.00435748,0.0,0.0,-0.489094,1,0,0,0,0,0
58932000,-0.00162597,0.00239837,0.0087132,0.0,0.999989,-0.000818201,0.00119563,0.00435756,0.0,0.0,-0.50322,1,0,0,0,0,0
59024000,-0.00210454,0.00209923,0.0087132,0.0,0.999989,-0.00105683,0.00104502,0.00435769,0.0,0.0,-0.495916,1,0,0,0,0,0
59116000,-0.00277711,0.00216293,0.0087132,0.0,0.999989,-0.00139325,0.0010754,0.00435808,0.0,0.0,-0.490264,1,0,0,0,0,0
59212000,-0.0036941,0.00268485,0.0087132,0.0,0.999988,-0.00185288,0.00133436,0.00435905,0.0,0.0,-0.503339,1,0,0,0,0,0
59304000,-0.00262375,0.0019394,0.0087132,0.0,0.999989,-0.00131609,0.000963977,0.00435785,0.0,0.0,-0.496602,1,0,0,0,0,0
59396000,-0.002513,0.00237695,0.0087132,0.0,0.999989,-0.00126166,0.00118299,0.00435807,0.0,0.0,-0.488732,1,0,0,0,0,0
59492000,-0.00326023,0.00264106,0.0087132,0.0,0.999988,-0.00163585,0.00131341,0.00435873,0.0,0.0,-0.502263,1,0,0,0,0,0
59584000,-0.00312342,0.00118097,0.0087132,0.0,0.999989,-0.00156427,0.000583674,0.0043575,0.0,0.0,-0.49448,1,0,0,0,0,0
59676000,-0.00342411,0.000634161,0.0087132,0.0,0.999989,-0.00171342,0.000309618,0.00435712,0.0,0.0,-0.487751,1,0,0,0,0,0
59772000,-0.0029807,0.000475425,0.0087132,0.0,0.999989,-0.00149137,0.000231217,0.00435694,0.0,0.0,-0.502061,1,0,0,0,0,0
59864000,-0.00349144,-0.000416034,0.0087132,0.0,0.999989,-0.0017448,-0.00021562,0.00435622,0.0,0.0,-0.497095,1,0,0,0,0,0
59956000,-0.00352378,-0.000181726,0.0087132,0.0,0.999989,-0.00176148,-9.85377e-05,0.00435642,0.0,0.0,-0.489336,1,0,0,0,0,0
60052000,-0.00478944,0.00076123,0.0087132,0.0,0.999988,-0.00239635,0.000370178,0.00435749,0.0,0.0,-0.502926,1,0,0,0,0,0
60144000,-0.00400301,1.5833e-05,0.0087132,0.0,0.999988,-0.00200152,-8.03305e-07,0.00435659,0.0,0.0,-0.495973,1,0,0,0,0,0
60236000,-0.00403453,-0.0011625,0.0087132,0.0,0.999988,-0.00201471,-0.000590029,0.0043554,0.0,0.0,-0.471633,1,0,0,0,0,0
60332000,-0.00398761,0.000550582,0.0087132,0.0,0.999988,-0.00199498,0.000266602,0.00435713,0.0,0.0,-0.460852,1,0,0,0,0,0
60424000,-0.00446252,0.00136415,0.0087132,0.0,0.999988,-0.00223421,0.000672346,0.0043581,0.0,0.0,-0.449004,1,0,0,0,0,0
60516000,-0.00313837,0.00114682,0.0087132,0.0,0.999989,-0.00157167,0.000566566,0.00435748,0.0,0.0,-0.44483,1,0,0,0,0,0
60612000,-0.00202553,0.00087058,0.0087132,0.0,0.99999,-0.00101465,0.000430873,0.00435703,0.0,0.0,-0.452626,1,0,0,0,0,0
60704000,-0.000654715,-0.000469136,0.0087132,0.0,0.99999,-0.000326333,-0.000235992,0.00435651,0.0,0.0,-0.449814,1,0,0,0,0,0
60796000,-0.00044061,-0.0018671,0.0087132,0.0,0.99999,-0.000216236,-0.0009345,0.00435638,0.0,0.0,-0.447964,1,0,0,0,0,0
60892000,0.000233847,-0.00196956,0.0087132,0.0,0.99999,0.000121213,-0.000984261,0.0043567,0.0,0.0,-0.455308,1,0,0,0,0,0
60984000,0.00134986,-0.00149391,0.0087132,0.0,0.99999,0.000678175,-0.000744006,0.00435709,0.0,0.0,-0.453106,1,0,0,0,0,0
61076000,0.000797677,-0.00109396,0.0087132,0.0,0.99999,0.000401218,-0.000545235,0.0043568,0.0,0.0,-0.45081,1,0,0,0,0,0
61172000,0.00109208,-0.00248889,0.0087132,0.0,0.99999,0.000551457,-0.00124206,0.00435726,0.0,0.0,-0.457612,1,0,0,0,0,0
61264000,0.00162633,-0.00208788,0.0087132,0.0,0.99999,0.000817704,-0.00104039,0.00435743,0.0,0.0,-0.454569,1,0,0,0,0,0
61356000,0.00261997,-0.000828447,0.0087132,0.0,0.99999,0.00131178,-0.000408512,0.00435712,0.0,0.0,-0.453638,1,0,0,0,0,0
61452000,0.00150552,-0.000204842,0.0087132,0.0,0.99999,0.000753201,-9.91404e-05,0.00435666,0.0,0.0,-0.460917,1,0,0,0,0,0
61544000,-0.000589914,0.00068252,0.0087132,0.0,0.99999,-0.000296441,0.000339972,0.00435669,0.0,0.0,-0.459817,1,0,0,0,0,0
61636000,-0.00156508,0.000431745,0.0087132,0.0,0.99999,-0.000783471,0.000212461,0.00435675,0.0,0.0,-0.457672,1,0,0,0,0,0
61732000,-0.0019922,0.00128572,0.0087132,0.0,0.99999,-0.000998889,0.000638516,0.00435722,0.0,0.0,-0.465221,1,0,0,0,0,0
61824000,-0.000634518,0.000259717,0.0087132,0.0,0.99999,-0.000317822,0.000128475,0.00435663,0.0,0.0,-0.463936,1,0,0,0,0,0
61916000,-0.00241737,0.00112642,0.0087132,0.0,0.99999,-0.00121112,0.000557937,0.00435726,0.0,0.0,-0.462372,1,0,0,0,0,0
62012000,-0.00161336,0.000605321,0.0087132,0.0,0.99999,-0.000807989,0.000299143,0.00435683,0.0,0.0,-0.468208,1,0,0,0,0,0
62104000,-0.000505107,-0.000484839,0.0087132,0.0,0.99999,-0.000251495,-0.000243518,0.00435652,0.0,0.0,-0.467313,1,0,0,0,0,0
62196000,-0.000881867,0.000399026,0.0087132,0.0,0.99999,-0.000441799,0.00019759,0.00435667,0.0,0.0,-0.466402,1,0,0,0,0,0
62292000,-0.0010201,-0.000294299,0.0087132,0.0,0.99999,-0.000509402,-0.00014937,0.00435651,0.0,0.0,-0.470346,1,0,0,0,0,0
62384000,-0.00234642,-5.39989e-06,0.0087132,0.0,0.99999,-0.00117319,-7.81111e-06,0.00435658,0.0,0.0,-0.468035,1,0,0,0,0,0
62476000,-0.00220538,0.000563695,0.0087132,0.0,0.99999,-0.00110391,0.00027704,0.00435689,0.0,0.0,-0.468165,1,0,0,0,0,0
62572000,-0.00243669,0.00106389,0.0087132,0.0,0.99999,-0.00122065,0.000526632,0.00435723,0.0,0.0,-0.472349,1,0,0,0,0,0
62664000,-0.00203729,0.000312955,0.0087132,0.0,0.99999,-0.00101931,0.000152038,0.00435674,0.0,0.0,-0.470858,1,0,0,0,0,0
62756000,-0.00198876,-0.000303133,0.0087132,0.0,0.99999,-0.000993708,-0.000155897,0.00435643,0.0,0.0,-0.469335,1,0,0,0,0,0
62852000,-0.0020229,7.40929e-05,0.0087132,0.0,0.99999,-0.0010116,3.26396e-05,0.00435662,0.0,0.0,-0.474439,1,0,0,0,0,0
62944000,-0.00186998,1.80837e-06,0.0087132,0.0,0.99999,-0.000934986,-3.16919e-06,0.00435659,0.0,0.0,-0.472559,1,0,0,0,0,0
63036000,-0.000283351,-9.91279e-05,0.0087132,0.0,0.999991,-0.000141458,-5.01807e-05,0.00435658,0.0,0.0,-0.472453,1,0,0,0,0,0
63132000,-0.000641053,0.000787423,0.0087132,0.0,0.99999,-0.000322239,0.000392311,0.00435671,0.0,0.0,-0.4769,1,0,0,0,0,0
63224000,-0.00174266,0.000492495,0.0087132,0.0,0.99999,-0.000872395,0.000242449,0.0043568,0.0,0.0,-0.475538,1,0,0,0,0,0
63316000,-0.00328213,-9.66369e-05,0.0087132,0.0,0.999989,-0.00164084,-5.54673e-05,0.0043565,0.0,0.0,-0.475542,1,0,0,0,0,0
63412000,-0.00203511,0.00104564,0.0087132,0.0,0.99999,-0.00101983,0.000518379,0.00435712,0.0,0.0,-0.477612,1,0,0,0,0,0
63504000,-0.00234723,0.00161638,0.0087132,0.0,0.999989,-0.00117713,0.000803068,0.00435753,0.0,0.0,-0.475707,1,0,0,0,0,0
63596000,-0.00252364,0.00162167,0.0087132,0.0,0.999989,-0.00126534,0.000805331,0.0043576,0.0,0.0,-0.47368,1,0,0,0,0,0
63692000,-0.00198067,0.000758755,0.0087132,0.0,0.99999,-0.000991977,0.000375059,0.00435696,0.0,0.0,-0.478091,1,0,0,0,0,0
63784000,-0.00285531,-0.00138439,0.0087132,0.0,0.999989,-0.00142462,-0.000698408,0.00435559,0.0,0.0,-0.477576,1,0,0,0,0,0
63876000,-0.0026345,0.000427451,0.0087132,0.0,0.99999,-0.00131817,0.000207984,0.00435686,0.0,0.0,-0.474651,1,0,0,0,0,0
63972000,-0.00243486,-0.000125738,0.0087132,0.0,0.99999,-0.00121714,-6.81722e-05,0.00435651,0.0,0.0,-0.479634,1,0,0,0,0,0
64064000,-0.00307307,6.52002e-05,0.0087132,0.0,0.999989,-0.00153666,2.59057e-05,0.00435663,0.0,0.0,-0.476678,1,0,0,0,0,0
64156000,-0.00309568,0.000681898,0.0087132,0.0,0.999989,-0.00154931,0.000334202,0.00435711,0.0,0.0,-0.4757,1,0,0,0,0,0
64252000,-0.00279948,0.00142873,0.0087132,0.0,0.999989,-0.00140284,0.000708259,0.00435758,0.0,0.0,-0.477955,1,0,0,0,0,0
64344000,-0.00264242,-7.65262e-05,0.0087132,0.0,0.99999,-0.00132103,-4.40187e-05,0.00435653,0.0,0.0,-0.478499,1,0,0,0,0,0
64436000,-0.00387084,0.00272194,0.0087132,0.0,0.999988,-0.00194133,0.00135252,0.00435921,0.0,0.0,-0.477959,1,0,0,0,0,0
64532000,-0.00314677,0.00244743,0.0087132,0.0,0.999988,-0.0015787,0.00121685,0.0043585,0.0,0.0,-0.478776,1,0,0,0,0,0
64624000,-0.0043702,0.00285325,0.0087132,0.0,0.999987,-0.00219129,0.00141709,0.00435969,0.0,0.0,-0.47713,1,0,0,0,0,0
64716000,-0.00346131,0.000770176,0.0087132,0.0,0.999989,-0.00173232,0.000377544,0.00435725,0.0,0.0,-0.47863,1,0,0,0,0,0
64812000,-0.00244094,0.00067175,0.0087132,0.0,0.99999,-0.00122192,0.000330555,0.00435699,0.0,0.0,-0.481475,1,0,0,0,0,0
64904000,-0.00172145,0.000722699,0.0087132,0.0,0.99999,-0.000862292,0.000357596,0.0043569,0.0,0.0,-0.480684,1,0,0,0,0,0
64996000,-0.00206908,0.00113296,0.0087132,0.0,0.99999,-0.001037,0.000561966,0.00435717,0.0,0.0,-0.480587,1,0,0,0,0,0
65092000,-0.00325837,0.00103198,0.0087132,0.0,0.999989,-0.00163142,0.000508887,0.00435742,0.0,0.0,-0.482102,1,0,0,0,0,0
65184000,-0.00401525,0.00145741,0.0087132,0.0,0.999988,-0.00201078,0.000719952,0.00435804,0.0,0.0,-0.482008,1,0,0,0,0,0
65276000,-0.00588803,0.000436756,0.0087132,0.0,0.999986,-0.00294493,0.000205549,0.00435721,0.0,0.0,-0.480948,1,0,0,0,0,0
65372000,-0.00608197,1.35554e-05,0.0087132,0.0,0.999986,-0.00304098,-6.47067e-06,0.00435659,0.0,0.0,-0.482612,1,0,0,0,0,0
65464000,-0.00555835,0.000167552,0.0087132,0.0,0.999987,-0.00277951,7.1667e-05,0.0043568,0.0,0.0,-0.481265,1,0,0,0,0,0
65556000,-0.00606156,-0.00117753,0.0087132,0.0,0.999986,-0.00302818,-0.00060196,0.00435478,0.0,0.0,-0.481042,1,0,0,0,0,0
65652000,-0.0055375,-0.000639611,0.0087132,0.0,0.999987,-0.00276733,-0.000331863,0.00435568,0.0,0.0,-0.483441,1,0,0,0,0,0
65744000,-0.00680639,-0.0016321,0.0087132,0.0,0.999984,-0.0033996,-0.000830864,0.00435378,0.0,0.0,-0.483175,1,0,0,0,0,0
65836000,-0.00740548,-0.000707428,0.0087132,0.0,0.999984,-0.00370115,-0.000369839,0.00435525,0.0,0.0,-0.483511,1,0,0,0,0,0
65932000,-0.00675627,-0.000769137,0.0087132,0.0,0.999985,-0.00337642,-0.00039928,0.00435526,0.0,0.0,-0.485295,1,0,0,0,0,0
66024000,-0.00555712,-0.00122141,0.0087132,0.0,0.999986,-0.00277587,-0.000622804,0.00435487,0.0,0.0,-0.48375,1,0,0,0,0,0
66116000,-0.00498539,-0.000599225,0.0087132,0.0,0.999987,-0.00249137,-0.000310468,0.00435583,0.0,0.0,-0.483546,1,0,0,0,0,0
66212000,-0.00558958,-0.000439295,0.0087132,0.0,0.999987,-0.0027938,-0.000231821,0.00435596,0.0,0.0,-0.483774,1,0,0,0,0,0
66304000,-0.00496331,-0.000727406,0.0087132,0.0,0.999987,-0.00248004,-0.00037451,0.00435567,0.0,0.0,-0.483088,1,0,0,0,0,0
66396000,-0.0059635,-0.000520378,0.0087132,0.0,0.999986,-0.00298058,-0.000273175,0.00435579,0.0,0.0,-0.482755,1,0,0,0,0,0
66492000,-0.00432628,-0.000483166,0.0087132,0.0,0.999988,-0.00216206,-0.000251004,0.00435605,0.0,0.0,-0.486108,1,0,0,0,0,0
66584000,-0.00522988,-0.00050422,0.0087132,0.0,0.999987,-0.00261381,-0.000263499,0.00435591,0.0,0.0,-0.483411,1,0,0,0,0,0
66676000,-0.00391418,-0.0012061,0.0087132,0.0,0.999988,-0.00195444,-0.000611571,0.0043554,0.0,0.0,-0.485351,1,0,0,0,0,0
66772000,-0.00492171,-0.000206673,0.0087132,0.0,0.999987,-0.00246038,-0.000114056,0.00435632,0.0,0.0,-0.485684,1,0,0,0,0,0
66864000,-0.00616827,0.000377471,0.0087132,0.0,0.999986,-0.00308492,0.000175297,0.00435715,0.0,0.0,-0.48417,1,0,0,0,0,0
66956000,-0.00609307,-0.000281194,0.0087132,0.0,0.999986,-0.00304589,-0.000153867,0.00435614,0.0,0.0,-0.483791,1,0,0,0,0,0
67052000,-0.00657029,-0.000562932,0.0087132,0.0,0.999985,-0.00328388,-0.000295774,0.00435564,0.0,0.0,-0.485413,1,0,0,0,0,0
67144000,-0.00695886,-0.000719116,0.0087132,0.0,0.999984,-0.00347782,-0.000374711,0.00435531,0.0,0.0,-0.485673,1,0,0,0,0,0
67236000,-0.00757566,0.000868885,0.0087132,0.0,0.999983,-0.00378968,0.000417933,0.0043582,0.0,0.0,-0.483469,1,0,0,0,0,0
67332000,-0.00684919,0.000333018,0.0087132,0.0,0.999985,-0.00342528,0.000151587,0.00435713,0.0,0.0,-0.485808,1,0,0,0,0,0
67424000,-0.00637567,-0.000277492,0.0087132,0.0,0.999985,-0.00318719,-0.000152632,0.00435612,0.0,0.0,-0.486077,1,0,0,0,0,0
67516000,-0.00594149,0.00011641,0.0087132,0.0,0.999986,-0.00297097,4.52621e-05,0.00435674,0.0,0.0,-0.486577,1,0,0,0,0,0
67612000,-0.00502315,-0.000446555,0.0087132,0.0,0.999987,-0.00251058,-0.000234217,0.00435601,0.0,0.0,-0.487464,1,0,0,0,0,0
67704000,-0.00529916,-0.00120045,0.0087132,0.0,0.999987,-0.00264693,-0.000611762,0.00435498,0.0,0.0,-0.485928,1,0,0,0,0,0
67796000,-0.0067392,0.000142996,0.0087132,0.0,0.999985,-0.00336987,5.68172e-05,0.0043568,0.0,0.0,-0.484535,1,0,0,0,0,0
67892000,-0.0063215,0.000240264,0.0087132,0.0,0.999986,-0.00316124,0.00010636,0.00435694,0.0,0.0,-0.486565,1,0,0,0,0,0
67984000,-0.00628087,-0.00173715,0.0087132,0.0,0.999985,-0.00313661,-0.000882246,0.00435384,0.0,0.0,-0.485339,1,0,0,0,0,0
68076000,-0.0037016,-0.000832824,0.0087132,0.0,0.999989,-0.00184897,-0.00042447,0.00435581,0.0,0.0,-0.485423,1,0,0,0,0,0
68172000,-0.00367314,3.81346e-05,0.0087132,0.0,0.999989,-0.00183664,1.10659e-05,0.00435661,0.0,0.0,-0.485815,1,0,0,0,0,0
68264000,-0.00491522,-0.000115212,0.0087132,0.0,0.999987,-0.00245734,-6.83122e-05,0.00435643,0.0,0.0,-0.486073,1,0,0,0,0,0
68356000,-0.00491295,0.000701029,0.0087132,0.0,0.999987,-0.00245798,0.000339808,0.00435743,0.0,0.0,-0.486164,1,0,0,0,0,0
68452000,-0.00587876,0.00167978,0.0087132,0.0,0.999986,-0.002943,0.000827072,0.00435903,0.0,0.0,-0.486096,1,0,0,0,0,0
68544000,-0.00589011,0.00291034,0.00865414,0.0,0.999985,-0.00295132,0.00144241,0.00433132,0.0,0.0,-0.485146,1,0,0,0,0,0
68636000,-0.00495452,0.00276717,0.00865414,0.0,0.999987,-0.00248322,0.00137285,0.00433047,0.0,0.0,-0.486329,1,0,0,0,0,0
68732000,-0.00437517,0.00209742,0.00865414,0.0,0.999988,-0.0021921,0.00103923,0.00432934,0.0,0.0,-0.486617,1,0,0,0,0,0
68824000,-0.00365058,0.000753593,0.00865414,0.0,0.999989,-0.0018269,0.000368894,0.00432774,0.0,0.0,-0.488234,1,0,0,0,0,0
68916000,-0.00553268,0.00201575,0.00865414,0.0,0.999986,-0.00277067,0.000995893,0.00432983,0.0,0.0,-0.48768,1,0,0,0,0,0
69012000,-0.00529686,0.00210604,0.00865414,0.0,0.999987,-0.00265296,0.00104154,0.00432983,0.0,0.0,-0.487609,1,0,0,0,0,0
69104000,-0.00543903,0.00362399,0.00865414,0.0,0.999985,-0.00272732,0.00180021,0.00433196,0.0,0.0,-0.487547,1,0,0,0,0,0
69196000,-0.00319561,0.00450758,0.00865414,0.0,0.999987,-0.00160754,0.00224685,0.00433064,0.0,0.0,-0.487796,1,0,0,0,0,0
69292000,-0.003208,0.003665,0.00865414,0.0,0.999988,-0.00161191,0.00182554,0.00432998,0.0,0.0,-0.488543,1,0,0,0,0,0
69384000,-0.00237612,0.00232491,0.00865414,0.0,0.999989,-0.00119308,0.0011573,0.00432843,0.0,0.0,-0.488467,1,0,0,0,0,0
69476000,-0.00246981,0.00379636,0.00865414,0.0,0.999988,-0.00124311,0.00189282,0.00432939,0.0,0.0,-0.48756,1,0,0,0,0,0
69572000,-0.00238327,0.00362678,0.00865414,0.0,0.999988,-0.00119947,0.00180822,0.00432921,0.0,0.0,-0.487928,1,0,0,0,0,0
69664000,-0.00273934,0.00383277,0.00865414,0.0,0.999988,-0.00137795,0.00191044,0.00432967,0.0,0.0,-0.487209,1,0,0,0,0,0
69756000,-0.00252201,0.00350301,0.00865414,0.0,0.999988,-0.00126857,0.00174603,0.00432926,0.0,0.0,-0.487801,1,0,0,0,0,0
69852000,-0.00284997,0.00265569,0.00865414,0.0,0.999989,-0.00143071,0.00132167,0.00432894,0.0,0.0,-0.487664,1,0,0,0,0,0
69944000,-0.00399438,0.00346026,0.00865414,0.0,0.999987,-0.00200466,0.00172147,0.0043305,0.0,0.0,-0.488216,1,0,0,0,0,0
70036000,-0.0039676,0.0031648,0.00865414,0.0,0.999987,-0.00199063,0.0015738,0.00433018,0.0,0.0,-0.488539,1,0,0,0,0,0
70132000,-0.00299076,0.00290284,0.00865414,0.0,0.999988,-0.00150164,0.00144494,0.00432922,0.0,0.0,-0.488636,1,0,0,0,0,0
70224000,-0.00271013,0.00241892,0.00865414,0.0,0.999989,-0.00136028,0.00120359,0.00432869,0.0,0.0,-0.486932,1,0,0,0,0,0
70316000,-0.00316668,0.00349762,0.00865414,0.0,0.999988,-0.00159089,0.00174194,0.00432981,0.0,0.0,-0.486881,1,0,0,0,0,0
70412000,-0.00240033,0.00349281,0.00865414,0.0,0.999988,-0.00120771,0.0017412,0.00432914,0.0,0.0,-0.488609,1,0,0,0,0,0
70504000,-0.00115722,0.00335919,0.00865414,0.0,0.999989,-0.00058587,0.00167708,0.00432802,0.0,0.0,-0.486998,1,0,0,0,0,0
70596000,-0.000254015,0.00293223,0.00865414,0.0,0.99999,-0.00013335,0.00146555,0.00432724,0.0,0.0,-0.487292,1,0,0,0,0,0
70692000,-0.000426831,0.00374757,0.00865414,0.0,0.999989,-0.000221521,0.00187284,0.00432745,0.0,0.0,-0.488697,1,0,0,0,0,0
70784000,0.000278065,0.00343443,0.00865414,0.0,0.999989,0.0001316,0.0017178,0.00432681,0.0,0.0,-0.489637,1,0,0,0,0,0
70876000,-0.000841127,0.00273846,0.00865414,0.0,0.99999,-0.000426484,0.00136739,0.00432763,0.0,0.0,-0.49063,1,0,0,0,0,0
70972000,-0.000260238,0.0042471,0.00865414,0.0,0.999988,-0.000139306,0.00212296,0.00432732,0.0,0.0,-0.488372,1,0,0,0,0,0
71064000,-0.00159715,0.00505024,0.00865414,0.0,0.999987,-0.000809492,0.00252164,0.00432906,0.0,0.0,-0.490649,1,0,0,0,0,0
71156000,-0.000514383,0.00486346,0.00865414,0.0,0.999988,-0.000267711,0.00243059,0.00432767,0.0,0.0,-0.490603,1,0,0,0,0,0
71252000,-0.000483682,0.00411362,0.00865414,0.0,0.999988,-0.000250738,0.00205575,0.00432754,0.0,0.0,-0.489044,1,0,0,0,0,0
71344000,-0.000511466,0.00207584,0.00865414,0.0,0.99999,-0.000260222,0.0010368,0.00432732,0.0,0.0,-0.490354,1,0,0,0,0,0
71436000,-9.35674e-05,0.00103882,0.00865414,0.0,0.999991,-4.90308e-05,0.000519202,0.00432708,0.0,0.0,-0.491105,1,0,0,0,0,0
71532000,0.000192283,0.00113017,0.00865414,0.0,0.99999,9.36953e-05,0.000565498,0.004327,0.0,0.0,-0.490153,1,0,0,0,0,0
71624000,0.000120087,-0.035863,0.0,0.0,0.999839,6.00337e-05,-0.0179305,1.07661e-06,0.0,0.0,-0.120077,1,0,0,0,0,0
