timestamp,lat,lon,alt,alt_ellipsoid,delta_alt,vel_n,vel_e,vel_d,yaw,eph,epv,terrain_alt,lat_lon_reset_counter,alt_reset_counter,terrain_alt_valid,dead_reckoning
168000,47.3977419,8.545594,0.0,0.0,0.0,0.0,0.0,0.0,0.0,0.0,0.0,0.0,0,0,0,0
264000,47.3977418,8.5455939,0.0,0.0,0.0,0.0,0.0,0.0,0.0,0.0,0.0,0.0,0,0,0,0
360000,47.3977418,8.5455937,0.0,0.0,0.0,0.0,0.0,0.0,0.0,0.0,0.0,0.0,0,0,0,0
456000,47.3977419,8.5455937,0.0,0.0,0.0,0.0,0.0,0.0,0.0,0.0,0.0,0.0,0,0,0,0
552000,47.3977419,8.5455937,0.0,0.0,0.0,0.0,0.0,0.0,0.0,0.0,0.0,0.0,0,0,0,0
648000,47.397742,8.5455937,0.0,0.0,0.0,0.0,0.0,0.0,0.0,0.0,0.0,0.0,0,0,0,0
744000,47.397742,8.5455937,0.0,0.0,0.0,0.0,0.0,0.0,0.0,0.0,0.0,0.0,0,0,0,0
840000,47.3977419,8.5455941,0.0,0.0,0.0,0.0,0.0,0.0,0.0,0.0,0.0,0.0,0,0,0,0
936000,47.3977419,8.5455941,0.0,0.0,0.0,0.0,0.0,0.0,0.0,0.0,0.0,0.0,0,0,0,0
1032000,47.397742,8.5455941,0.0,0.0,0.0,0.0,0.0,0.0,0.0,0.0,0.0,0.0,0,0,0,0
1128000,47.3977419,8.5455944,0.0,0.0,0.0,0.0,0.0,0.0,0.0,0.0,0.0,0.0,0,0,0,0
1224000,47.397742,8.545594,0.0,0.0,0.0,0.0,0.0,0.0,0.0,0.0,0.0,0.0,0,0,0,0
1320000,47.3977419,8.5455941,0.0,0.0,0.0,0.0,0.0,0.0,0.0,0.0,0.0,0.0,0,0,0,0
1416000,47.397742,8.5455937,0.0,0.0,0.0,0.0,0.0,0.0,0.0,0.0,0.0,0.0,0,0,0,0
1512000,47.3977419,8.5455938,0.0,0.0,0.0,0.0,0.0,0.0,0.0,0.0,0.0,0.0,0,0,0,0
1608000,47.3977419,8.5455939,0.0,0.0,0.0,0.0,0.0,0.0,0.0,0.0,0.0,0.0,0,0,0,0
1704000,47.397742,8.545594,0.0,0.0,0.0,0.0,0.0,0.0,0.0,0.0,0.0,0.0,0,0,0,0
1800000,47.3977421,8.545594,0.0,0.0,0.0,0.0,0.0,0.0,0.0,0.0,0.0,0.0,0,0,0,0
1896000,47.3977421,8.5455938,0.0,0.0,0.0,0.0,0.0,0.0,0.0,0.0,0.0,0.0,0,0,0,0
1992000,47.3977419,8.5455939,0.0,0.0,0.0,0.0,0.0,0.0,0.0,0.0,0.0,0.0,0,0,0,0
2088000,47.397742,8.5455938,0.0,0.0,0.0,0.0,0.0,0.0,0.0,0.0,0.0,0.0,0,0,0,0
2184000,47.397742,8.5455942,0.0,0.0,0.0,0.0,0.0,0.0,0.0,0.0,0.0,0.0,0,0,0,0
2280000,47.3977421,8.5455941,0.0,0.0,0.0,0.0,0.0,0.0,0.0,0.0,0.0,0.0,0,0,0,0
2376000,47.397742,8.545594,0.0,0.0,0.0,0.0,0.0,0.0,0.0,0.0,0.0,0.0,0,0,0,0
2472000,47.3977419,8.5455939,0.0,0.0,0.0,0.0,0.0,0.0,0.0,0.0,0.0,0.0,0,0,0,0
2568000,47.3977419,8.545594,0.0,0.0,0.0,0.0,0.0,0.0,0.0,0.0,0.0,0.0,0,0,0,0
2664000,47.3977419,8.5455941,0.0,0.0,0.0,0.0,0.0,0.0,0.0,0.0,0.0,0.0,0,0,0,0
2760000,47.3977419,8.5455939,0.0,0.0,0.0,0.0,0.0,0.0,0.0,0.0,0.0,0.0,0,0,0,0
2856000,47.3977419,8.5455939,0.0,0.0,0.0,0.0,0.0,0.0,0.0,0.0,0.0,0.0,0,0,0,0
2952000,47.3977419,8.5455941,0.0,0.0,0.0,0.0,0.0,0.0,0.0,0.0,0.0,0.0,0,0,0,0
3048000,47.3977419,8.545594,0.0,0.0,0.0,0.0,0.0,0.0,0.0,0.0,0.0,0.0,0,0,0,0
3144000,47.397742,8.545594,0.0,0.0,0.0,0.0,0.0,0.0,0.0,0.0,0.0,0.0,0,0,0,0
3240000,47.397742,8.545594,0.0,0.0,0.0,0.0,0.0,0.0,0.0,0.0,0.0,0.0,0,0,0,0
3336000,47.397742,8.5455942,0.0,0.0,0.0,0.0,0.0,0.0,0.0,0.0,0.0,0.0,0,0,0,0
3432000,47.3977421,8.545594,0.0,0.0,0.0,0.0,0.0,0.0,0.0,0.0,0.0,0.0,0,0,0,0
3528000,47.3977421,8.5455939,0.0,0.0,0.0,0.0,0.0,0.0,0.0,0.0,0.0,0.0,0,0,0,0
3624000,47.397742,8.545594,0.0,0.0,0.0,0.0,0.0,0.0,0.0,0.0,0.0,0.0,0,0,0,0
3720000,47.397742,8.5455938,0.0,0.0,0.0,0.0,0.0,0.0,0.0,0.0,0.0,0.0,0,0,0,0
3816000,47.3977419,8.545594,0.0,0.0,0.0,0.0,0.0,0.0,0.0,0.0,0.0,0.0,0,0,0,0
3912000,47.397742,8.545594,0.0,0.0,0.0,0.0,0.0,0.0,0.0,0.0,0.0,0.0,0,0,0,0
4008000,47.397742,8.5455939,0.0,0.0,0.0,0.0,0.0,0.0,0.0,0.0,0.0,0.0,0,0,0,0
4104000,47.397742,8.545594,0.0,0.0,0.0,0.0,0.0,0.0,0.0,0.0,0.0,0.0,0,0,0,0
4200000,47.397742,8.5455943,0.0,0.0,0.0,0.0,0.0,0.0,0.0,0.0,0.0,0.0,0,0,0,0
4296000,47.397742,8.5455943,0.0,0.0,0.0,0.0,0.0,0.0,0.0,0.0,0.0,0.0,0,0,0,0
4392000,47.3977419,8.5455943,0.0,0.0,0.0,0.0,0.0,0.0,0.0,0.0,0.0,0.0,0,0,0,0
4488000,47.3977419,8.5455943,0.0,0.0,0.0,0.0,0.0,0.0,0.0,0.0,0.0,0.0,0,0,0,0
4584000,47.3977419,8.5455943,0.0,0.0,0.0,0.0,0.0,0.0,0.0,0.0,0.0,0.0,0,0,0,0
4680000,47.397742,8.5455942,0.0,0.0,0.0,0.0,0.0,0.0,0.0,0.0,0.0,0.0,0,0,0,0
4776000,47.3977419,8.5455939,0.0,0.0,0.0,0.0,0.0,0.0,0.0,0.0,0.0,0.0,0,0,0,0
4872000,47.3977418,8.545594,0.0,0.0,0.0,0.0,0.0,0.0,0.0,0.0,0.0,0.0,0,0,0,0
4968000,47.397742,8.5455939,0.0,0.0,0.0,0.0,0.0,0.0,0.0,0.0,0.0,0.0,0,0,0,0
5064000,47.3977419,8.545594,0.0,0.0,0.0,0.0,0.0,0.0,0.0,0.0,0.0,0.0,0,0,0,0
5160000,47.397742,8.545594,0.0,0.0,0.0,0.0,0.0,0.0,0.0,0.0,0.0,0.0,0,0,0,0
5256000,47.3977419,8.5455939,0.0,0.0,0.0,0.0,0.0,0.0,0.0,0.0,0.0,0.0,0,0,0,0
5352000,47.3977419,8.545594,0.0,0.0,0.0,0.0,0.0,0.0,0.0,0.0,0.0,0.0,0,0,0,0
5448000,47.3977419,8.5455942,0.0,0.0,0.0,0.0,0.0,0.0,0.0,0.0,0.0,0.0,0,0,0,0
5544000,47.3977419,8.5455941,0.0,0.0,0.0,0.0,0.0,0.0,0.0,0.0,0.0,0.0,0,0,0,0
5640000,47.3977419,8.5455941,0.0,0.0,0.0,0.0,0.0,0.0,0.0,0.0,0.0,0.0,0,0,0,0
5736000,47.3977419,8.5455939,0.0,0.0,0.0,0.0,0.0,0.0,0.0,0.0,0.0,0.0,0,0,0,0
5832000,47.3977419,8.5455938,0.0,0.0,0.0,0.0,0.0,0.0,0.0,0.0,0.0,0.0,0,0,0,0
5928000,47.397742,8.5455939,0.0,0.0,0.0,0.0,0.0,0.0,0.0,0.0,0.0,0.0,0,0,0,0
6024000,47.3977419,8.5455939,0.0,0.0,0.0,0.0,0.0,0.0,0.0,0.0,0.0,0.0,0,0,0,0
6120000,47.3977418,8.545594,0.0,0.0,0.0,0.0,0.0,0.0,0.0,0.0,0.0,0.0,0,0,0,0
6216000,47.3977419,8.5455941,0.0,0.0,0.0,0.0,0.0,0.0,0.0,0.0,0.0,0.0,0,0,0,0
6312000,47.3977419,8.5455943,0.0,0.0,0.0,0.0,0.0,0.0,0.0,0.0,0.0,0.0,0,0,0,0
6408000,47.3977418,8.5455941,0.0,0.0,0.0,0.0,0.0,0.0,0.0,0.0,0.0,0.0,0,0,0,0
6504000,47.3977419,8.5455943,0.0,0.0,0.0,0.0,0.0,0.0,0.0,0.0,0.0,0.0,0,0,0,0
6600000,47.397742,8.5455941,0.0,0.0,0.0,0.0,0.0,0.0,0.0,0.0,0.0,0.0,0,0,0,0
6696000,47.3977421,8.545594,0.0,0.0,0.0,0.0,0.0,0.0,0.0,0.0,0.0,0.0,0,0,0,0
6792000,47.3977419,8.5455941,0.0,0.0,0.0,0.0,0.0,0.0,0.0,0.0,0.0,0.0,0,0,0,0
6888000,47.3977418,8.5455941,0.0,0.0,0.0,0.0,0.0,0.0,0.0,0.0,0.0,0.0,0,0,0,0
6984000,47.3977417,8.5455941,0.0,0.0,0.0,0.0,0.0,0.0,0.0,0.0,0.0,0.0,0,0,0,0
7080000,47.397742,8.545594,0.0,0.0,0.0,0.0,0.0,0.0,0.0,0.0,0.0,0.0,0,0,0,0
7176000,47.3977419,8.5455939,0.0,0.0,0.0,0.0,0.0,0.0,0.0,0.0,0.0,0.0,0,0,0,0
7272000,47.3977419,8.545594,0.0,0.0,0.0,0.0,0.0,0.0,0.0,0.0,0.0,0.0,0,0,0,0
7368000,47.397742,8.5455941,0.0,0.0,0.0,0.0,0.0,0.0,0.0,0.0,0.0,0.0,0,0,0,0
7464000,47.397742,8.545594,0.0,0.0,0.0,0.0,0.0,0.0,0.0,0.0,0.0,0.0,0,0,0,0
7560000,47.3977419,8.5455942,0.0,0.0,0.0,0.0,0.0,0.0,0.0,0.0,0.0,0.0,0,0,0,0
7656000,47.397742,8.5455941,0.0,0.0,0.0,0.0,0.0,0.0,0.0,0.0,0.0,0.0,0,0,0,0
7752000,47.397742,8.5455939,0.0,0.0,0.0,0.0,0.0,0.0,0.0,0.0,0.0,0.0,0,0,0,0
7848000,47.397742,8.5455938,0.0,0.0,0.0,0.0,0.0,0.0,0.0,0.0,0.0,0.0,0,0,0,0
7944000,47.397742,8.5455937,0.0,0.0,0.0,0.0,0.0,0.0,0.0,0.0,0.0,0.0,0,0,0,0
8040000,47.3977419,8.545594,0.0,0.0,0.0,0.0,0.0,0.0,0.0,0.0,0.0,0.0,0,0,0,0
8136000,47.3977419,8.5455938,0.0,0.0,0.0,0.0,0.0,0.0,0.0,0.0,0.0,0.0,0,0,0,0
8232000,47.3977419,8.5455939,0.0,0.0,0.0,0.0,0.0,0.0,0.0,0.0,0.0,0.0,0,0,0,0
8328000,47.3977418,8.5455938,0.0,0.0,0.0,0.0,0.0,0.0,0.0,0.0,0.0,0.0,0,0,0,0
8424000,47.397742,8.5455936,0.0,0.0,0.0,0.0,0.0,0.0,0.0,0.0,0.0,0.0,0,0,0,0
8520000,47.397742,8.5455938,0.0,0.0,0.0,0.0,0.0,0.0,0.0,0.0,0.0,0.0,0,0,0,0
8616000,47.397742,8.5455936,0.0,0.0,0.0,0.0,0.0,0.0,0.0,0.0,0.0,0.0,0,0,0,0
8712000,47.3977421,8.5455936,0.0,0.0,0.0,0.0,0.0,0.0,0.0,0.0,0.0,0.0,0,0,0,0
8808000,47.397742,8.5455938,0.0,0.0,0.0,0.0,0.0,0.0,0.0,0.0,0.0,0.0,0,0,0,0
8904000,47.397742,8.545594,0.0,0.0,0.0,0.0,0.0,0.0,0.0,0.0,0.0,0.0,0,0,0,0
9000000,47.397742,8.5455939,0.0,0.0,0.0,0.0,0.0,0.0,0.0,0.0,0.0,0.0,0,0,0,0
9096000,47.3977419,8.5455939,0.0,0.0,0.0,0.0,0.0,0.0,0.0,0.0,0.0,0.0,0,0,0,0
9192000,47.3977419,8.5455941,0.0,0.0,0.0,0.0,0.0,0.0,0.0,0.0,0.0,0.0,0,0,0,0
9288000,47.397742,8.5455939,0.0,0.0,0.0,0.0,0.0,0.0,0.0,0.0,0.0,0.0,0,0,0,0
9384000,47.397742,8.5455941,0.0,0.0,0.0,0.0,0.0,0.0,0.0,0.0,0.0,0.0,0,0,0,0
9480000,47.3977419,8.5455941,0.0,0.0,0.0,0.0,0.0,0.0,0.0,0.0,0.0,0.0,0,0,0,0
9576000,47.3977419,8.545594,0.0,0.0,0.0,0.0,0.0,0.0,0.0,0.0,0.0,0.0,0,0,0,0
9672000,47.397742,8.5455938,0.0,0.0,0.0,0.0,0.0,0.0,0.0,0.0,0.0,0.0,0,0,0,0
9768000,47.3977419,8.5455939,0.0,0.0,0.0,0.0,0.0,0.0,0.0,0.0,0.0,0.0,0,0,0,0
9864000,47.3977418,8.5455939,0.0,0.0,0.0,0.0,0.0,0.0,0.0,0.0,0.0,0.0,0,0,0,0
9960000,47.3977419,8.5455939,0.0,0.0,0.0,0.0,0.0,0.0,0.0,0.0,0.0,0.0,0,0,0,0
10056000,47.3977418,8.5455938,0.0,0.0,0.0,0.0,0.0,0.0,0.0,0.0,0.0,0.0,0,0,0,0
10152000,47.3977419,8.5455939,0.0,0.0,0.0,0.0,0.0,0.0,0.0,0.0,0.0,0.0,0,0,0,0
10248000,47.3977419,8.5455938,0.0,0.0,0.0,0.0,0.0,0.0,0.0,0.0,0.0,0.0,0,0,0,0
10344000,47.397742,8.5455939,0.0,0.0,0.0,0.0,0.0,0.0,0.0,0.0,0.0,0.0,0,0,0,0
10440000,47.3977421,8.545594,0.0,0.0,0.0,0.0,0.0,0.0,0.0,0.0,0.0,0.0,0,0,0,0
10536000,47.397742,8.5455939,0.0,0.0,0.0,0.0,0.0,0.0,0.0,0.0,0.0,0.0,0,0,0,0
10632000,47.397742,8.5455939,0.0,0.0,0.0,0.0,0.0,0.0,0.0,0.0,0.0,0.0,0,0,0,0
10728000,47.397742,8.545594,0.0,0.0,0.0,0.0,0.0,0.0,0.0,0.0,0.0,0.0,0,0,0,0
10824000,47.397742,8.5455941,0.0,0.0,0.0,0.0,0.0,0.0,0.0,0.0,0.0,0.0,0,0,0,0
10920000,47.397742,8.5455941,0.0,0.0,0.0,0.0,0.0,0.0,0.0,0.0,0.0,0.0,0,0,0,0
11016000,47.3977419,8.5455939,0.0,0.0,0.0,0.0,0.0,0.0,0.0,0.0,0.0,0.0,0,0,0,0
11112000,47.3977419,8.5455939,0.0,0.0,0.0,0.0,0.0,0.0,0.0,0.0,0.0,0.0,0,0,0,0
11208000,47.397742,8.545594,0.0,0.0,0.0,0.0,0.0,0.0,0.0,0.0,0.0,0.0,0,0,0,0
11304000,47.3977419,8.5455938,0.0,0.0,0.0,0.0,0.0,0.0,0.0,0.0,0.0,0.0,0,0,0,0
11400000,47.3977419,8.5455936,0.0,0.0,0.0,0.0,0.0,0.0,0.0,0.0,0.0,0.0,0,0,0,0
11496000,47.3977418,8.5455938,0.0,0.0,0.0,0.0,0.0,0.0,0.0,0.0,0.0,0.0,0,0,0,0
11592000,47.397742,8.5455939,0.0,0.0,0.0,0.0,0.0,0.0,0.0,0.0,0.0,0.0,0,0,0,0
11688000,47.3977419,8.5455939,0.0,0.0,0.0,0.0,0.0,0.0,0.0,0.0,0.0,0.0,0,0,0,0
11784000,47.3977419,8.545594,0.0,0.0,0.0,0.0,0.0,0.0,0.0,0.0,0.0,0.0,0,0,0,0
11880000,47.3977419,8.545594,0.0,0.0,0.0,0.0,0.0,0.0,0.0,0.0,0.0,0.0,0,0,0,0
11976000,47.3977418,8.5455939,0.0,0.0,0.0,0.0,0.0,0.0,0.0,0.0,0.0,0.0,0,0,0,0
12072000,47.3977419,8.545594,0.0,0.0,0.0,0.0,0.0,0.0,0.0,0.0,0.0,0.0,0,0,0,0
12168000,47.3977419,8.5455938,0.0,0.0,0.0,0.0,0.0,0.0,0.0,0.0,0.0,0.0,0,0,0,0
12264000,47.3977418,8.5455939,0.0,0.0,0.0,0.0,0.0,0.0,0.0,0.0,0.0,0.0,0,0,0,0
12360000,47.3977419,8.545594,0.0,0.0,0.0,0.0,0.0,0.0,0.0,0.0,0.0,0.0,0,0,0,0
12456000,47.397742,8.5455939,0.0,0.0,0.0,0.0,0.0,0.0,0.0,0.0,0.0,0.0,0,0,0,0
12552000,47.3977419,8.5455941,0.0,0.0,0.0,0.0,0.0,0.0,0.0,0.0,0.0,0.0,0,0,0,0
12648000,47.397742,8.545594,0.0,0.0,0.0,0.0,0.0,0.0,0.0,0.0,0.0,0.0,0,0,0,0
12744000,47.3977419,8.5455941,0.0,0.0,0.0,0.0,0.0,0.0,0.0,0.0,0.0,0.0,0,0,0,0
12840000,47.397742,8.5455939,0.0,0.0,0.0,0.0,0.0,0.0,0.0,0.0,0.0,0.0,0,0,0,0
12936000,47.3977419,8.5455939,0.0,0.0,0.0,0.0,0.0,0.0,0.0,0.0,0.0,0.0,0,0,0,0
13032000,47.3977419,8.545594,0.0,0.0,0.0,0.0,0.0,0.0,0.0,0.0,0.0,0.0,0,0,0,0
13128000,47.397742,8.5455942,0.0,0.0,0.0,0.0,0.0,0.0,0.0,0.0,0.0,0.0,0,0,0,0
13224000,47.3977418,8.5455939,0.0,0.0,0.0,0.0,0.0,0.0,0.0,0.0,0.0,0.0,0,0,0,0
13320000,47.397742,8.5455938,0.0,0.0,0.0,0.0,0.0,0.0,0.0,0.0,0.0,0.0,0,0,0,0
13416000,47.3977419,8.5455939,0.0,0.0,0.0,0.0,0.0,0.0,0.0,0.0,0.0,0.0,0,0,0,0
13512000,47.397742,8.5455938,0.0,0.0,0.0,0.0,0.0,0.0,0.0,0.0,0.0,0.0,0,0,0,0
13608000,47.397742,8.5455939,0.0,0.0,0.0,0.0,0.0,0.0,0.0,0.0,0.0,0.0,0,0,0,0
13704000,47.397742,8.5455938,0.0,0.0,0.0,0.0,0.0,0.0,0.0,0.0,0.0,0.0,0,0,0,0
13800000,47.397742,8.545594,0.0,0.0,0.0,0.0,0.0,0.0,0.0,0.0,0.0,0.0,0,0,0,0
13896000,47.3977419,8.545594,0.0,0.0,0.0,0.0,0.0,0.0,0.0,0.0,0.0,0.0,0,0,0,0
13992000,47.3977419,8.5455938,0.0,0.0,0.0,0.0,0.0,0.0,0.0,0.0,0.0,0.0,0,0,0,0
14088000,47.3977419,8.5455938,0.0,0.0,0.0,0.0,0.0,0.0,0.0,0.0,0.0,0.0,0,0,0,0
14184000,47.3977419,8.5455939,0.0,0.0,0.0,0.0,0.0,0.0,0.0,0.0,0.0,0.0,0,0,0,0
14280000,47.397742,8.5455941,0.0,0.0,0.0,0.0,0.0,0.0,0.0,0.0,0.0,0.0,0,0,0,0
14376000,47.3977419,8.5455941,0.0,0.0,0.0,0.0,0.0,0.0,0.0,0.0,0.0,0.0,0,0,0,0
14472000,47.3977419,8.5455941,0.0,0.0,0.0,0.0,0.0,0.0,0.0,0.0,0.0,0.0,0,0,0,0
14568000,47.3977419,8.545594,0.0,0.0,0.0,0.0,0.0,0.0,0.0,0.0,0.0,0.0,0,0,0,0
14664000,47.397742,8.545594,0.0,0.0,0.0,0.0,0.0,0.0,0.0,0.0,0.0,0.0,0,0,0,0
14760000,47.3977419,8.5455939,0.0,0.0,0.0,0.0,0.0,0.0,0.0,0.0,0.0,0.0,0,0,0,0
14856000,47.3977419,8.545594,0.0,0.0,0.0,0.0,0.0,0.0,0.0,0.0,0.0,0.0,0,0,0,0
14952000,47.3977419,8.5455936,0.0,0.0,0.0,0.0,0.0,0.0,0.0,0.0,0.0,0.0,0,0,0,0
15048000,47.3977418,8.5455939,0.0,0.0,0.0,0.0,0.0,0.0,0.0,0.0,0.0,0.0,0,0,0,0
15144000,47.397742,8.5455939,0.0,0.0,0.0,0.0,0.0,0.0,0.0,0.0,0.0,0.0,0,0,0,0
15240000,47.3977419,8.5455942,0.0,0.0,0.0,0.0,0.0,0.0,0.0,0.0,0.0,0.0,0,0,0,0
15336000,47.3977418,8.5455942,0.0,0.0,0.0,0.0,0.0,0.0,0.0,0.0,0.0,0.0,0,0,0,0
15432000,47.3977418,8.545594,0.0,0.0,0.0,0.0,0.0,0.0,0.0,0.0,0.0,0.0,0,0,0,0
15528000,47.3977418,8.5455942,0.0,0.0,0.0,0.0,0.0,0.0,0.0,0.0,0.0,0.0,0,0,0,0
15624000,47.3977419,8.5455941,0.0,0.0,0.0,0.0,0.0,0.0,0.0,0.0,0.0,0.0,0,0,0,0
15720000,47.397742,8.545594,0.0,0.0,0.0,0.0,0.0,0.0,0.0,0.0,0.0,0.0,0,0,0,0
15816000,47.3977418,8.545594,0.0,0.0,0.0,0.0,0.0,0.0,0.0,0.0,0.0,0.0,0,0,0,0
15912000,47.397742,8.545594,0.0,0.0,0.0,0.0,0.0,0.0,0.0,0.0,0.0,0.0,0,0,0,0
16008000,47.3977419,8.5455939,0.0,0.0,0.0,0.0,0.0,0.0,0.0,0.0,0.0,0.0,0,0,0,0
16104000,47.3977419,8.5455939,0.0,0.0,0.0,0.0,0.0,0.0,0.0,0.0,0.0,0.0,0,0,0,0
16200000,47.3977419,8.5455941,0.0,0.0,0.0,0.0,0.0,0.0,0.0,0.0,0.0,0.0,0,0,0,0
16296000,47.397742,8.5455939,0.0,0.0,0.0,0.0,0.0,0.0,0.0,0.0,0.0,0.0,0,0,0,0
16392000,47.3977418,8.545594,0.0,0.0,0.0,0.0,0.0,0.0,0.0,0.0,0.0,0.0,0,0,0,0
16488000,47.3977417,8.545594,0.0,0.0,0.0,0.0,0.0,0.0,0.0,0.0,0.0,0.0,0,0,0,0
16584000,47.3977418,8.5455941,0.0,0.0,0.0,0.0,0.0,0.0,0.0,0.0,0.0,0.0,0,0,0,0
16680000,47.397742,8.5455943,0.0,0.0,0.0,0.0,0.0,0.0,0.0,0.0,0.0,0.0,0,0,0,0
16776000,47.397742,8.5455939,0.0,0.0,0.0,0.0,0.0,0.0,0.0,0.0,0.0,0.0,0,0,0,0
16872000,47.397742,8.5455941,0.0,0.0,0.0,0.0,0.0,0.0,0.0,0.0,0.0,0.0,0,0,0,0
16968000,47.397742,8.545594,0.0,0.0,0.0,0.0,0.0,0.0,0.0,0.0,0.0,0.0,0,0,0,0
17064000,47.397742,8.5455941,0.0,0.0,0.0,0.0,0.0,0.0,0.0,0.0,0.0,0.0,0,0,0,0
17160000,47.3977419,8.5455938,0.0,0.0,0.0,0.0,0.0,0.0,0.0,0.0,0.0,0.0,0,0,0,0
17256000,47.3977419,8.5455937,0.0,0.0,0.0,0.0,0.0,0.0,0.0,0.0,0.0,0.0,0,0,0,0
17352000,47.3977419,8.545594,0.0,0.0,0.0,0.0,0.0,0.0,0.0,0.0,0.0,0.0,0,0,0,0
17448000,47.397742,8.5455938,0.0,0.0,0.0,0.0,0.0,0.0,0.0,0.0,0.0,0.0,0,0,0,0
17544000,47.3977419,8.5455939,0.0,0.0,0.0,0.0,0.0,0.0,0.0,0.0,0.0,0.0,0,0,0,0
17640000,47.397742,8.5455941,0.0,0.0,0.0,0.0,0.0,0.0,0.0,0.0,0.0,0.0,0,0,0,0
17736000,47.3977419,8.545594,0.0,0.0,0.0,0.0,0.0,0.0,0.0,0.0,0.0,0.0,0,0,0,0
17832000,47.3977419,8.5455937,0.0,0.0,0.0,0.0,0.0,0.0,0.0,0.0,0.0,0.0,0,0,0,0
17928000,47.397742,8.5455939,0.0,0.0,0.0,0.0,0.0,0.0,0.0,0.0,0.0,0.0,0,0,0,0
18024000,47.3977417,8.545594,0.0,0.0,0.0,0.0,0.0,0.0,0.0,0.0,0.0,0.0,0,0,0,0
18120000,47.3977419,8.5455941,0.0,0.0,0.0,0.0,0.0,0.0,0.0,0.0,0.0,0.0,0,0,0,0
18216000,47.397742,8.545594,0.0,0.0,0.0,0.0,0.0,0.0,0.0,0.0,0.0,0.0,0,0,0,0
18312000,47.397742,8.545594,0.0,0.0,0.0,0.0,0.0,0.0,0.0,0.0,0.0,0.0,0,0,0,0
18408000,47.3977421,8.5455938,0.0,0.0,0.0,0.0,0.0,0.0,0.0,0.0,0.0,0.0,0,0,0,0
18504000,47.397742,8.5455939,0.0,0.0,0.0,0.0,0.0,0.0,0.0,0.0,0.0,0.0,0,0,0,0
18600000,47.3977421,8.5455937,0.0,0.0,0.0,0.0,0.0,0.0,0.0,0.0,0.0,0.0,0,0,0,0
18696000,47.3977421,8.5455939,0.0,0.0,0.0,0.0,0.0,0.0,0.0,0.0,0.0,0.0,0,0,0,0
18792000,47.397742,8.545594,0.0,0.0,0.0,0.0,0.0,0.0,0.0,0.0,0.0,0.0,0,0,0,0
18888000,47.397742,8.5455942,0.0,0.0,0.0,0.0,0.0,0.0,0.0,0.0,0.0,0.0,0,0,0,0
18984000,47.3977419,8.545594,0.0,0.0,0.0,0.0,0.0,0.0,0.0,0.0,0.0,0.0,0,0,0,0
19080000,47.3977419,8.5455938,0.0,0.0,0.0,0.0,0.0,0.0,0.0,0.0,0.0,0.0,0,0,0,0
19176000,47.3977419,8.5455937,0.0,0.0,0.0,0.0,0.0,0.0,0.0,0.0,0.0,0.0,0,0,0,0
19272000,47.3977419,8.5455938,0.0,0.0,0.0,0.0,0.0,0.0,0.0,0.0,0.0,0.0,0,0,0,0
19368000,47.3977418,8.5455937,0.0,0.0,0.0,0.0,0.0,0.0,0.0,0.0,0.0,0.0,0,0,0,0
19464000,47.3977418,8.5455938,0.0,0.0,0.0,0.0,0.0,0.0,0.0,0.0,0.0,0.0,0,0,0,0
19560000,47.3977419,8.5455938,0.0,0.0,0.0,0.0,0.0,0.0,0.0,0.0,0.0,0.0,0,0,0,0
19656000,47.3977419,8.5455939,0.0,0.0,0.0,0.0,0.0,0.0,0.0,0.0,0.0,0.0,0,0,0,0
19752000,47.397742,8.5455937,0.0,0.0,0.0,0.0,0.0,0.0,0.0,0.0,0.0,0.0,0,0,0,0
19848000,47.3977419,8.5455937,0.0,0.0,0.0,0.0,0.0,0.0,0.0,0.0,0.0,0.0,0,0,0,0
19944000,47.3977418,8.5455938,0.0,0.0,0.0,0.0,0.0,0.0,0.0,0.0,0.0,0.0,0,0,0,0
20040000,47.397742,8.5455937,0.0,0.0,0.0,0.0,0.0,0.0,0.0,0.0,0.0,0.0,0,0,0,0
20136000,47.397742,8.5455939,0.0,0.0,0.0,0.0,0.0,0.0,0.0,0.0,0.0,0.0,0,0,0,0
20232000,47.3977422,8.5455937,0.0,0.0,0.0,0.0,0.0,0.0,0.0,0.0,0.0,0.0,0,0,0,0
20328000,47.3977422,8.5455939,0.0,0.0,0.0,0.0,0.0,0.0,0.0,0.0,0.0,0.0,0,0,0,0
20424000,47.397742,8.545594,0.0,0.0,0.0,0.0,0.0,0.0,0.0,0.0,0.0,0.0,0,0,0,0
20520000,47.3977418,8.5455939,0.0,0.0,0.0,0.0,0.0,0.0,0.0,0.0,0.0,0.0,0,0,0,0
20616000,47.3977418,8.5455938,0.0,0.0,0.0,0.0,0.0,0.0,0.0,0.0,0.0,0.0,0,0,0,0
20712000,47.3977418,8.5455938,0.0,0.0,0.0,0.0,0.0,0.0,0.0,0.0,0.0,0.0,0,0,0,0
20808000,47.3977419,8.545594,0.0,0.0,0.0,0.0,0.0,0.0,0.0,0.0,0.0,0.0,0,0,0,0
20904000,47.3977418,8.545594,0.0,0.0,0.0,0.0,0.0,0.0,0.0,0.0,0.0,0.0,0,0,0,0
21000000,47.397742,8.545594,0.0,0.0,0.0,0.0,0.0,0.0,0.0,0.0,0.0,0.0,0,0,0,0
21096000,47.397742,8.5455939,0.0,0.0,0.0,0.0,0.0,0.0,0.0,0.0,0.0,0.0,0,0,0,0
21192000,47.3977419,8.5455938,0.0,0.0,0.0,0.0,0.0,0.0,0.0,0.0,0.0,0.0,0,0,0,0
21288000,47.397742,8.5455941,0.0,0.0,0.0,0.0,0.0,0.0,0.0,0.0,0.0,0.0,0,0,0,0
21384000,47.3977419,8.5455939,0.0,0.0,0.0,0.0,0.0,0.0,0.0,0.0,0.0,0.0,0,0,0,0
21480000,47.397742,8.5455938,0.0,0.0,0.0,0.0,0.0,0.0,0.0,0.0,0.0,0.0,0,0,0,0
21576000,47.3977419,8.5455938,0.0,0.0,0.0,0.0,0.0,0.0,0.0,0.0,0.0,0.0,0,0,0,0
21672000,47.3977419,8.5455939,0.0,0.0,0.0,0.0,0.0,0.0,0.0,0.0,0.0,0.0,0,0,0,0
21768000,47.3977418,8.5455942,0.0,0.0,0.0,0.0,0.0,0.0,0.0,0.0,0.0,0.0,0,0,0,0
21864000,47.3977419,8.5455939,0.0,0.0,0.0,0.0,0.0,0.0,0.0,0.0,0.0,0.0,0,0,0,0
21960000,47.3977417,8.5455938,0.0,0.0,0.0,0.0,0.0,0.0,0.0,0.0,0.0,0.0,0,0,0,0
22056000,47.3977418,8.545594,0.0,0.0,0.0,0.0,0.0,0.0,0.0,0.0,0.0,0.0,0,0,0,0
22152000,47.397742,8.5455939,0.0,0.0,0.0,0.0,0.0,0.0,0.0,0.0,0.0,0.0,0,0,0,0
22248000,47.397742,8.545594,0.0,0.0,0.0,0.0,0.0,0.0,0.0,0.0,0.0,0.0,0,0,0,0
22344000,47.3977419,8.545594,0.0,0.0,0.0,0.0,0.0,0.0,0.0,0.0,0.0,0.0,0,0,0,0
22440000,47.397742,8.545594,0.0,0.0,0.0,0.0,0.0,0.0,0.0,0.0,0.0,0.0,0,0,0,0
22536000,47.3977419,8.5455941,0.0,0.0,0.0,0.0,0.0,0.0,0.0,0.0,0.0,0.0,0,0,0,0
22632000,47.3977421,8.545594,0.0,0.0,0.0,0.0,0.0,0.0,0.0,0.0,0.0,0.0,0,0,0,0
22728000,47.3977419,8.5455942,0.0,0.0,0.0,0.0,0.0,0.0,0.0,0.0,0.0,0.0,0,0,0,0
22824000,47.3977419,8.5455941,0.0,0.0,0.0,0.0,0.0,0.0,0.0,0.0,0.0,0.0,0,0,0,0
22920000,47.3977419,8.5455939,0.0,0.0,0.0,0.0,0.0,0.0,0.0,0.0,0.0,0.0,0,0,0,0
23016000,47.397742,8.5455939,0.0,0.0,0.0,0.0,0.0,0.0,0.0,0.0,0.0,0.0,0,0,0,0
23112000,47.397742,8.545594,0.0,0.0,0.0,0.0,0.0,0.0,0.0,0.0,0.0,0.0,0,0,0,0
23208000,47.397742,8.5455941,0.0,0.0,0.0,0.0,0.0,0.0,0.0,0.0,0.0,0.0,0,0,0,0
23304000,47.397742,8.545594,0.0,0.0,0.0,0.0,0.0,0.0,0.0,0.0,0.0,0.0,0,0,0,0
23400000,47.397742,8.545594,0.0,0.0,0.0,0.0,0.0,0.0,0.0,0.0,0.0,0.0,0,0,0,0
23496000,47.397742,8.5455941,0.0,0.0,0.0,0.0,0.0,0.0,0.0,0.0,0.0,0.0,0,0,0,0
23592000,47.397742,8.545594,0.0,0.0,0.0,0.0,0.0,0.0,0.0,0.0,0.0,0.0,0,0,0,0
23688000,47.397742,8.5455941,0.0,0.0,0.0,0.0,0.0,0.0,0.0,0.0,0.0,0.0,0,0,0,0
23784000,47.3977421,8.5455941,0.0,0.0,0.0,0.0,0.0,0.0,0.0,0.0,0.0,0.0,0,0,0,0
23880000,47.397742,8.545594,0.0,0.0,0.0,0.0,0.0,0.0,0.0,0.0,0.0,0.0,0,0,0,0
23976000,47.397742,8.5455941,0.0,0.0,0.0,0.0,0.0,0.0,0.0,0.0,0.0,0.0,0,0,0,0
24072000,47.397742,8.5455941,0.0,0.0,0.0,0.0,0.0,0.0,0.0,0.0,0.0,0.0,0,0,0,0
24168000,47.397742,8.5455942,0.0,0.0,0.0,0.0,0.0,0.0,0.0,0.0,0.0,0.0,0,0,0,0
24264000,47.3977419,8.5455942,0.0,0.0,0.0,0.0,0.0,0.0,0.0,0.0,0.0,0.0,0,0,0,0
24360000,47.3977419,8.5455943,0.0,0.0,0.0,0.0,0.0,0.0,0.0,0.0,0.0,0.0,0,0,0,0
24456000,47.397742,8.5455941,0.0,0.0,0.0,0.0,0.0,0.0,0.0,0.0,0.0,0.0,0,0,0,0
24552000,47.3977422,8.545594,0.0,0.0,0.0,0.0,0.0,0.0,0.0,0.0,0.0,0.0,0,0,0,0
24648000,47.3977419,8.5455939,0.0,0.0,0.0,0.0,0.0,0.0,0.0,0.0,0.0,0.0,0,0,0,0
24744000,47.397742,8.545594,0.0,0.0,0.0,0.0,0.0,0.0,0.0,0.0,0.0,0.0,0,0,0,0
24840000,47.3977419,8.5455939,0.0,0.0,0.0,0.0,0.0,0.0,0.0,0.0,0.0,0.0,0,0,0,0
24936000,47.3977418,8.545594,0.0,0.0,0.0,0.0,0.0,0.0,0.0,0.0,0.0,0.0,0,0,0,0
25032000,47.3977419,8.5455939,0.0,0.0,0.0,0.0,0.0,0.0,0.0,0.0,0.0,0.0,0,0,0,0
25128000,47.3977419,8.5455941,0.0,0.0,0.0,0.0,0.0,0.0,0.0,0.0,0.0,0.0,0,0,0,0
25224000,47.397742,8.545594,0.0,0.0,0.0,0.0,0.0,0.0,0.0,0.0,0.0,0.0,0,0,0,0
25320000,47.3977419,8.545594,0.0,0.0,0.0,0.0,0.0,0.0,0.0,0.0,0.0,0.0,0,0,0,0
25416000,47.3977418,8.5455939,0.0,0.0,0.0,0.0,0.0,0.0,0.0,0.0,0.0,0.0,0,0,0,0
25512000,47.3977419,8.5455939,0.0,0.0,0.0,0.0,0.0,0.0,0.0,0.0,0.0,0.0,0,0,0,0
25608000,47.3977418,8.5455939,0.0,0.0,0.0,0.0,0.0,0.0,0.0,0.0,0.0,0.0,0,0,0,0
25704000,47.3977419,8.5455941,0.0,0.0,0.0,0.0,0.0,0.0,0.0,0.0,0.0,0.0,0,0,0,0
25800000,47.3977418,8.5455938,0.0,0.0,0.0,0.0,0.0,0.0,0.0,0.0,0.0,0.0,0,0,0,0
25896000,47.3977419,8.5455938,0.0,0.0,0.0,0.0,0.0,0.0,0.0,0.0,0.0,0.0,0,0,0,0
25992000,47.3977418,8.5455939,0.0,0.0,0.0,0.0,0.0,0.0,0.0,0.0,0.0,0.0,0,0,0,0
26088000,47.3977419,8.5455939,0.0,0.0,0.0,0.0,0.0,0.0,0.0,0.0,0.0,0.0,0,0,0,0
26184000,47.3977418,8.5455936,0.0,0.0,0.0,0.0,0.0,0.0,0.0,0.0,0.0,0.0,0,0,0,0
26280000,47.3977419,8.5455937,0.0,0.0,0.0,0.0,0.0,0.0,0.0,0.0,0.0,0.0,0,0,0,0
26376000,47.3977419,8.5455937,0.0,0.0,0.0,0.0,0.0,0.0,0.0,0.0,0.0,0.0,0,0,0,0
26472000,47.3977418,8.545594,0.0,0.0,0.0,0.0,0.0,0.0,0.0,0.0,0.0,0.0,0,0,0,0
26568000,47.397742,8.545594,0.0,0.0,0.0,0.0,0.0,0.0,0.0,0.0,0.0,0.0,0,0,0,0
26664000,47.397742,8.545594,0.0,0.0,0.0,0.0,0.0,0.0,0.0,0.0,0.0,0.0,0,0,0,0
26760000,47.397742,8.545594,0.0,0.0,0.0,0.0,0.0,0.0,0.0,0.0,0.0,0.0,0,0,0,0
26856000,47.3977419,8.5455941,0.0,0.0,0.0,0.0,0.0,0.0,0.0,0.0,0.0,0.0,0,0,0,0
26952000,47.397742,8.5455938,0.0,0.0,0.0,0.0,0.0,0.0,0.0,0.0,0.0,0.0,0,0,0,0
27048000,47.397742,8.5455941,0.0,0.0,0.0,0.0,0.0,0.0,0.0,0.0,0.0,0.0,0,0,0,0
27144000,47.397742,8.5455939,0.0,0.0,0.0,0.0,0.0,0.0,0.0,0.0,0.0,0.0,0,0,0,0
27240000,47.3977419,8.5455939,0.0,0.0,0.0,0.0,0.0,0.0,0.0,0.0,0.0,0.0,0,0,0,0
27336000,47.3977419,8.5455938,0.0,0.0,0.0,0.0,0.0,0.0,0.0,0.0,0.0,0.0,0,0,0,0
27432000,47.3977419,8.5455938,0.0,0.0,0.0,0.0,0.0,0.0,0.0,0.0,0.0,0.0,0,0,0,0
27528000,47.397742,8.5455937,0.0,0.0,0.0,0.0,0.0,0.0,0.0,0.0,0.0,0.0,0,0,0,0
27624000,47.3977419,8.545594,0.0,0.0,0.0,0.0,0.0,0.0,0.0,0.0,0.0,0.0,0,0,0,0
27720000,47.3977419,8.5455938,0.0,0.0,0.0,0.0,0.0,0.0,0.0,0.0,0.0,0.0,0,0,0,0
27816000,47.3977418,8.5455942,0.0,0.0,0.0,0.0,0.0,0.0,0.0,0.0,0.0,0.0,0,0,0,0
27912000,47.3977419,8.5455941,0.0,0.0,0.0,0.0,0.0,0.0,0.0,0.0,0.0,0.0,0,0,0,0
28008000,47.3977421,8.5455941,0.0,0.0,0.0,0.0,0.0,0.0,0.0,0.0,0.0,0.0,0,0,0,0
28104000,47.397742,8.5455941,0.0,0.0,0.0,0.0,0.0,0.0,0.0,0.0,0.0,0.0,0,0,0,0
28200000,47.3977421,8.5455939,0.0,0.0,0.0,0.0,0.0,0.0,0.0,0.0,0.0,0.0,0,0,0,0
28296000,47.397742,8.5455938,0.0,0.0,0.0,0.0,0.0,0.0,0.0,0.0,0.0,0.0,0,0,0,0
28392000,47.3977419,8.5455939,0.0,0.0,0.0,0.0,0.0,0.0,0.0,0.0,0.0,0.0,0,0,0,0
28488000,47.397742,8.5455938,0.0,0.0,0.0,0.0,0.0,0.0,0.0,0.0,0.0,0.0,0,0,0,0
28584000,47.3977421,8.5455938,0.0,0.0,0.0,0.0,0.0,0.0,0.0,0.0,0.0,0.0,0,0,0,0
28680000,47.397742,8.545594,0.0,0.0,0.0,0.0,0.0,0.0,0.0,0.0,0.0,0.0,0,0,0,0
28776000,47.3977419,8.5455939,0.0,0.0,0.0,0.0,0.0,0.0,0.0,0.0,0.0,0.0,0,0,0,0
28872000,47.3977421,8.5455939,0.0,0.0,0.0,0.0,0.0,0.0,0.0,0.0,0.0,0.0,0,0,0,0
28968000,47.3977419,8.5455938,0.0,0.0,0.0,0.0,0.0,0.0,0.0,0.0,0.0,0.0,0,0,0,0
29064000,47.397742,8.5455939,0.0,0.0,0.0,0.0,0.0,0.0,0.0,0.0,0.0,0.0,0,0,0,0
29160000,47.397742,8.5455938,0.0,0.0,0.0,0.0,0.0,0.0,0.0,0.0,0.0,0.0,0,0,0,0
29256000,47.397742,8.545594,0.0,0.0,0.0,0.0,0.0,0.0,0.0,0.0,0.0,0.0,0,0,0,0
29352000,47.3977419,8.5455939,0.0,0.0,0.0,0.0,0.0,0.0,0.0,0.0,0.0,0.0,0,0,0,0
29448000,47.397742,8.545594,0.0,0.0,0.0,0.0,0.0,0.0,0.0,0.0,0.0,0.0,0,0,0,0
29544000,47.3977421,8.5455942,0.0,0.0,0.0,0.0,0.0,0.0,0.0,0.0,0.0,0.0,0,0,0,0
29640000,47.397742,8.545594,0.0,0.0,0.0,0.0,0.0,0.0,0.0,0.0,0.0,0.0,0,0,0,0
29736000,47.3977421,8.5455942,0.0,0.0,0.0,0.0,0.0,0.0,0.0,0.0,0.0,0.0,0,0,0,0
29832000,47.397742,8.5455942,0.0,0.0,0.0,0.0,0.0,0.0,0.0,0.0,0.0,0.0,0,0,0,0
29928000,47.397742,8.545594,0.0,0.0,0.0,0.0,0.0,0.0,0.0,0.0,0.0,0.0,0,0,0,0
30024000,47.3977419,8.5455943,0.0,0.0,0.0,0.0,0.0,0.0,0.0,0.0,0.0,0.0,0,0,0,0
30120000,47.397742,8.545594,0.0,0.0,0.0,0.0,0.0,0.0,0.0,0.0,0.0,0.0,0,0,0,0
30216000,47.397742,8.5455939,0.0,0.0,0.0,0.0,0.0,0.0,0.0,0.0,0.0,0.0,0,0,0,0
30312000,47.397742,8.5455941,0.0,0.0,0.0,0.0,0.0,0.0,0.0,0.0,0.0,0.0,0,0,0,0
30408000,47.397742,8.545594,0.0,0.0,0.0,0.0,0.0,0.0,0.0,0.0,0.0,0.0,0,0,0,0
30504000,47.397742,8.545594,0.0,0.0,0.0,0.0,0.0,0.0,0.0,0.0,0.0,0.0,0,0,0,0
30600000,47.397742,8.5455937,0.0,0.0,0.0,0.0,0.0,0.0,0.0,0.0,0.0,0.0,0,0,0,0
30696000,47.3977421,8.5455938,0.0,0.0,0.0,0.0,0.0,0.0,0.0,0.0,0.0,0.0,0,0,0,0
30792000,47.3977421,8.5455939,0.0,0.0,0.0,0.0,0.0,0.0,0.0,0.0,0.0,0.0,0,0,0,0
30888000,47.397742,8.5455938,0.0,0.0,0.0,0.0,0.0,0.0,0.0,0.0,0.0,0.0,0,0,0,0
30984000,47.3977421,8.5455939,0.0,0.0,0.0,0.0,0.0,0.0,0.0,0.0,0.0,0.0,0,0,0,0
31080000,47.397742,8.5455938,0.0,0.0,0.0,0.0,0.0,0.0,0.0,0.0,0.0,0.0,0,0,0,0
31176000,47.3977419,8.5455938,0.0,0.0,0.0,0.0,0.0,0.0,0.0,0.0,0.0,0.0,0,0,0,0
31272000,47.397742,8.5455939,0.0,0.0,0.0,0.0,0.0,0.0,0.0,0.0,0.0,0.0,0,0,0,0
31368000,47.3977419,8.5455939,0.0,0.0,0.0,0.0,0.0,0.0,0.0,0.0,0.0,0.0,0,0,0,0
31464000,47.3977419,8.545594,0.0,0.0,0.0,0.0,0.0,0.0,0.0,0.0,0.0,0.0,0,0,0,0
31560000,47.3977419,8.545594,0.0,0.0,0.0,0.0,0.0,0.0,0.0,0.0,0.0,0.0,0,0,0,0
31656000,47.3977421,8.5455939,0.0,0.0,0.0,0.0,0.0,0.0,0.0,0.0,0.0,0.0,0,0,0,0
31752000,47.3977419,8.545594,0.0,0.0,0.0,0.0,0.0,0.0,0.0,0.0,0.0,0.0,0,0,0,0
31848000,47.3977418,8.5455937,0.0,0.0,0.0,0.0,0.0,0.0,0.0,0.0,0.0,0.0,0,0,0,0
31944000,47.3977419,8.5455939,0.0,0.0,0.0,0.0,0.0,0.0,0.0,0.0,0.0,0.0,0,0,0,0
32040000,47.397742,8.5455939,0.0,0.0,0.0,0.0,0.0,0.0,0.0,0.0,0.0,0.0,0,0,0,0
32136000,47.3977419,8.545594,0.0,0.0,0.0,0.0,0.0,0.0,0.0,0.0,0.0,0.0,0,0,0,0
32232000,47.3977419,8.5455942,0.0,0.0,0.0,0.0,0.0,0.0,0.0,0.0,0.0,0.0,0,0,0,0
32328000,47.397742,8.5455941,0.0,0.0,0.0,0.0,0.0,0.0,0.0,0.0,0.0,0.0,0,0,0,0
32424000,47.397742,8.545594,0.0,0.0,0.0,0.0,0.0,0.0,0.0,0.0,0.0,0.0,0,0,0,0
32520000,47.3977418,8.5455941,0.0,0.0,0.0,0.0,0.0,0.0,0.0,0.0,0.0,0.0,0,0,0,0
32616000,47.3977419,8.5455943,0.0,0.0,0.0,0.0,0.0,0.0,0.0,0.0,0.0,0.0,0,0,0,0
32712000,47.397742,8.5455941,0.0,0.0,0.0,0.0,0.0,0.0,0.0,0.0,0.0,0.0,0,0,0,0
32808000,47.397742,8.5455936,0.0,0.0,0.0,0.0,0.0,0.0,0.0,0.0,0.0,0.0,0,0,0,0
32904000,47.3977421,8.5455938,0.0,0.0,0.0,0.0,0.0,0.0,0.0,0.0,0.0,0.0,0,0,0,0
33000000,47.397742,8.5455937,0.0,0.0,0.0,0.0,0.0,0.0,0.0,0.0,0.0,0.0,0,0,0,0
33096000,47.397742,8.545594,0.0,0.0,0.0,0.0,0.0,0.0,0.0,0.0,0.0,0.0,0,0,0,0
33192000,47.3977421,8.5455938,0.0,0.0,0.0,0.0,0.0,0.0,0.0,0.0,0.0,0.0,0,0,0,0
33288000,47.3977419,8.5455938,0.0,0.0,0.0,0.0,0.0,0.0,0.0,0.0,0.0,0.0,0,0,0,0
33384000,47.3977418,8.545594,0.0,0.0,0.0,0.0,0.0,0.0,0.0,0.0,0.0,0.0,0,0,0,0
33480000,47.3977418,8.5455939,0.0,0.0,0.0,0.0,0.0,0.0,0.0,0.0,0.0,0.0,0,0,0,0
33576000,47.3977419,8.545594,0.0,0.0,0.0,0.0,0.0,0.0,0.0,0.0,0.0,0.0,0,0,0,0
33672000,47.3977418,8.5455938,0.0,0.0,0.0,0.0,0.0,0.0,0.0,0.0,0.0,0.0,0,0,0,0
33768000,47.397742,8.5455937,0.0,0.0,0.0,0.0,0.0,0.0,0.0,0.0,0.0,0.0,0,0,0,0
33864000,47.397742,8.5455939,0.0,0.0,0.0,0.0,0.0,0.0,0.0,0.0,0.0,0.0,0,0,0,0
33960000,47.397742,8.5455938,0.0,0.0,0.0,0.0,0.0,0.0,0.0,0.0,0.0,0.0,0,0,0,0
34056000,47.3977419,8.545594,0.0,0.0,0.0,0.0,0.0,0.0,0.0,0.0,0.0,0.0,0,0,0,0
34152000,47.397742,8.5455941,0.0,0.0,0.0,0.0,0.0,0.0,0.0,0.0,0.0,0.0,0,0,0,0
34248000,47.397742,8.5455941,0.0,0.0,0.0,0.0,0.0,0.0,0.0,0.0,0.0,0.0,0,0,0,0
34344000,47.3977418,8.545594,0.0,0.0,0.0,0.0,0.0,0.0,0.0,0.0,0.0,0.0,0,0,0,0
34440000,47.3977418,8.5455939,0.0,0.0,0.0,0.0,0.0,0.0,0.0,0.0,0.0,0.0,0,0,0,0
34536000,47.397742,8.5455941,0.0,0.0,0.0,0.0,0.0,0.0,0.0,0.0,0.0,0.0,0,0,0,0
34632000,47.3977419,8.5455942,0.0,0.0,0.0,0.0,0.0,0.0,0.0,0.0,0.0,0.0,0,0,0,0
34728000,47.397742,8.545594,0.0,0.0,0.0,0.0,0.0,0.0,0.0,0.0,0.0,0.0,0,0,0,0
34824000,47.397742,8.545594,0.0,0.0,0.0,0.0,0.0,0.0,0.0,0.0,0.0,0.0,0,0,0,0
34920000,47.3977419,8.5455938,0.0,0.0,0.0,0.0,0.0,0.0,0.0,0.0,0.0,0.0,0,0,0,0
35016000,47.3977419,8.5455941,0.0,0.0,0.0,0.0,0.0,0.0,0.0,0.0,0.0,0.0,0,0,0,0
35112000,47.3977421,8.5455942,0.0,0.0,0.0,0.0,0.0,0.0,0.0,0.0,0.0,0.0,0,0,0,0
35208000,47.397742,8.5455942,0.0,0.0,0.0,0.0,0.0,0.0,0.0,0.0,0.0,0.0,0,0,0,0
35304000,47.3977419,8.5455939,0.0,0.0,0.0,0.0,0.0,0.0,0.0,0.0,0.0,0.0,0,0,0,0
35400000,47.3977421,8.545594,0.0,0.0,0.0,0.0,0.0,0.0,0.0,0.0,0.0,0.0,0,0,0,0
35496000,47.397742,8.5455937,0.0,0.0,0.0,0.0,0.0,0.0,0.0,0.0,0.0,0.0,0,0,0,0
35592000,47.3977419,8.545594,0.0,0.0,0.0,0.0,0.0,0.0,0.0,0.0,0.0,0.0,0,0,0,0
35688000,47.3977419,8.545594,0.0,0.0,0.0,0.0,0.0,0.0,0.0,0.0,0.0,0.0,0,0,0,0
35784000,47.3977418,8.5455942,0.0,0.0,0.0,0.0,0.0,0.0,0.0,0.0,0.0,0.0,0,0,0,0
35880000,47.397742,8.545594,0.0,0.0,0.0,0.0,0.0,0.0,0.0,0.0,0.0,0.0,0,0,0,0
35976000,47.3977418,8.5455938,0.0,0.0,0.0,0.0,0.0,0.0,0.0,0.0,0.0,0.0,0,0,0,0
36072000,47.3977418,8.5455941,0.0,0.0,0.0,0.0,0.0,0.0,0.0,0.0,0.0,0.0,0,0,0,0
36168000,47.3977419,8.545594,0.0,0.0,0.0,0.0,0.0,0.0,0.0,0.0,0.0,0.0,0,0,0,0
36264000,47.397742,8.5455939,0.0,0.0,0.0,0.0,0.0,0.0,0.0,0.0,0.0,0.0,0,0,0,0
36360000,47.397742,8.5455941,0.0,0.0,0.0,0.0,0.0,0.0,0.0,0.0,0.0,0.0,0,0,0,0
36456000,47.3977419,8.5455941,0.0,0.0,0.0,0.0,0.0,0.0,0.0,0.0,0.0,0.0,0,0,0,0
36552000,47.3977419,8.5455938,0.0,0.0,0.0,0.0,0.0,0.0,0.0,0.0,0.0,0.0,0,0,0,0
36648000,47.3977419,8.545594,-0.001,0.0,0.0,0.0,0.0,-0.05,0.0,0.0,0.0,0.0,0,0,0,0
36744000,47.3977418,8.5455942,-0.012,0.0,0.0,0.0,0.0,-0.17,0.0,0.0,0.0,0.0,0,0,0,0
36840000,47.3977418,8.5455943,-0.035,0.0,0.0,0.0,0.0,-0.3,0.0,0.0,0.0,0.0,0,0,0,0
36936000,47.397742,8.5455941,-0.07,0.0,0.0,0.0,0.0,-0.42,0.0,0.0,0.0,0.0,0,0,0,0
37032000,47.397742,8.545594,-0.116,0.0,0.0,0.01,0.01,-0.54,0.0,0.0,0.0,0.0,0,0,0,0
37128000,47.3977419,8.5455942,-0.175,0.0,0.0,0.01,0.01,-0.67,0.0,0.0,0.0,0.0,0,0,0,0
37224000,47.397742,8.545594,-0.246,0.0,0.0,0.01,0.01,-0.8,0.0,0.0,0.0,0.0,0,0,0,0
37320000,47.3977421,8.5455941,-0.329,0.0,0.0,0.01,0.02,-0.93,0.0,0.0,0.0,0.0,0,0,0,0
37416000,47.3977421,8.5455943,-0.426,0.0,0.0,0.02,0.02,-1.07,0.0,0.0,0.0,0.0,0,0,0,0
37512000,47.397742,8.5455941,-0.534,0.0,0.0,0.02,0.02,-1.2,0.0,0.0,0.0,0.0,0,0,0,0
37608000,47.397742,8.5455941,-0.656,0.0,0.0,0.02,0.02,-1.33,0.0,0.0,0.0,0.0,0,0,0,0
37704000,47.3977422,8.5455943,-0.79,0.0,0.0,0.02,0.02,-1.46,0.0,0.0,0.0,0.0,0,0,0,0
37800000,47.3977422,8.5455946,-0.937,0.0,0.0,0.02,0.02,-1.59,0.0,0.0,0.0,0.0,0,0,0,0
37896000,47.3977423,8.5455943,-1.097,0.0,0.0,0.02,0.02,-1.72,0.0,0.0,0.0,0.0,0,0,0,0
37992000,47.3977423,8.5455945,-1.269,0.0,0.0,0.02,0.02,-1.86,0.0,0.0,0.0,0.0,0,0,0,0
38088000,47.3977423,8.5455944,-1.453,0.0,0.0,0.02,0.02,-1.99,0.0,0.0,0.0,0.0,0,0,0,0
38184000,47.3977423,8.5455944,-1.65,0.0,0.0,0.02,0.02,-2.11,0.0,0.0,0.0,0.0,0,0,0,0
38280000,47.3977422,8.5455944,-1.86,0.0,0.0,0.02,0.02,-2.24,0.0,0.0,0.0,0.0,0,0,0,0
38376000,47.3977424,8.5455944,-2.081,0.0,0.0,0.02,0.02,-2.37,0.0,0.0,0.0,0.0,0,0,0,0
38472000,47.3977423,8.5455946,-2.315,0.0,0.0,0.02,0.02,-2.49,0.0,0.0,0.0,0.0,0,0,0,0
38568000,47.3977424,8.5455945,-2.558,0.0,0.0,0.02,0.02,-2.55,0.0,0.0,0.0,0.0,0,0,0,0
38664000,47.3977424,8.5455946,-2.8,0.0,0.0,0.01,0.02,-2.47,0.0,0.0,0.0,0.0,0,0,0,0
38760000,47.3977423,8.5455946,-3.033,0.0,0.0,0.01,0.02,-2.37,0.0,0.0,0.0,0.0,0,0,0,0
38856000,47.3977424,8.5455946,-3.256,0.0,0.0,0.01,0.02,-2.28,0.0,0.0,0.0,0.0,0,0,0,0
38952000,47.3977422,8.5455948,-3.472,0.0,0.0,0.01,0.01,-2.2,0.0,0.0,0.0,0.0,0,0,0,0
39048000,47.3977422,8.5455946,-3.679,0.0,0.0,0.0,0.01,-2.11,0.0,0.0,0.0,0.0,0,0,0,0
39144000,47.3977425,8.5455947,-3.879,0.0,0.0,0.0,0.01,-2.04,0.0,0.0,0.0,0.0,0,0,0,0
39240000,47.3977424,8.5455947,-4.072,0.0,0.0,0.0,0.01,-1.97,0.0,0.0,0.0,0.0,0,0,0,0
39336000,47.3977424,8.5455947,-4.258,0.0,0.0,0.0,0.01,-1.91,0.0,0.0,0.0,0.0,0,0,0,0
39432000,47.3977424,8.5455949,-4.439,0.0,0.0,0.0,0.01,-1.85,0.0,0.0,0.0,0.0,0,0,0,0
39528000,47.3977423,8.545595,-4.615,0.0,0.0,-0.01,0.01,-1.8,0.0,0.0,0.0,0.0,0,0,0,0
39624000,47.3977424,8.5455949,-4.786,0.0,0.0,-0.01,0.0,-1.76,0.0,0.0,0.0,0.0,0,0,0,0
39720000,47.3977423,8.5455948,-4.953,0.0,0.0,-0.01,0.0,-1.72,0.0,0.0,0.0,0.0,0,0,0,0
39816000,47.3977423,8.5455946,-5.117,0.0,0.0,-0.01,0.0,-1.68,0.0,0.0,0.0,0.0,0,0,0,0
39912000,47.3977423,8.5455943,-5.277,0.0,0.0,-0.02,0.0,-1.65,0.0,0.0,0.0,0.0,0,0,0,0
40008000,47.3977423,8.5455947,-5.435,0.0,0.0,-0.02,0.0,-1.62,0.0,0.0,0.0,0.0,0,0,0,0
40104000,47.3977423,8.545595,-5.59,0.0,0.0,-0.02,0.0,-1.6,0.0,0.0,0.0,0.0,0,0,0,0
40200000,47.3977422,8.5455947,-5.743,0.0,0.0,-0.03,0.0,-1.58,0.0,0.0,0.0,0.0,0,0,0,0
40296000,47.3977422,8.5455947,-5.895,0.0,0.0,-0.03,0.0,-1.57,0.0,0.0,0.0,0.0,0,0,0,0
40392000,47.397742,8.5455949,-6.046,0.0,0.0,-0.03,0.0,-1.56,0.0,0.0,0.0,0.0,0,0,0,0
40488000,47.3977421,8.545595,-6.196,0.0,0.0,-0.03,0.0,-1.55,0.0,0.0,0.0,0.0,0,0,0,0
40584000,47.397742,8.5455948,-6.345,0.0,0.0,-0.03,0.0,-1.54,0.0,0.0,0.0,0.0,0,0,0,0
40680000,47.397742,8.5455946,-6.493,0.0,0.0,-0.04,0.0,-1.53,0.0,0.0,0.0,0.0,0,0,0,0
40776000,47.3977421,8.5455946,-6.64,0.0,0.0,-0.04,0.0,-1.52,0.0,0.0,0.0,0.0,0,0,0,0
40872000,47.3977419,8.5455945,-6.787,0.0,0.0,-0.03,0.0,-1.51,0.0,0.0,0.0,0.0,0,0,0,0
40968000,47.397742,8.5455946,-6.932,0.0,0.0,-0.03,0.0,-1.51,0.0,0.0,0.0,0.0,0,0,0,0
41064000,47.3977419,8.5455949,-7.077,0.0,0.0,-0.03,0.0,-1.5,0.0,0.0,0.0,0.0,0,0,0,0
41160000,47.3977419,8.5455949,-7.222,0.0,0.0,-0.03,0.0,-1.5,0.0,0.0,0.0,0.0,0,0,0,0
41256000,47.3977418,8.5455948,-7.367,0.0,0.0,-0.03,0.0,-1.5,0.0,0.0,0.0,0.0,0,0,0,0
41352000,47.3977418,8.5455949,-7.511,0.0,0.0,-0.03,0.0,-1.5,0.0,0.0,0.0,0.0,0,0,0,0
41448000,47.3977417,8.5455947,-7.656,0.0,0.0,-0.02,0.0,-1.5,0.0,0.0,0.0,0.0,0,0,0,0
41544000,47.3977417,8.5455947,-7.8,0.0,0.0,-0.02,0.0,-1.5,0.0,0.0,0.0,0.0,0,0,0,0
41640000,47.3977418,8.5455948,-7.944,0.0,0.0,-0.02,0.0,-1.5,0.0,0.0,0.0,0.0,0,0,0,0
41736000,47.3977418,8.5455946,-8.088,0.0,0.0,-0.01,0.0,-1.49,0.0,0.0,0.0,0.0,0,0,0,0
41832000,47.3977417,8.5455949,-8.232,0.0,0.0,-0.01,0.0,-1.49,0.0,0.0,0.0,0.0,0,0,0,0
41928000,47.3977417,8.5455947,-8.375,0.0,0.0,-0.01,0.0,-1.49,0.0,0.0,0.0,0.0,0,0,0,0
42024000,47.3977417,8.5455948,-8.518,0.0,0.0,0.0,0.0,-1.49,0.0,0.0,0.0,0.0,0,0,0,0
42120000,47.3977418,8.5455947,-8.662,0.0,0.0,0.0,0.0,-1.49,0.0,0.0,0.0,0.0,0,0,0,0
42216000,47.3977418,8.5455947,-8.805,0.0,0.0,0.0,0.0,-1.49,0.0,0.0,0.0,0.0,0,0,0,0
42312000,47.3977418,8.5455945,-8.948,0.0,0.0,0.0,0.0,-1.49,0.0,0.0,0.0,0.0,0,0,0,0
42408000,47.3977418,8.5455946,-9.091,0.0,0.0,0.0,0.0,-1.48,0.0,0.0,0.0,0.0,0,0,0,0
42504000,47.3977418,8.5455947,-9.234,0.0,0.0,0.0,0.0,-1.48,0.0,0.0,0.0,0.0,0,0,0,0
42600000,47.3977418,8.5455947,-9.377,0.0,0.0,0.0,0.0,-1.48,0.0,0.0,0.0,0.0,0,0,0,0
42696000,47.3977419,8.5455945,-9.519,0.0,0.0,0.0,0.0,-1.48,0.0,0.0,0.0,0.0,0,0,0,0
42792000,47.3977417,8.5455946,-9.662,0.0,0.0,0.0,0.0,-1.48,0.0,0.0,0.0,0.0,0,0,0,0
42888000,47.3977418,8.5455949,-9.805,0.0,0.0,0.0,0.0,-1.48,0.0,0.0,0.0,0.0,0,0,0,0
42984000,47.3977419,8.5455949,-9.947,0.0,0.0,0.0,0.0,-1.48,0.0,0.0,0.0,0.0,0,0,0,0
43080000,47.3977419,8.5455948,-10.09,0.0,0.0,0.0,0.0,-1.48,0.0,0.0,0.0,0.0,0,0,0,0
43176000,47.3977418,8.5455948,-10.232,0.0,0.0,0.0,0.0,-1.5,0.0,0.0,0.0,0.0,0,0,0,0
43272000,47.3977418,8.5455948,-10.38,0.0,0.0,0.0,0.0,-1.58,0.0,0.0,0.0,0.0,0,0,0,0
43368000,47.3977419,8.5455948,-10.539,0.0,0.0,0.0,0.01,-1.75,0.0,0.0,0.0,0.0,0,0,0,0
43464000,47.3977418,8.5455948,-10.718,0.0,0.0,0.0,0.01,-1.99,0.0,0.0,0.0,0.0,0,0,0,0
43560000,47.3977417,8.5455948,-10.923,0.0,0.0,0.0,0.01,-2.3,0.0,0.0,0.0,0.0,0,0,0,0
43656000,47.3977418,8.5455948,-11.158,0.0,0.0,0.0,0.02,-2.6,0.0,0.0,0.0,0.0,0,0,0,0
43752000,47.3977419,8.545595,-11.421,0.0,0.0,0.0,0.02,-2.85,0.0,0.0,0.0,0.0,0,0,0,0
43848000,47.3977421,8.5455948,-11.703,0.0,0.0,0.0,0.03,-3.0,0.0,0.0,0.0,0.0,0,0,0,0
43944000,47.3977419,8.5455948,-11.994,0.0,0.0,0.0,0.03,-3.04,0.0,0.0,0.0,0.0,0,0,0,0
44040000,47.3977419,8.545595,-12.287,0.0,0.0,0.0,0.03,-3.05,0.0,0.0,0.0,0.0,0,0,0,0
44136000,47.3977418,8.5455951,-12.58,0.0,0.0,0.0,0.03,-3.05,0.0,0.0,0.0,0.0,0,0,0,0
44232000,47.3977418,8.5455951,-12.874,0.0,0.0,0.0,0.03,-3.06,0.0,0.0,0.0,0.0,0,0,0,0
44328000,47.3977417,8.5455952,-13.168,0.0,0.0,0.0,0.03,-3.06,0.0,0.0,0.0,0.0,0,0,0,0
44424000,47.3977417,8.5455954,-13.462,0.0,0.0,0.0,0.03,-3.06,0.0,0.0,0.0,0.0,0,0,0,0
44520000,47.3977418,8.5455954,-13.756,0.0,0.0,0.0,0.03,-3.05,0.0,0.0,0.0,0.0,0,0,0,0
44616000,47.3977417,8.5455954,-14.049,0.0,0.0,0.0,0.03,-3.04,0.0,0.0,0.0,0.0,0,0,0,0
44712000,47.3977418,8.5455955,-14.341,0.0,0.0,-0.01,0.02,-3.04,0.0,0.0,0.0,0.0,0,0,0,0
44808000,47.3977419,8.5455952,-14.633,0.0,0.0,-0.01,0.02,-3.03,0.0,0.0,0.0,0.0,0,0,0,0
44904000,47.3977417,8.5455952,-14.925,0.0,0.0,-0.01,0.02,-3.03,0.0,0.0,0.0,0.0,0,0,0,0
45000000,47.3977417,8.5455955,-15.215,0.0,0.0,-0.01,0.02,-3.02,0.0,0.0,0.0,0.0,0,0,0,0
45096000,47.3977418,8.5455955,-15.506,0.0,0.0,-0.01,0.01,-3.01,0.0,0.0,0.0,0.0,0,0,0,0
45192000,47.3977416,8.5455954,-15.795,0.0,0.0,-0.01,0.01,-3.01,0.0,0.0,0.0,0.0,0,0,0,0
45288000,47.3977417,8.5455958,-16.084,0.0,0.0,-0.01,0.01,-3.0,0.0,0.0,0.0,0.0,0,0,0,0
45384000,47.3977417,8.5455957,-16.372,0.0,0.0,-0.01,0.01,-2.99,0.0,0.0,0.0,0.0,0,0,0,0
45480000,47.3977418,8.5455957,-16.659,0.0,0.0,-0.01,0.0,-2.99,0.0,0.0,0.0,0.0,0,0,0,0
45576000,47.3977417,8.5455955,-16.946,0.0,0.0,-0.01,0.0,-2.98,0.0,0.0,0.0,0.0,0,0,0,0
45672000,47.3977417,8.5455955,-17.233,0.0,0.0,-0.01,0.0,-2.98,0.0,0.0,0.0,0.0,0,0,0,0
45768000,47.3977416,8.5455957,-17.52,0.0,0.0,0.0,0.0,-2.98,0.0,0.0,0.0,0.0,0,0,0,0
45864000,47.3977415,8.5455955,-17.806,0.0,0.0,0.0,0.0,-2.98,0.0,0.0,0.0,0.0,0,0,0,0
45960000,47.3977416,8.5455954,-18.093,0.0,0.0,0.0,0.0,-2.98,0.0,0.0,0.0,0.0,0,0,0,0
46056000,47.3977415,8.5455955,-18.379,0.0,0.0,0.0,-0.01,-2.98,0.0,0.0,0.0,0.0,0,0,0,0
46152000,47.3977415,8.5455954,-18.667,0.0,0.0,0.0,-0.01,-2.99,0.0,0.0,0.0,0.0,0,0,0,0
46248000,47.3977417,8.5455954,-18.954,0.0,0.0,0.0,-0.01,-2.99,0.0,0.0,0.0,0.0,0,0,0,0
46344000,47.3977416,8.5455952,-19.241,0.0,0.0,0.0,-0.01,-2.99,0.0,0.0,0.0,0.0,0,0,0,0
46440000,47.3977415,8.5455955,-19.528,0.0,0.0,0.0,-0.02,-2.99,0.0,0.0,0.0,0.0,0,0,0,0
46536000,47.3977415,8.5455954,-19.815,0.0,0.0,0.0,-0.02,-2.99,0.0,0.0,0.0,0.0,0,0,0,0
46632000,47.3977416,8.5455954,-20.102,0.0,0.0,0.0,-0.02,-2.98,0.0,0.0,0.0,0.0,0,0,0,0
46728000,47.3977416,8.5455953,-20.389,0.0,0.0,0.0,-0.03,-2.97,0.0,0.0,0.0,0.0,0,0,0,0
46824000,47.3977417,8.5455952,-20.674,0.0,0.0,0.0,-0.03,-2.96,0.0,0.0,0.0,0.0,0,0,0,0
46920000,47.3977417,8.5455953,-20.958,0.0,0.0,0.0,-0.03,-2.95,0.0,0.0,0.0,0.0,0,0,0,0
47016000,47.3977416,8.5455951,-21.242,0.0,0.0,0.0,-0.03,-2.94,0.0,0.0,0.0,0.0,0,0,0,0
47112000,47.3977415,8.5455953,-21.525,0.0,0.0,0.0,-0.03,-2.94,0.0,0.0,0.0,0.0,0,0,0,0
47208000,47.3977415,8.5455951,-21.807,0.0,0.0,0.0,-0.03,-2.94,0.0,0.0,0.0,0.0,0,0,0,0
47304000,47.3977415,8.5455952,-22.09,0.0,0.0,0.0,-0.03,-2.93,0.0,0.0,0.0,0.0,0,0,0,0
47400000,47.3977414,8.545595,-22.371,0.0,0.0,0.0,-0.03,-2.93,0.0,0.0,0.0,0.0,0,0,0,0
47496000,47.3977415,8.5455948,-22.653,0.0,0.0,0.0,-0.04,-2.92,0.0,0.0,0.0,0.0,0,0,0,0
47592000,47.3977416,8.5455947,-22.934,0.0,0.0,0.0,-0.04,-2.92,0.0,0.0,0.0,0.0,0,0,0,0
47688000,47.3977416,8.5455948,-23.214,0.0,0.0,0.0,-0.04,-2.92,0.0,0.0,0.0,0.0,0,0,0,0
47784000,47.3977415,8.5455949,-23.495,0.0,0.0,0.0,-0.05,-2.92,0.0,0.0,0.0,0.0,0,0,0,0
47880000,47.3977415,8.545595,-23.775,0.0,0.0,0.0,-0.05,-2.91,0.0,0.0,0.0,0.0,0,0,0,0
47976000,47.3977415,8.5455948,-24.056,0.0,0.0,0.0,-0.05,-2.91,0.0,0.0,0.0,0.0,0,0,0,0
48072000,47.3977415,8.5455946,-24.336,0.0,0.0,0.0,-0.05,-2.91,0.0,0.0,0.0,0.0,0,0,0,0
48168000,47.3977416,8.5455945,-24.616,0.0,0.0,0.0,-0.05,-2.92,0.0,0.0,0.0,0.0,0,0,0,0
48264000,47.3977416,8.5455945,-24.896,0.0,0.0,0.0,-0.04,-2.91,0.0,0.0,0.0,0.0,0,0,0,0
48360000,47.3977416,8.5455945,-25.177,0.0,0.0,0.0,-0.04,-2.91,0.0,0.0,0.0,0.0,0,0,0,0
48456000,47.3977416,8.5455945,-25.457,0.0,0.0,0.01,-0.04,-2.91,0.0,0.0,0.0,0.0,0,0,0,0
48552000,47.3977417,8.5455944,-25.737,0.0,0.0,0.0,-0.04,-2.91,0.0,0.0,0.0,0.0,0,0,0,0
48648000,47.3977418,8.5455941,-26.017,0.0,0.0,0.0,-0.04,-2.92,0.0,0.0,0.0,0.0,0,0,0,0
48744000,47.3977417,8.5455942,-26.298,0.0,0.0,0.0,-0.04,-2.92,0.0,0.0,0.0,0.0,0,0,0,0
48840000,47.3977416,8.5455941,-26.579,0.0,0.0,0.0,-0.04,-2.92,0.0,0.0,0.0,0.0,0,0,0,0
48936000,47.3977417,8.5455943,-26.86,0.0,0.0,0.0,-0.04,-2.93,0.0,0.0,0.0,0.0,0,0,0,0
49032000,47.3977417,8.5455943,-27.142,0.0,0.0,0.0,-0.04,-2.93,0.0,0.0,0.0,0.0,0,0,0,0
49128000,47.3977416,8.5455941,-27.424,0.0,0.0,0.0,-0.04,-2.94,0.0,0.0,0.0,0.0,0,0,0,0
49224000,47.3977416,8.5455939,-27.707,0.0,0.0,0.0,-0.04,-2.94,0.0,0.0,0.0,0.0,0,0,0,0
49320000,47.3977417,8.545594,-27.989,0.0,0.0,0.0,-0.04,-2.94,0.0,0.0,0.0,0.0,0,0,0,0
49416000,47.3977418,8.5455938,-28.273,0.0,0.0,0.0,-0.04,-2.95,0.0,0.0,0.0,0.0,0,0,0,0
49512000,47.3977418,8.5455937,-28.556,0.0,0.0,0.0,-0.03,-2.95,0.0,0.0,0.0,0.0,0,0,0,0
49608000,47.3977417,8.5455937,-28.841,0.0,0.0,0.0,-0.03,-2.96,0.0,0.0,0.0,0.0,0,0,0,0
49704000,47.3977417,8.5455938,-29.126,0.0,0.0,0.0,-0.03,-2.97,0.0,0.0,0.0,0.0,0,0,0,0
49800000,47.3977417,8.5455939,-29.411,0.0,0.0,0.0,-0.03,-2.97,0.0,0.0,0.0,0.0,0,0,0,0
49896000,47.3977417,8.5455936,-29.697,0.0,0.0,0.0,-0.03,-2.97,0.0,0.0,0.0,0.0,0,0,0,0
49992000,47.3977417,8.5455933,-29.983,0.0,0.0,0.0,-0.03,-2.98,0.0,0.0,0.0,0.0,0,0,0,0
50088000,47.3977418,8.5455933,-30.269,0.0,0.0,0.0,-0.02,-2.98,0.0,0.0,0.0,0.0,0,0,0,0
50184000,47.3977417,8.5455934,-30.556,0.0,0.0,0.0,-0.02,-2.98,0.0,0.0,0.0,0.0,0,0,0,0
50280000,47.3977417,8.5455934,-30.842,0.0,0.0,0.0,-0.02,-2.98,0.0,0.0,0.0,0.0,0,0,0,0
50376000,47.3977418,8.5455934,-31.129,0.0,0.0,0.0,-0.02,-2.98,0.0,0.0,0.0,0.0,0,0,0,0
50472000,47.3977417,8.5455932,-31.415,0.0,0.0,0.0,-0.02,-2.98,0.0,0.0,0.0,0.0,0,0,0,0
50568000,47.3977416,8.5455931,-31.701,0.0,0.0,0.0,-0.01,-2.98,0.0,0.0,0.0,0.0,0,0,0,0
50664000,47.3977416,8.5455933,-31.988,0.0,0.0,0.0,-0.01,-2.98,0.0,0.0,0.0,0.0,0,0,0,0
50760000,47.3977417,8.5455932,-32.275,0.0,0.0,0.0,0.0,-2.98,0.0,0.0,0.0,0.0,0,0,0,0
50856000,47.3977419,8.5455931,-32.561,0.0,0.0,0.0,0.0,-2.98,0.0,0.0,0.0,0.0,0,0,0,0
50952000,47.3977417,8.5455932,-32.848,0.0,0.0,0.0,0.0,-2.98,0.0,0.0,0.0,0.0,0,0,0,0
51048000,47.3977417,8.5455934,-33.134,0.0,0.0,0.0,0.0,-2.98,0.0,0.0,0.0,0.0,0,0,0,0
51144000,47.3977417,8.5455933,-33.421,0.0,0.0,-0.01,0.0,-2.98,0.0,0.0,0.0,0.0,0,0,0,0
51240000,47.3977418,8.5455933,-33.707,0.0,0.0,-0.01,0.0,-2.98,0.0,0.0,0.0,0.0,0,0,0,0
51336000,47.3977416,8.5455934,-33.993,0.0,0.0,-0.01,0.0,-2.97,0.0,0.0,0.0,0.0,0,0,0,0
51432000,47.3977416,8.5455933,-34.279,0.0,0.0,-0.01,0.01,-2.97,0.0,0.0,0.0,0.0,0,0,0,0
51528000,47.3977414,8.5455934,-34.565,0.0,0.0,-0.01,0.01,-2.97,0.0,0.0,0.0,0.0,0,0,0,0
51624000,47.3977416,8.5455934,-34.851,0.0,0.0,-0.01,0.01,-2.97,0.0,0.0,0.0,0.0,0,0,0,0
51720000,47.3977415,8.5455933,-35.137,0.0,0.0,-0.01,0.01,-2.97,0.0,0.0,0.0,0.0,0,0,0,0
51816000,47.3977414,8.5455934,-35.423,0.0,0.0,-0.01,0.01,-2.98,0.0,0.0,0.0,0.0,0,0,0,0
51912000,47.3977416,8.5455932,-35.709,0.0,0.0,-0.01,0.01,-2.98,0.0,0.0,0.0,0.0,0,0,0,0
52008000,47.3977417,8.5455935,-35.996,0.0,0.0,-0.01,0.01,-2.98,0.0,0.0,0.0,0.0,0,0,0,0
52104000,47.3977416,8.5455935,-36.283,0.0,0.0,-0.01,0.01,-2.99,0.0,0.0,0.0,0.0,0,0,0,0
52200000,47.3977414,8.5455933,-36.571,0.0,0.0,-0.01,0.01,-2.99,0.0,0.0,0.0,0.0,0,0,0,0
52296000,47.3977414,8.5455934,-36.859,0.0,0.0,-0.01,0.01,-3.0,0.0,0.0,0.0,0.0,0,0,0,0
52392000,47.3977415,8.5455933,-37.147,0.0,0.0,-0.01,0.01,-3.0,0.0,0.0,0.0,0.0,0,0,0,0
52488000,47.3977413,8.5455935,-37.435,0.0,0.0,-0.01,0.01,-3.0,0.0,0.0,0.0,0.0,0,0,0,0
52584000,47.3977413,8.5455934,-37.724,0.0,0.0,0.0,0.01,-3.0,0.0,0.0,0.0,0.0,0,0,0,0
52680000,47.3977413,8.5455936,-38.012,0.0,0.0,0.0,0.01,-3.0,0.0,0.0,0.0,0.0,0,0,0,0
52776000,47.3977414,8.5455936,-38.3,0.0,0.0,0.0,0.01,-3.0,0.0,0.0,0.0,0.0,0,0,0,0
52872000,47.3977414,8.5455937,-38.589,0.0,0.0,0.0,0.01,-3.0,0.0,0.0,0.0,0.0,0,0,0,0
52968000,47.3977415,8.5455935,-38.877,0.0,0.0,0.0,0.01,-3.0,0.0,0.0,0.0,0.0,0,0,0,0
53064000,47.3977415,8.5455937,-39.165,0.0,0.0,0.0,0.0,-2.99,0.0,0.0,0.0,0.0,0,0,0,0
53160000,47.3977413,8.5455935,-39.452,0.0,0.0,-0.01,0.0,-2.98,0.0,0.0,0.0,0.0,0,0,0,0
53256000,47.3977413,8.5455936,-39.738,0.0,0.0,-0.01,0.0,-2.97,0.0,0.0,0.0,0.0,0,0,0,0
53352000,47.3977413,8.5455935,-40.024,0.0,0.0,0.0,0.0,-2.97,0.0,0.0,0.0,0.0,0,0,0,0
53448000,47.3977413,8.5455937,-40.31,0.0,0.0,0.0,0.0,-2.97,0.0,0.0,0.0,0.0,0,0,0,0
53544000,47.3977413,8.545594,-40.595,0.0,0.0,0.0,0.0,-2.97,0.0,0.0,0.0,0.0,0,0,0,0
53640000,47.3977412,8.5455939,-40.881,0.0,0.0,0.0,0.0,-2.97,0.0,0.0,0.0,0.0,0,0,0,0
53736000,47.3977414,8.5455937,-41.166,0.0,0.0,0.0,0.0,-2.97,0.0,0.0,0.0,0.0,0,0,0,0
53832000,47.3977413,8.5455938,-41.452,0.0,0.0,0.0,0.0,-2.97,0.0,0.0,0.0,0.0,0,0,0,0
53928000,47.3977414,8.5455937,-41.737,0.0,0.0,0.0,0.0,-2.97,0.0,0.0,0.0,0.0,0,0,0,0
54024000,47.3977414,8.5455935,-42.023,0.0,0.0,0.0,0.0,-2.96,0.0,0.0,0.0,0.0,0,0,0,0
54120000,47.3977413,8.5455936,-42.308,0.0,0.0,0.0,0.0,-2.96,0.0,0.0,0.0,0.0,0,0,0,0
54216000,47.3977414,8.5455939,-42.592,0.0,0.0,0.0,0.0,-2.96,0.0,0.0,0.0,0.0,0,0,0,0
54312000,47.3977415,8.5455937,-42.876,0.0,0.0,0.0,0.0,-2.95,0.0,0.0,0.0,0.0,0,0,0,0
54408000,47.3977414,8.545594,-43.16,0.0,0.0,0.0,0.0,-2.95,0.0,0.0,0.0,0.0,0,0,0,0
54504000,47.3977413,8.5455937,-43.444,0.0,0.0,0.01,0.0,-2.95,0.0,0.0,0.0,0.0,0,0,0,0
54600000,47.3977415,8.545594,-43.727,0.0,0.0,0.01,0.0,-2.95,0.0,0.0,0.0,0.0,0,0,0,0
54696000,47.3977415,8.5455938,-44.01,0.0,0.0,0.01,0.0,-2.94,0.0,0.0,0.0,0.0,0,0,0,0
54792000,47.3977414,8.5455938,-44.293,0.0,0.0,0.01,0.0,-2.94,0.0,0.0,0.0,0.0,0,0,0,0
54888000,47.3977414,8.5455937,-44.575,0.0,0.0,0.01,0.0,-2.94,0.0,0.0,0.0,0.0,0,0,0,0
54984000,47.3977415,8.5455936,-44.858,0.0,0.0,0.01,0.0,-2.94,0.0,0.0,0.0,0.0,0,0,0,0
55080000,47.3977414,8.5455937,-45.141,0.0,0.0,0.01,0.0,-2.94,0.0,0.0,0.0,0.0,0,0,0,0
55176000,47.3977415,8.5455937,-45.423,0.0,0.0,0.01,0.0,-2.94,0.0,0.0,0.0,0.0,0,0,0,0
55272000,47.3977414,8.5455939,-45.706,0.0,0.0,0.01,0.0,-2.94,0.0,0.0,0.0,0.0,0,0,0,0
55368000,47.3977414,8.5455939,-45.988,0.0,0.0,0.01,0.0,-2.94,0.0,0.0,0.0,0.0,0,0,0,0
55464000,47.3977415,8.5455937,-46.27,0.0,0.0,0.01,-0.01,-2.93,0.0,0.0,0.0,0.0,0,0,0,0
55560000,47.3977415,8.5455934,-46.552,0.0,0.0,0.01,-0.01,-2.93,0.0,0.0,0.0,0.0,0,0,0,0
55656000,47.3977414,8.5455936,-46.834,0.0,0.0,0.01,-0.01,-2.93,0.0,0.0,0.0,0.0,0,0,0,0
55752000,47.3977414,8.5455936,-47.115,0.0,0.0,0.01,-0.01,-2.92,0.0,0.0,0.0,0.0,0,0,0,0
55848000,47.3977415,8.5455936,-47.396,0.0,0.0,0.01,-0.01,-2.92,0.0,0.0,0.0,0.0,0,0,0,0
55944000,47.3977416,8.5455937,-47.677,0.0,0.0,0.01,-0.01,-2.93,0.0,0.0,0.0,0.0,0,0,0,0
56040000,47.3977416,8.5455933,-47.959,0.0,0.0,0.02,-0.01,-2.93,0.0,0.0,0.0,0.0,0,0,0,0
56136000,47.3977416,8.5455935,-48.24,0.0,0.0,0.02,0.0,-2.93,0.0,0.0,0.0,0.0,0,0,0,0
56232000,47.3977415,8.5455936,-48.522,0.0,0.0,0.02,0.0,-2.93,0.0,0.0,0.0,0.0,0,0,0,0
56328000,47.3977416,8.5455935,-48.804,0.0,0.0,0.02,0.0,-2.93,0.0,0.0,0.0,0.0,0,0,0,0
56424000,47.3977416,8.5455936,-49.086,0.0,0.0,0.02,0.0,-2.93,0.0,0.0,0.0,0.0,0,0,0,0
56520000,47.3977418,8.5455937,-49.368,0.0,0.0,0.02,0.0,-2.93,0.0,0.0,0.0,0.0,0,0,0,0
56616000,47.3977418,8.5455936,-49.65,0.0,0.0,0.02,0.0,-2.94,0.0,0.0,0.0,0.0,0,0,0,0
56712000,47.3977419,8.5455936,-49.932,0.0,0.0,0.02,0.0,-2.94,0.0,0.0,0.0,0.0,0,0,0,0
56808000,47.3977418,8.5455937,-50.215,0.0,0.0,0.02,0.0,-2.94,0.0,0.0,0.0,0.0,0,0,0,0
56904000,47.3977417,8.5455935,-50.497,0.0,0.0,0.02,0.0,-2.94,0.0,0.0,0.0,0.0,0,0,0,0
57000000,47.3977418,8.5455936,-50.78,0.0,0.0,0.02,0.0,-2.94,0.0,0.0,0.0,0.0,0,0,0,0
57096000,47.3977418,8.5455936,-51.062,0.0,0.0,0.02,0.0,-2.94,0.0,0.0,0.0,0.0,0,0,0,0
57192000,47.3977418,8.5455938,-51.345,0.0,0.0,0.01,0.0,-2.94,0.0,0.0,0.0,0.0,0,0,0,0
57288000,47.3977418,8.5455936,-51.627,0.0,0.0,0.01,0.0,-2.94,0.0,0.0,0.0,0.0,0,0,0,0
57384000,47.3977419,8.5455937,-51.91,0.0,0.0,0.01,0.0,-2.94,0.0,0.0,0.0,0.0,0,0,0,0
57480000,47.3977418,8.5455937,-52.193,0.0,0.0,0.01,0.0,-2.94,0.0,0.0,0.0,0.0,0,0,0,0
57576000,47.3977419,8.5455936,-52.476,0.0,0.0,0.01,0.0,-2.95,0.0,0.0,0.0,0.0,0,0,0,0
57672000,47.3977419,8.5455937,-52.76,0.0,0.0,0.01,0.0,-2.95,0.0,0.0,0.0,0.0,0,0,0,0
57768000,47.397742,8.5455937,-53.044,0.0,0.0,0.01,0.01,-2.95,0.0,0.0,0.0,0.0,0,0,0,0
57864000,47.3977418,8.5455936,-53.328,0.0,0.0,0.01,0.01,-2.95,0.0,0.0,0.0,0.0,0,0,0,0
57960000,47.3977419,8.5455937,-53.612,0.0,0.0,0.01,0.01,-2.96,0.0,0.0,0.0,0.0,0,0,0,0
58056000,47.3977419,8.5455937,-53.896,0.0,0.0,0.01,0.01,-2.95,0.0,0.0,0.0,0.0,0,0,0,0
58152000,47.3977419,8.5455937,-54.18,0.0,0.0,0.01,0.01,-2.95,0.0,0.0,0.0,0.0,0,0,0,0
58248000,47.3977419,8.5455937,-54.464,0.0,0.0,0.01,0.01,-2.96,0.0,0.0,0.0,0.0,0,0,0,0
58344000,47.397742,8.5455937,-54.748,0.0,0.0,0.01,0.01,-2.96,0.0,0.0,0.0,0.0,0,0,0,0
58440000,47.3977419,8.5455939,-55.033,0.0,0.0,0.01,0.01,-2.96,0.0,0.0,0.0,0.0,0,0,0,0
58536000,47.3977419,8.5455938,-55.318,0.0,0.0,0.01,0.01,-2.97,0.0,0.0,0.0,0.0,0,0,0,0
58632000,47.3977421,8.5455939,-55.604,0.0,0.0,0.01,0.01,-2.97,0.0,0.0,0.0,0.0,0,0,0,0
58728000,47.3977422,8.5455939,-55.89,0.0,0.0,0.01,0.02,-2.98,0.0,0.0,0.0,0.0,0,0,0,0
58824000,47.3977422,8.5455939,-56.176,0.0,0.0,0.01,0.01,-2.98,0.0,0.0,0.0,0.0,0,0,0,0
58920000,47.3977421,8.545594,-56.463,0.0,0.0,0.01,0.01,-2.98,0.0,0.0,0.0,0.0,0,0,0,0
59016000,47.3977422,8.5455939,-56.749,0.0,0.0,0.01,0.01,-2.98,0.0,0.0,0.0,0.0,0,0,0,0
59112000,47.3977422,8.5455938,-57.035,0.0,0.0,0.01,0.01,-2.98,0.0,0.0,0.0,0.0,0,0,0,0
59208000,47.3977421,8.5455939,-57.322,0.0,0.0,0.01,0.01,-2.98,0.0,0.0,0.0,0.0,0,0,0,0
59304000,47.3977422,8.5455941,-57.609,0.0,0.0,0.0,0.01,-2.98,0.0,0.0,0.0,0.0,0,0,0,0
59400000,47.3977421,8.5455941,-57.895,0.0,0.0,0.0,0.01,-2.98,0.0,0.0,0.0,0.0,0,0,0,0
59496000,47.397742,8.545594,-58.182,0.0,0.0,0.0,0.01,-2.98,0.0,0.0,0.0,0.0,0,0,0,0
59592000,47.3977422,8.545594,-58.469,0.0,0.0,0.0,0.01,-2.98,0.0,0.0,0.0,0.0,0,0,0,0
59688000,47.397742,8.5455943,-58.756,0.0,0.0,0.0,0.01,-2.98,0.0,0.0,0.0,0.0,0,0,0,0
59784000,47.3977421,8.5455944,-59.042,0.0,0.0,0.0,0.01,-2.98,0.0,0.0,0.0,0.0,0,0,0,0
59880000,47.3977422,8.5455943,-59.328,0.0,0.0,0.0,0.0,-2.98,0.0,0.0,0.0,0.0,0,0,0,0
59976000,47.3977422,8.5455941,-59.615,0.0,0.0,0.0,0.0,-2.98,0.0,0.0,0.0,0.0,0,0,0,0
60072000,47.3977421,8.545594,-59.902,0.0,0.0,0.0,0.0,-2.98,0.0,0.0,0.0,0.0,0,0,0,0
60168000,47.397742,8.5455942,-60.188,0.0,0.0,0.0,0.0,-2.98,0.0,0.0,0.0,0.0,0,0,0,0
60264000,47.397742,8.5455943,-60.475,0.0,0.0,0.0,0.0,-2.97,0.0,0.0,0.0,0.0,0,0,0,0
60360000,47.3977421,8.5455943,-60.758,0.0,0.0,0.0,0.0,-2.91,0.0,0.0,0.0,0.0,0,0,0,0
60456000,47.3977421,8.5455941,-61.034,0.0,0.0,0.0,0.0,-2.83,0.0,0.0,0.0,0.0,0,0,0,0
60552000,47.3977419,8.5455941,-61.302,0.0,0.0,0.0,0.0,-2.74,0.0,0.0,0.0,0.0,0,0,0,0
60648000,47.397742,8.5455941,-61.561,0.0,0.0,0.0,-0.01,-2.65,0.0,0.0,0.0,0.0,0,0,0,0
60744000,47.397742,8.5455941,-61.812,0.0,0.0,0.0,-0.01,-2.56,0.0,0.0,0.0,0.0,0,0,0,0
60840000,47.3977421,8.5455939,-62.054,0.0,0.0,-0.01,-0.01,-2.48,0.0,0.0,0.0,0.0,0,0,0,0
60936000,47.3977422,8.5455939,-62.289,0.0,0.0,-0.01,-0.01,-2.4,0.0,0.0,0.0,0.0,0,0,0,0
61032000,47.3977421,8.5455943,-62.516,0.0,0.0,-0.01,-0.01,-2.32,0.0,0.0,0.0,0.0,0,0,0,0
61128000,47.3977421,8.5455941,-62.736,0.0,0.0,-0.01,-0.01,-2.24,0.0,0.0,0.0,0.0,0,0,0,0
61224000,47.397742,8.5455938,-62.948,0.0,0.0,-0.01,-0.01,-2.16,0.0,0.0,0.0,0.0,0,0,0,0
61320000,47.3977418,8.5455938,-63.153,0.0,0.0,0.0,-0.01,-2.09,0.0,0.0,0.0,0.0,0,0,0,0
61416000,47.3977419,8.5455941,-63.35,0.0,0.0,0.0,-0.01,-2.02,0.0,0.0,0.0,0.0,0,0,0,0
61512000,47.397742,8.545594,-63.541,0.0,0.0,0.0,-0.01,-1.95,0.0,0.0,0.0,0.0,0,0,0,0
61608000,47.3977419,8.5455939,-63.726,0.0,0.0,0.0,0.0,-1.89,0.0,0.0,0.0,0.0,0,0,0,0
61704000,47.3977423,8.5455939,-63.905,0.0,0.0,0.0,0.0,-1.82,0.0,0.0,0.0,0.0,0,0,0,0
61800000,47.3977422,8.5455941,-64.078,0.0,0.0,0.0,0.0,-1.77,0.0,0.0,0.0,0.0,0,0,0,0
61896000,47.3977421,8.5455941,-64.245,0.0,0.0,0.0,0.0,-1.71,0.0,0.0,0.0,0.0,0,0,0,0
61992000,47.3977421,8.5455942,-64.408,0.0,0.0,0.0,0.0,-1.66,0.0,0.0,0.0,0.0,0,0,0,0
62088000,47.397742,8.5455941,-64.565,0.0,0.0,0.0,0.0,-1.61,0.0,0.0,0.0,0.0,0,0,0,0
62184000,47.397742,8.5455942,-64.718,0.0,0.0,0.0,0.0,-1.56,0.0,0.0,0.0,0.0,0,0,0,0
62280000,47.3977421,8.5455941,-64.867,0.0,0.0,0.0,0.0,-1.52,0.0,0.0,0.0,0.0,0,0,0,0
62376000,47.397742,8.5455939,-65.011,0.0,0.0,0.0,0.0,-1.47,0.0,0.0,0.0,0.0,0,0,0,0
62472000,47.3977421,8.5455938,-65.151,0.0,0.0,0.0,0.0,-1.43,0.0,0.0,0.0,0.0,0,0,0,0
62568000,47.3977421,8.5455939,-65.286,0.0,0.0,0.0,0.0,-1.39,0.0,0.0,0.0,0.0,0,0,0,0
62664000,47.3977419,8.5455939,-65.418,0.0,0.0,0.0,0.0,-1.35,0.0,0.0,0.0,0.0,0,0,0,0
62760000,47.397742,8.545594,-65.546,0.0,0.0,0.0,0.0,-1.31,0.0,0.0,0.0,0.0,0,0,0,0
62856000,47.397742,8.5455941,-65.671,0.0,0.0,0.0,0.0,-1.27,0.0,0.0,0.0,0.0,0,0,0,0
62952000,47.397742,8.5455941,-65.792,0.0,0.0,0.0,0.0,-1.24,0.0,0.0,0.0,0.0,0,0,0,0
63048000,47.397742,8.545594,-65.909,0.0,0.0,0.0,0.0,-1.2,0.0,0.0,0.0,0.0,0,0,0,0
63144000,47.397742,8.545594,-66.023,0.0,0.0,0.0,0.0,-1.17,0.0,0.0,0.0,0.0,0,0,0,0
63240000,47.397742,8.5455938,-66.134,0.0,0.0,0.0,0.0,-1.14,0.0,0.0,0.0,0.0,0,0,0,0
63336000,47.3977419,8.5455939,-66.242,0.0,0.0,0.0,0.01,-1.11,0.0,0.0,0.0,0.0,0,0,0,0
63432000,47.3977418,8.545594,-66.348,0.0,0.0,0.0,0.01,-1.08,0.0,0.0,0.0,0.0,0,0,0,0
63528000,47.3977421,8.5455941,-66.451,0.0,0.0,0.0,0.01,-1.05,0.0,0.0,0.0,0.0,0,0,0,0
63624000,47.3977421,8.5455939,-66.551,0.0,0.0,0.0,0.01,-1.02,0.0,0.0,0.0,0.0,0,0,0,0
63720000,47.3977421,8.545594,-66.648,0.0,0.0,0.0,0.01,-0.99,0.0,0.0,0.0,0.0,0,0,0,0
63816000,47.3977421,8.545594,-66.742,0.0,0.0,0.0,0.01,-0.96,0.0,0.0,0.0,0.0,0,0,0,0
63912000,47.3977421,8.5455938,-66.834,0.0,0.0,0.0,0.01,-0.94,0.0,0.0,0.0,0.0,0,0,0,0
64008000,47.397742,8.5455939,-66.923,0.0,0.0,0.0,0.01,-0.91,0.0,0.0,0.0,0.0,0,0,0,0
64104000,47.397742,8.5455942,-67.01,0.0,0.0,0.0,0.02,-0.89,0.0,0.0,0.0,0.0,0,0,0,0
64200000,47.397742,8.545594,-67.094,0.0,0.0,0.0,0.02,-0.86,0.0,0.0,0.0,0.0,0,0,0,0
64296000,47.397742,8.545594,-67.176,0.0,0.0,0.0,0.02,-0.83,0.0,0.0,0.0,0.0,0,0,0,0
64392000,47.397742,8.545594,-67.255,0.0,0.0,0.0,0.02,-0.81,0.0,0.0,0.0,0.0,0,0,0,0
64488000,47.3977419,8.545594,-67.332,0.0,0.0,0.0,0.02,-0.78,0.0,0.0,0.0,0.0,0,0,0,0
64584000,47.397742,8.5455944,-67.407,0.0,0.0,0.0,0.02,-0.76,0.0,0.0,0.0,0.0,0,0,0,0
64680000,47.3977422,8.5455944,-67.479,0.0,0.0,0.0,0.02,-0.73,0.0,0.0,0.0,0.0,0,0,0,0
64776000,47.3977422,8.5455945,-67.549,0.0,0.0,-0.01,0.02,-0.71,0.0,0.0,0.0,0.0,0,0,0,0
64872000,47.3977421,8.5455945,-67.617,0.0,0.0,-0.01,0.02,-0.69,0.0,0.0,0.0,0.0,0,0,0,0
64968000,47.397742,8.5455944,-67.683,0.0,0.0,-0.01,0.02,-0.67,0.0,0.0,0.0,0.0,0,0,0,0
65064000,47.397742,8.5455946,-67.747,0.0,0.0,-0.01,0.02,-0.65,0.0,0.0,0.0,0.0,0,0,0,0
65160000,47.3977419,8.5455946,-67.809,0.0,0.0,-0.01,0.03,-0.64,0.0,0.0,0.0,0.0,0,0,0,0
65256000,47.397742,8.5455947,-67.87,0.0,0.0,-0.01,0.03,-0.62,0.0,0.0,0.0,0.0,0,0,0,0
65352000,47.397742,8.5455947,-67.929,0.0,0.0,-0.01,0.03,-0.6,0.0,0.0,0.0,0.0,0,0,0,0
65448000,47.397742,8.5455946,-67.986,0.0,0.0,-0.01,0.03,-0.58,0.0,0.0,0.0,0.0,0,0,0,0
65544000,47.3977419,8.5455948,-68.042,0.0,0.0,-0.01,0.03,-0.57,0.0,0.0,0.0,0.0,0,0,0,0
65640000,47.3977418,8.5455945,-68.096,0.0,0.0,-0.01,0.03,-0.55,0.0,0.0,0.0,0.0,0,0,0,0
65736000,47.397742,8.5455945,-68.149,0.0,0.0,-0.01,0.02,-0.53,0.0,0.0,0.0,0.0,0,0,0,0
65832000,47.397742,8.5455947,-68.2,0.0,0.0,-0.01,0.02,-0.52,0.0,0.0,0.0,0.0,0,0,0,0
65928000,47.3977419,8.5455948,-68.25,0.0,0.0,-0.01,0.02,-0.51,0.0,0.0,0.0,0.0,0,0,0,0
66024000,47.3977417,8.5455947,-68.299,0.0,0.0,-0.01,0.02,-0.5,0.0,0.0,0.0,0.0,0,0,0,0
66120000,47.3977417,8.5455949,-68.346,0.0,0.0,-0.01,0.02,-0.48,0.0,0.0,0.0,0.0,0,0,0,0
66216000,47.3977419,8.5455948,-68.393,0.0,0.0,-0.01,0.02,-0.47,0.0,0.0,0.0,0.0,0,0,0,0
66312000,47.3977418,8.5455949,-68.438,0.0,0.0,0.0,0.02,-0.46,0.0,0.0,0.0,0.0,0,0,0,0
66408000,47.3977418,8.5455951,-68.481,0.0,0.0,0.0,0.02,-0.44,0.0,0.0,0.0,0.0,0,0,0,0
66504000,47.3977419,8.5455951,-68.524,0.0,0.0,0.0,0.01,-0.43,0.0,0.0,0.0,0.0,0,0,0,0
66600000,47.3977418,8.5455951,-68.565,0.0,0.0,0.0,0.01,-0.42,0.0,0.0,0.0,0.0,0,0,0,0
66696000,47.3977419,8.5455948,-68.606,0.0,0.0,0.0,0.01,-0.41,0.0,0.0,0.0,0.0,0,0,0,0
66792000,47.3977418,8.5455949,-68.645,0.0,0.0,0.0,0.01,-0.4,0.0,0.0,0.0,0.0,0,0,0,0
66888000,47.3977418,8.5455953,-68.684,0.0,0.0,0.0,0.01,-0.39,0.0,0.0,0.0,0.0,0,0,0,0
66984000,47.3977419,8.5455951,-68.721,0.0,0.0,0.0,0.01,-0.38,0.0,0.0,0.0,0.0,0,0,0,0
67080000,47.3977419,8.5455951,-68.757,0.0,0.0,0.0,0.01,-0.37,0.0,0.0,0.0,0.0,0,0,0,0
67176000,47.3977418,8.5455953,-68.793,0.0,0.0,0.0,0.01,-0.36,0.0,0.0,0.0,0.0,0,0,0,0
67272000,47.3977417,8.5455953,-68.827,0.0,0.0,0.0,0.0,-0.35,0.0,0.0,0.0,0.0,0,0,0,0
67368000,47.3977418,8.5455953,-68.86,0.0,0.0,0.0,0.0,-0.34,0.0,0.0,0.0,0.0,0,0,0,0
67464000,47.3977418,8.5455952,-68.893,0.0,0.0,0.0,0.0,-0.33,0.0,0.0,0.0,0.0,0,0,0,0
67560000,47.3977418,8.5455953,-68.924,0.0,0.0,0.0,0.0,-0.32,0.0,0.0,0.0,0.0,0,0,0,0
67656000,47.3977418,8.5455953,-68.955,0.0,0.0,0.01,0.0,-0.31,0.0,0.0,0.0,0.0,0,0,0,0
67752000,47.3977419,8.5455952,-68.985,0.0,0.0,0.01,0.0,-0.3,0.0,0.0,0.0,0.0,0,0,0,0
67848000,47.397742,8.5455951,-69.014,0.0,0.0,0.01,0.0,-0.29,0.0,0.0,0.0,0.0,0,0,0,0
67944000,47.397742,8.5455953,-69.042,0.0,0.0,0.01,0.0,-0.29,0.0,0.0,0.0,0.0,0,0,0,0
68040000,47.3977418,8.5455951,-69.07,0.0,0.0,0.01,0.0,-0.28,0.0,0.0,0.0,0.0,0,0,0,0
68136000,47.3977419,8.5455953,-69.096,0.0,0.0,0.02,-0.01,-0.27,0.0,0.0,0.0,0.0,0,0,0,0
68232000,47.397742,8.5455953,-69.122,0.0,0.0,0.02,-0.01,-0.26,0.0,0.0,0.0,0.0,0,0,0,0
68328000,47.3977421,8.5455953,-69.147,0.0,0.0,0.02,-0.01,-0.25,0.0,0.0,0.0,0.0,0,0,0,0
68424000,47.3977419,8.5455952,-69.171,0.0,0.0,0.02,-0.01,-0.24,0.0,0.0,0.0,0.0,0,0,0,0
68520000,47.3977419,8.5455951,-69.194,0.0,0.0,0.02,-0.01,-0.23,0.0,0.0,0.0,0.0,0,0,0,0
68616000,47.397742,8.545595,-69.216,0.0,0.0,0.03,-0.01,-0.22,0.0,0.0,0.0,0.0,0,0,0,0
68712000,47.3977421,8.545595,-69.238,0.0,0.0,0.03,-0.01,-0.21,0.0,0.0,0.0,0.0,0,0,0,0
68808000,47.3977421,8.5455949,-69.258,0.0,0.0,0.02,-0.01,-0.21,0.0,0.0,0.0,0.0,0,0,0,0
68904000,47.3977421,8.545595,-69.278,0.0,0.0,0.02,-0.02,-0.2,0.0,0.0,0.0,0.0,0,0,0,0
69000000,47.3977421,8.545595,-69.298,0.0,0.0,0.03,-0.02,-0.2,0.0,0.0,0.0,0.0,0,0,0,0
69096000,47.397742,8.5455949,-69.317,0.0,0.0,0.03,-0.02,-0.19,0.0,0.0,0.0,0.0,0,0,0,0
69192000,47.3977422,8.545595,-69.336,0.0,0.0,0.03,-0.02,-0.19,0.0,0.0,0.0,0.0,0,0,0,0
69288000,47.3977421,8.5455949,-69.354,0.0,0.0,0.03,-0.02,-0.18,0.0,0.0,0.0,0.0,0,0,0,0
69384000,47.3977422,8.5455949,-69.372,0.0,0.0,0.02,-0.02,-0.18,0.0,0.0,0.0,0.0,0,0,0,0
69480000,47.397742,8.5455949,-69.389,0.0,0.0,0.02,-0.02,-0.17,0.0,0.0,0.0,0.0,0,0,0,0
69576000,47.3977422,8.5455948,-69.406,0.0,0.0,0.02,-0.02,-0.17,0.0,0.0,0.0,0.0,0,0,0,0
69672000,47.3977423,8.5455949,-69.423,0.0,0.0,0.02,-0.03,-0.16,0.0,0.0,0.0,0.0,0,0,0,0
69768000,47.3977421,8.5455948,-69.438,0.0,0.0,0.02,-0.03,-0.16,0.0,0.0,0.0,0.0,0,0,0,0
69864000,47.3977422,8.5455947,-69.454,0.0,0.0,0.02,-0.03,-0.15,0.0,0.0,0.0,0.0,0,0,0,0
69960000,47.3977423,8.5455947,-69.469,0.0,0.0,0.01,-0.03,-0.15,0.0,0.0,0.0,0.0,0,0,0,0
70056000,47.3977423,8.5455945,-69.483,0.0,0.0,0.01,-0.03,-0.14,0.0,0.0,0.0,0.0,0,0,0,0
70152000,47.3977425,8.5455944,-69.497,0.0,0.0,0.01,-0.03,-0.14,0.0,0.0,0.0,0.0,0,0,0,0
70248000,47.3977423,8.5455944,-69.511,0.0,0.0,0.01,-0.03,-0.13,0.0,0.0,0.0,0.0,0,0,0,0
70344000,47.3977424,8.5455943,-69.524,0.0,0.0,0.01,-0.03,-0.13,0.0,0.0,0.0,0.0,0,0,0,0
70440000,47.3977424,8.5455945,-69.536,0.0,0.0,0.01,-0.03,-0.12,0.0,0.0,0.0,0.0,0,0,0,0
70536000,47.3977426,8.5455944,-69.548,0.0,0.0,0.01,-0.04,-0.12,0.0,0.0,0.0,0.0,0,0,0,0
70632000,47.3977424,8.5455943,-69.56,0.0,0.0,0.01,-0.04,-0.11,0.0,0.0,0.0,0.0,0,0,0,0
70728000,47.3977424,8.5455943,-69.571,0.0,0.0,0.0,-0.04,-0.11,0.0,0.0,0.0,0.0,0,0,0,0
70824000,47.3977424,8.5455942,-69.581,0.0,0.0,0.0,-0.04,-0.11,0.0,0.0,0.0,0.0,0,0,0,0
70920000,47.3977424,8.5455942,-69.592,0.0,0.0,0.0,-0.04,-0.11,0.0,0.0,0.0,0.0,0,0,0,0
71016000,47.3977424,8.5455942,-69.602,0.0,0.0,0.0,-0.04,-0.1,0.0,0.0,0.0,0.0,0,0,0,0
