timestamp,x,y,z,yaw,yawspeed,vx,vy,vz,acc_x,acc_y,acc_z,jerk_x,jerk_y,jerk_z,thrust[0],thrust[1],thrust[2]
36508000,0.00548103,0.0266139,-0.320651,0.0087132,0.0,0.00150012,0.00366899,-0.00488888,0.0,0.0,0.0,0.0,0.0,0.0,0.000963119,7.49402e-05,-0.475149
36600000,0.00541845,0.0265879,-0.44556,0.0087132,0.0,0.00192491,0.00437314,-0.122444,0.0,0.0,0.0,0.0,0.0,0.0,0.00122638,0.000749638,-0.538344
36692000,0.00535588,0.0265618,-0.57957,0.0087132,0.0,0.00222204,0.00511619,-0.24,0.0,0.0,0.0,0.0,0.0,0.0,0.000728465,0.000935475,-0.551622
36788000,0.00529059,0.0265346,-0.723475,0.0087132,0.0,0.00234743,0.00559502,-0.362667,0.0,0.0,0.0,0.0,0.0,0.0,0.00024592,0.000486133,-0.557383
36880000,0.00522801,0.0265085,-0.861485,0.0087132,0.0,0.00260282,0.00591721,-0.480222,0.0,0.0,0.0,0.0,0.0,0.0,0.000566001,0.000991876,-0.554038
36972000,0.00517696,0.0264824,-0.999496,0.0087132,0.0,0.00319387,0.00653547,-0.597778,0.0,0.0,0.0,0.0,0.0,0.0,8.98432e-05,0.000411215,-0.553384
37068000,0.00514238,0.0264552,-1.14351,0.0087132,0.0,0.00308173,0.00667153,-0.720444,0.0,0.0,0.0,0.0,0.0,0.0,-0.000155301,3.54324e-05,-0.56077
37160000,0.00510925,0.0264291,-1.28152,0.0087132,0.0,0.00310761,0.00598077,-0.838,0.0,0.0,0.0,0.0,0.0,0.0,0.000127704,-0.000812435,-0.558166
37252000,0.00507612,0.026403,-1.41953,0.0087132,0.0,0.00306932,0.00503237,-0.955556,0.0,0.0,0.0,0.0,0.0,0.0,-9.41086e-05,-0.000750806,-0.55528
37348000,0.00504155,0.0263758,-1.56354,0.0087132,0.0,0.00275366,0.00456742,-1.07822,0.0,0.0,0.0,0.0,0.0,0.0,-0.000125344,-0.000495561,-0.56264
37440000,0.00500841,0.0263497,-1.70155,0.0087132,0.0,0.00230051,0.00394372,-1.19578,0.0,0.0,0.0,0.0,0.0,0.0,-0.000267016,-0.00141121,-0.560107
37532000,0.00497528,0.0263237,-1.83956,0.0087132,0.0,0.00175135,0.00315614,-1.31333,0.0,0.0,0.0,0.0,0.0,0.0,-0.00109529,-0.00127055,-0.556907
37628000,0.00494071,0.0262964,-1.98357,0.0087132,0.0,0.000888423,0.00231236,-1.436,0.0,0.0,0.0,0.0,0.0,0.0,-0.000976301,-0.00174857,-0.562987
37720000,0.00490757,0.0262704,-2.12158,0.0087132,0.0,-0.000390814,0.00130659,-1.55356,0.0,0.0,0.0,0.0,0.0,0.0,-0.000816337,-0.00173061,-0.560894
37812000,0.00488596,0.0262443,-2.25959,0.0087132,0.0,-0.00143492,0.000269685,-1.67111,0.0,0.0,0.0,0.0,0.0,0.0,-0.000910381,-0.00239552,-0.557721
37908000,0.00488211,0.0262171,-2.40344,0.0087132,0.0,-0.00265211,-0.000691486,-1.79378,0.0,0.0,0.0,0.0,0.0,0.0,-0.00102186,-0.00190391,-0.563484
38000000,0.00487843,0.0261911,-2.54115,0.0087132,0.0,-0.00391809,-0.00163297,-1.91133,0.0,0.0,0.0,0.0,0.0,0.0,-0.00118408,-0.00104175,-0.560582
38092000,0.00487475,0.0261651,-2.67873,0.0087132,0.0,-0.00525235,-0.00262787,-2.02889,0.0,0.0,0.0,0.0,0.0,0.0,-0.0015151,-0.000829784,-0.557292
38188000,0.00487091,0.026138,-2.82213,0.0087132,0.0,-0.0066355,-0.00366907,-2.15156,0.0,0.0,0.0,0.0,0.0,0.0,-0.00147079,-0.0011157,-0.562405
38280000,0.00486724,0.026112,-2.95939,0.0087132,0.0,-0.00843575,-0.00486331,-2.26911,0.0,0.0,0.0,0.0,0.0,0.0,-0.00229393,-0.00236122,-0.559595
38372000,0.00486357,0.0260861,-3.09644,0.0087132,0.0,-0.0105465,-0.00652322,-2.38667,0.0,0.0,0.0,0.0,0.0,0.0,-0.00312686,-0.00254662,-0.555956
38468000,0.00485975,0.0260592,-3.23921,0.0087132,0.0,-0.0126203,-0.00806501,-2.50933,0.0,0.0,0.0,0.0,0.0,0.0,-0.00315191,-0.00275058,-0.560234
38560000,0.00485609,0.0260333,-3.3758,0.0087132,0.0,-0.0147519,-0.00956723,-2.41919,0.0,0.0,0.0,0.0,0.0,0.0,-0.00277842,-0.00251981,-0.45886
38652000,0.00485244,0.0260076,-3.51219,0.0087132,0.0,-0.0167042,-0.0109589,-2.31585,0.0,0.0,0.0,0.0,0.0,0.0,-0.00270593,-0.00338552,-0.438433
38748000,0.00484864,0.0260045,-3.65431,0.0087132,0.0,-0.0184286,-0.0118898,-2.2459,0.0,0.0,0.0,0.0,0.0,0.0,-0.00245876,-0.0033421,-0.449279
38840000,0.004845,0.0260092,-3.7903,0.0087132,0.0,-0.0201633,-0.0133225,-2.159,0.0,0.0,0.0,0.0,0.0,0.0,-0.00251955,-0.00295182,-0.448917
38932000,0.00484131,0.0260155,-3.92832,0.0087132,0.0,-0.021708,-0.0143675,-2.08045,0.0,0.0,0.0,0.0,0.0,0.0,-0.00314001,-0.00255467,-0.447964
39028000,0.00483746,0.026024,-4.07233,0.0087132,0.0,-0.0232309,-0.0151902,-2.03065,0.0,0.0,0.0,0.0,0.0,0.0,-0.00296128,-0.00231461,-0.455464
39120000,0.00483376,0.026034,-4.21034,0.0087132,0.0,-0.0245789,-0.0161084,-1.96275,0.0,0.0,0.0,0.0,0.0,0.0,-0.00290339,-0.00280807,-0.454712
39212000,0.00483007,0.0260456,-4.34835,0.0087132,0.0,-0.0257492,-0.0170761,-1.90117,0.0,0.0,0.0,0.0,0.0,0.0,-0.00278899,-0.00257496,-0.455695
39308000,0.00482622,0.0260595,-4.49236,0.0087132,0.0,-0.0264771,-0.0179605,-1.86881,0.0,0.0,0.0,0.0,0.0,0.0,-0.00289069,-0.00277976,-0.465846
39400000,0.00482252,0.0260747,-4.63036,0.0087132,0.0,-0.0267262,-0.0189483,-1.8197,0.0,0.0,0.0,0.0,0.0,0.0,-0.00258752,-0.00333586,-0.465303
39492000,0.00481883,0.0260915,-4.76837,0.0087132,0.0,-0.0268115,-0.0199865,-1.77548,0.0,0.0,0.0,0.0,0.0,0.0,-0.00248976,-0.00320719,-0.465579
39588000,0.00481504,0.0260859,-4.90996,0.0087132,0.0,-0.0269941,-0.021241,-1.754,0.0,0.0,0.0,0.0,0.0,0.0,-0.00224193,-0.00286008,-0.473857
39680000,0.00481143,0.0260719,-5.04499,0.0087132,0.0,-0.0271462,-0.0218964,-1.71515,0.0,0.0,0.0,0.0,0.0,0.0,-0.00273522,-0.0031352,-0.472567
39772000,0.00480782,0.0260553,-5.17997,0.0087132,0.0,-0.0273124,-0.0226863,-1.6802,0.0,0.0,0.0,0.0,0.0,0.0,-0.00234544,-0.00350538,-0.471931
39868000,0.00480405,0.0260351,-5.32075,0.0087132,0.0,-0.0274693,-0.0238174,-1.66849,0.0,0.0,0.0,0.0,0.0,0.0,-0.00246354,-0.00379955,-0.480429
39960000,0.00480044,0.026013,-5.4556,0.0087132,0.0,-0.0274943,-0.0250516,-1.64068,0.0,0.0,0.0,0.0,0.0,0.0,-0.00171753,-0.00332138,-0.479608
40052000,0.00479684,0.0259991,-5.59038,0.0087132,0.0,-0.0273133,-0.0257825,-1.61558,0.0,0.0,0.0,0.0,0.0,0.0,-0.00170221,-0.00269983,-0.477714
40148000,0.00479302,0.0260038,-5.73299,0.0087132,0.0,-0.0267181,-0.0261232,-1.61455,0.0,0.0,0.0,0.0,0.0,0.0,-0.00192096,-0.00275796,-0.488808
40240000,0.00478933,0.0260113,-5.87099,0.0087132,0.0,-0.0258657,-0.0258463,-1.59781,0.0,0.0,0.0,0.0,0.0,0.0,-0.00128323,-0.00275564,-0.48577
40332000,0.00478563,0.0260219,-6.009,0.0087132,0.0,-0.0248458,-0.0250049,-1.58147,0.0,0.0,0.0,0.0,0.0,0.0,-0.00107243,-0.00267532,-0.482869
40428000,0.00478178,0.0260362,-6.15301,0.0087132,0.0,-0.0238823,-0.0244876,-1.58496,0.0,0.0,0.0,0.0,0.0,0.0,-0.0012094,-0.00228607,-0.490542
40520000,0.00477809,0.026053,-6.29102,0.0087132,0.0,-0.0229097,-0.0241798,-1.57042,0.0,0.0,0.0,0.0,0.0,0.0,-0.00122509,-0.00176705,-0.486481
40612000,0.00477441,0.0260612,-6.42855,0.0087132,0.0,-0.021542,-0.0243179,-1.557,0.0,0.0,0.0,0.0,0.0,0.0,-0.000160624,-0.00171716,-0.4848
40708000,0.00477063,0.026052,-6.56971,0.0087132,0.0,-0.0196643,-0.0242573,-1.55982,0.0,0.0,0.0,0.0,0.0,0.0,0.000311894,-0.00228578,-0.489317
40800000,0.00476701,0.0260433,-6.70511,0.0087132,0.0,-0.0171112,-0.024482,-1.54603,0.0,0.0,0.0,0.0,0.0,0.0,0.000642214,-0.00194965,-0.486851
40892000,0.00476338,0.0260345,-6.84061,0.0087132,0.0,-0.0146699,-0.0248911,-1.53392,0.0,0.0,0.0,0.0,0.0,0.0,0.000235717,-0.00244148,-0.485825
40988000,0.0047596,0.0260253,-6.98206,0.0087132,0.0,-0.0126024,-0.0253682,-1.54159,0.0,0.0,0.0,0.0,0.0,0.0,0.000411533,-0.00356621,-0.493338
41080000,0.00475597,0.0260165,-7.11767,0.0087132,0.0,-0.01023,-0.0257241,-1.53229,0.0,0.0,0.0,0.0,0.0,0.0,0.000852054,-0.00268962,-0.491972
41172000,0.00475234,0.0260077,-7.25333,0.0087132,0.0,-0.00795625,-0.0257454,-1.52325,0.0,0.0,0.0,0.0,0.0,0.0,0.00120848,-0.00249907,-0.488328
41268000,0.00474855,0.0259985,-7.39499,0.0087132,0.0,-0.00576617,-0.0252445,-1.53164,0.0,0.0,0.0,0.0,0.0,0.0,0.00113826,-0.00211917,-0.494323
41360000,0.00474491,0.0259897,-7.53083,0.0087132,0.0,-0.00335773,-0.0247004,-1.52218,0.0,0.0,0.0,0.0,0.0,0.0,0.00105876,-0.00251387,-0.491223
41452000,0.00474128,0.0259808,-7.6667,0.0087132,0.0,-0.00106381,-0.024916,-1.51293,0.0,0.0,0.0,0.0,0.0,0.0,0.0014584,-0.00304673,-0.487795
41548000,0.00473748,0.0259716,-7.80845,0.0087132,0.0,0.00130158,-0.0254102,-1.52165,0.0,0.0,0.0,0.0,0.0,0.0,0.00138589,-0.00273772,-0.493604
41640000,0.00473385,0.0259628,-7.94423,0.0087132,0.0,0.00381904,-0.0259038,-1.51281,0.0,0.0,0.0,0.0,0.0,0.0,0.00176357,-0.0018989,-0.490444
41732000,0.00473022,0.025954,-8.07995,0.0087132,0.0,0.00607776,-0.0263345,-1.50412,0.0,0.0,0.0,0.0,0.0,0.0,0.00135405,-0.00246786,-0.488355
41828000,0.00472643,0.0259448,-8.2215,0.0087132,0.0,0.00779001,-0.0266599,-1.513,0.0,0.0,0.0,0.0,0.0,0.0,0.00119666,-0.00234458,-0.493439
41920000,0.0047228,0.025936,-8.35708,0.0087132,0.0,0.0093816,-0.0269086,-1.50444,0.0,0.0,0.0,0.0,0.0,0.0,0.00109552,-0.0022998,-0.490703
42012000,0.00471918,0.0259272,-8.49261,0.0087132,0.0,0.0107717,-0.0270048,-1.49738,0.0,0.0,0.0,0.0,0.0,0.0,0.00148497,-0.00209851,-0.488372
42108000,0.00471539,0.0259181,-8.634,0.0087132,0.0,0.0117801,-0.0268902,-1.50837,0.0,0.0,0.0,0.0,0.0,0.0,0.00131097,-0.00224752,-0.495885
42200000,0.00471177,0.0259093,-8.76947,0.0087132,0.0,0.0127109,-0.0269168,-1.50094,0.0,0.0,0.0,0.0,0.0,0.0,0.00108187,-0.0024313,-0.490641
42292000,0.00470814,0.0259005,-8.90489,0.0087132,0.0,0.0133852,-0.0271323,-1.49275,0.0,0.0,0.0,0.0,0.0,0.0,0.000408646,-0.0021939,-0.487296
42388000,0.00470436,0.0258913,-9.04616,0.0087132,0.0,0.0137345,-0.0273772,-1.50294,0.0,0.0,0.0,0.0,0.0,0.0,0.00020264,-0.00213773,-0.495539
42480000,0.00470074,0.0258825,-9.18153,0.0087132,0.0,0.0138876,-0.0273785,-1.49516,0.0,0.0,0.0,0.0,0.0,0.0,0.000539946,-0.00174032,-0.490582
42572000,0.00469712,0.0258737,-9.31691,0.0087132,0.0,0.0137221,-0.0271438,-1.48842,0.0,0.0,0.0,0.0,0.0,0.0,0.000396823,-0.00236401,-0.48871
42668000,0.00469334,0.0258645,-9.45822,0.0087132,0.0,0.0134484,-0.0266449,-1.49952,0.0,0.0,0.0,0.0,0.0,0.0,0.000345473,-0.00259823,-0.495937
42760000,0.00468971,0.0258558,-9.59369,0.0087132,0.0,0.0132488,-0.0260338,-1.49235,0.0,0.0,0.0,0.0,0.0,0.0,-0.000767166,-0.00170165,-0.491102
42852000,0.00468609,0.025847,-9.72922,0.0087132,0.0,0.0127658,-0.0254762,-1.48468,0.0,0.0,0.0,0.0,0.0,0.0,-0.000615487,-0.00172858,-0.486971
42948000,0.0046823,0.0258378,-9.87071,0.0087132,0.0,0.0120006,-0.0251221,-1.49494,0.0,0.0,0.0,0.0,0.0,0.0,-0.000621885,-0.00228897,-0.494592
43040000,0.00467867,0.025829,-10.0064,0.0087132,0.0,0.0111856,-0.0247931,-1.48822,0.0,0.0,0.0,0.0,0.0,0.0,-0.000940547,-0.00232693,-0.4919
43136000,0.00467488,0.0258198,-10.1491,0.0087132,0.0,0.0103729,-0.0243403,-1.52513,0.0,0.0,0.0,0.0,0.0,0.0,-0.00156816,-0.00232832,-0.512968
43228000,0.00467125,0.025811,-10.2922,0.0087132,0.0,0.00966356,-0.0241156,-1.62559,0.0,0.0,0.0,0.0,0.0,0.0,-0.00126147,-0.00200613,-0.545444
43324000,0.00466746,0.0258018,-10.4545,0.0087132,0.0,0.00903551,-0.0241872,-1.82376,0.0,0.0,0.0,0.0,0.0,0.0,-0.000721234,-0.00193304,-0.59726
43416000,0.00466382,0.0257929,-10.6287,0.0087132,0.0,0.00841055,-0.0244935,-2.06725,0.0,0.0,0.0,0.0,0.0,0.0,-0.000503045,-0.0026692,-0.628364
43508000,0.00466019,0.0257841,-10.827,0.0087132,0.0,0.00786589,-0.0248741,-2.36785,0.0,0.0,0.0,0.0,0.0,0.0,-0.000951232,-0.00248938,-0.648589
43604000,0.0046564,0.0257749,-11.0611,0.0087132,0.0,0.00743074,-0.0251827,-2.67631,0.0,0.0,0.0,0.0,0.0,0.0,-0.00135803,-0.00249668,-0.66289
43696000,0.00465277,0.0257661,-11.3066,0.0087132,0.0,0.00688487,-0.025414,-2.8748,0.0,0.0,0.0,0.0,0.0,0.0,-0.00164458,-0.00301382,-0.614583
43788000,0.00464913,0.0257573,-11.5668,0.0087132,0.0,0.0060225,-0.0257634,-2.99937,0.0,0.0,0.0,0.0,0.0,0.0,-0.00206285,-0.00343882,-0.567024
43884000,0.00464534,0.0257481,-11.8475,0.0087132,0.0,0.00538061,-0.0262036,-3.0,0.0,0.0,0.0,0.0,0.0,0.0,-0.00216629,-0.0044193,-0.508266
43976000,0.00464171,0.0257393,-12.1192,0.0087132,0.0,0.00479947,-0.0271708,-3.0,0.0,0.0,0.0,0.0,0.0,0.0,-0.00235243,-0.00512728,-0.500621
44068000,0.00463809,0.0257305,-12.3902,0.0087132,0.0,0.00417724,-0.0286188,-3.0,0.0,0.0,0.0,0.0,0.0,0.0,-0.001843,-0.00449002,-0.498821
44164000,0.0046343,0.0257213,-12.6728,0.0087132,0.0,0.00346619,-0.0302275,-3.0,0.0,0.0,0.0,0.0,0.0,0.0,-0.00178916,-0.00505085,-0.499218
44256000,0.00463068,0.0257126,-12.9433,0.0087132,0.0,0.00213663,-0.0318346,-3.0,0.0,0.0,0.0,0.0,0.0,0.0,-0.00251342,-0.00528906,-0.496863
44348000,0.00462707,0.0257038,-13.2136,0.0087132,0.0,0.000879185,-0.0332206,-3.0,0.0,0.0,0.0,0.0,0.0,0.0,-0.00258522,-0.00488713,-0.494547
44444000,0.00462328,0.0257007,-13.4967,0.0087132,0.0,1.56314e-05,-0.0340873,-3.0,0.0,0.0,0.0,0.0,0.0,0.0,-0.00226081,-0.00430088,-0.493415
44536000,0.00461958,0.0257203,-13.7725,0.0087132,0.0,-0.000615632,-0.0351477,-3.0,0.0,0.0,0.0,0.0,0.0,0.0,-0.00204458,-0.00363295,-0.493125
44628000,0.00461589,0.0257398,-14.0484,0.0087132,0.0,-0.000629225,-0.0361791,-3.0,0.0,0.0,0.0,0.0,0.0,0.0,-0.00122229,-0.00353706,-0.49362
44724000,0.00461204,0.0257602,-14.3362,0.0087132,0.0,-5.95602e-05,-0.0371481,-3.0,0.0,0.0,0.0,0.0,0.0,0.0,-0.000572927,-0.00400729,-0.492827
44816000,0.00460834,0.0257798,-14.6122,0.0087132,0.0,0.000936654,-0.0383927,-3.0,0.0,0.0,0.0,0.0,0.0,0.0,0.000365846,-0.00316487,-0.492963
44908000,0.00460465,0.0257993,-14.8882,0.0087132,0.0,0.00215431,-0.0397696,-2.99395,0.0,0.0,0.0,0.0,0.0,0.0,0.000360254,-0.0034619,-0.489959
45004000,0.0046008,0.0258197,-15.1762,0.0087132,0.0,0.00340959,-0.04123,-3.0,0.0,0.0,0.0,0.0,0.0,0.0,0.000920474,-0.00390574,-0.494777
45096000,0.00459711,0.0258393,-15.4523,0.0087132,0.0,0.0048647,-0.0426947,-2.99644,0.0,0.0,0.0,0.0,0.0,0.0,0.00183088,-0.00362776,-0.493424
45188000,0.00459341,0.0258588,-15.7283,0.0087132,0.0,0.006256,-0.0437553,-2.98009,0.0,0.0,0.0,0.0,0.0,0.0,0.000681596,-0.0032827,-0.48636
45284000,0.00458956,0.0258792,-16.0164,0.0087132,0.0,0.00727742,-0.0445537,-3.0,0.0,0.0,0.0,0.0,0.0,0.0,0.000923768,-0.00369708,-0.499637
45376000,0.00458587,0.0258987,-16.2924,0.0087132,0.0,0.00829713,-0.0456252,-2.98582,0.0,0.0,0.0,0.0,0.0,0.0,0.000425603,-0.00315131,-0.492532
45468000,0.00458217,0.0259183,-16.5685,0.0087132,0.0,0.00899058,-0.0466105,-2.97193,0.0,0.0,0.0,0.0,0.0,0.0,0.000383466,-0.00349027,-0.486627
45564000,0.00457832,0.0259387,-16.8565,0.0087132,0.0,0.0099127,-0.0473383,-2.99476,0.0,0.0,0.0,0.0,0.0,0.0,0.000656144,-0.00287014,-0.501837
45656000,0.00457463,0.0259582,-17.1325,0.0087132,0.0,0.0108334,-0.0483655,-2.98241,0.0,0.0,0.0,0.0,0.0,0.0,0.000530679,-0.00259448,-0.494757
45748000,0.00457094,0.0259778,-17.4086,0.0087132,0.0,0.0118565,-0.0493415,-2.97083,0.0,0.0,0.0,0.0,0.0,0.0,0.00086328,-0.00298006,-0.488916
45844000,0.00456708,0.0259982,-17.6966,0.0087132,0.0,0.0125209,-0.0502899,-2.99561,0.0,0.0,0.0,0.0,0.0,0.0,0.000476725,-0.00301336,-0.502601
45936000,0.00456339,0.0260177,-17.9727,0.0087132,0.0,0.0130386,-0.0507769,-2.9846,0.0,0.0,0.0,0.0,0.0,0.0,0.000794686,-0.00272953,-0.496079
46028000,0.0045597,0.0260373,-18.2487,0.0087132,0.0,0.0134635,-0.0509889,-2.97403,0.0,0.0,0.0,0.0,0.0,0.0,0.000383838,-0.00281842,-0.49145
46124000,0.00455584,0.0260576,-18.5368,0.0087132,0.0,0.0139373,-0.0511705,-2.99911,0.0,0.0,0.0,0.0,0.0,0.0,0.000125369,-0.00284792,-0.503935
46216000,0.00455215,0.0260772,-18.8128,0.0087132,0.0,0.0145151,-0.0514047,-2.98704,0.0,0.0,0.0,0.0,0.0,0.0,0.00027123,-0.0034411,-0.495123
46308000,0.00454846,0.0260967,-19.0889,0.0087132,0.0,0.0149432,-0.0514791,-2.97485,0.0,0.0,0.0,0.0,0.0,0.0,-0.000434931,-0.0040121,-0.488727
46404000,0.00454461,0.0261171,-19.3769,0.0087132,0.0,0.0152235,-0.0514288,-2.99914,0.0,0.0,0.0,0.0,0.0,0.0,-0.000314479,-0.00354219,-0.504019
46496000,0.00454096,0.0261189,-19.6493,0.0087132,0.0,0.0155192,-0.0515613,-2.98439,0.0,0.0,0.0,0.0,0.0,0.0,-0.000350153,-0.0037439,-0.493991
46588000,0.00453739,0.0261093,-19.9161,0.0087132,0.0,0.0160232,-0.051282,-2.9643,0.0,0.0,0.0,0.0,0.0,0.0,0.000361571,-0.00312973,-0.485152
46684000,0.00453367,0.0260993,-20.1945,0.0087132,0.0,0.0163731,-0.0507114,-2.97963,0.0,0.0,0.0,0.0,0.0,0.0,-0.000706827,-0.00252292,-0.498467
46776000,0.0045301,0.0260898,-20.4614,0.0087132,0.0,0.0170159,-0.050257,-2.95994,0.0,0.0,0.0,0.0,0.0,0.0,-0.000479396,-0.00250496,-0.4908
46868000,0.00452653,0.0260802,-20.7283,0.0087132,0.0,0.0176592,-0.0494945,-2.94069,0.0,0.0,0.0,0.0,0.0,0.0,-0.000416039,-0.00169277,-0.485075
46964000,0.0045228,0.0260702,-21.007,0.0087132,0.0,0.0182685,-0.0484907,-2.95841,0.0,0.0,0.0,0.0,0.0,0.0,3.41889e-05,-0.00227329,-0.499559
47056000,0.00451922,0.0260607,-21.2742,0.0087132,0.0,0.0187969,-0.0474931,-2.94248,0.0,0.0,0.0,0.0,0.0,0.0,0.0001971,-0.00270952,-0.493362
47148000,0.00451565,0.0260511,-21.5415,0.0087132,0.0,0.0190057,-0.0464207,-2.92715,0.0,0.0,0.0,0.0,0.0,0.0,-0.000757268,-0.00300733,-0.488278
47244000,0.00451191,0.0260411,-21.8207,0.0087132,0.0,0.0187492,-0.0455801,-2.94687,0.0,0.0,0.0,0.0,0.0,0.0,-0.00120761,-0.00367619,-0.501192
47336000,0.00450833,0.0260315,-22.0883,0.0087132,0.0,0.0183152,-0.0446376,-2.93183,0.0,0.0,0.0,0.0,0.0,0.0,-0.00150476,-0.00340907,-0.493239
47428000,0.00450475,0.0260219,-22.3562,0.0087132,0.0,0.0180038,-0.0435425,-2.91697,0.0,0.0,0.0,0.0,0.0,0.0,-0.000661399,-0.00340615,-0.487447
47524000,0.00450101,0.0260119,-22.6359,0.0087132,0.0,0.0180303,-0.0424678,-2.93732,0.0,0.0,0.0,0.0,0.0,0.0,-0.000397616,-0.00273095,-0.500878
47616000,0.00449742,0.0260022,-22.9041,0.0087132,0.0,0.0182404,-0.0411483,-2.92348,0.0,0.0,0.0,0.0,0.0,0.0,0.000302871,-0.00148969,-0.494298
47708000,0.00449383,0.0259926,-23.1725,0.0087132,0.0,0.018642,-0.0395037,-2.91067,0.0,0.0,0.0,0.0,0.0,0.0,0.00020834,-0.00153713,-0.488928
47804000,0.00449007,0.0259826,-23.4528,0.0087132,0.0,0.0192519,-0.0377513,-2.93316,0.0,0.0,0.0,0.0,0.0,0.0,0.000290803,-0.00163685,-0.502379
47896000,0.00448648,0.0259729,-23.7218,0.0087132,0.0,0.0198143,-0.0355804,-2.92085,0.0,0.0,0.0,0.0,0.0,0.0,0.000207329,-0.00180143,-0.49522
47988000,0.00448288,0.0259633,-23.991,0.0087132,0.0,0.0201022,-0.033299,-2.90933,0.0,0.0,0.0,0.0,0.0,0.0,-0.000120371,-0.00152266,-0.490107
48084000,0.00447911,0.0259532,-24.2722,0.0087132,0.0,0.0200149,-0.0311903,-2.93275,0.0,0.0,0.0,0.0,0.0,0.0,0.000103736,-0.00166901,-0.502861
48176000,0.0044755,0.0259435,-24.5421,0.0087132,0.0,0.0197887,-0.0288714,-2.92151,0.0,0.0,0.0,0.0,0.0,0.0,-0.000428191,-0.00143496,-0.494859
48268000,0.00447189,0.0259338,-24.8123,0.0087132,0.0,0.0196052,-0.0267876,-2.91012,0.0,0.0,0.0,0.0,0.0,0.0,-0.000959664,-0.00158024,-0.488994
48364000,0.00446811,0.0259237,-25.0945,0.0087132,0.0,0.0195493,-0.0250656,-2.93418,0.0,0.0,0.0,0.0,0.0,0.0,-0.000970876,-0.00229774,-0.502091
48456000,0.00446449,0.025914,-25.3653,0.0087132,0.0,0.0193157,-0.0231986,-2.92368,0.0,0.0,0.0,0.0,0.0,0.0,-0.00115602,-0.0021901,-0.496517
48548000,0.00446086,0.0259043,-25.6363,0.0087132,0.0,0.0189146,-0.0211755,-2.914,0.0,0.0,0.0,0.0,0.0,0.0,-0.00105741,-0.00160543,-0.49072
48644000,0.00445707,0.0258942,-25.9194,0.0087132,0.0,0.0185691,-0.0193006,-2.93962,0.0,0.0,0.0,0.0,0.0,0.0,-0.000985809,-0.00184324,-0.503998
48736000,0.00445344,0.0258844,-26.191,0.0087132,0.0,0.0184127,-0.0171693,-2.93101,0.0,0.0,0.0,0.0,0.0,0.0,-0.000808294,-0.00134365,-0.497984
48828000,0.0044498,0.0258747,-26.4629,0.0087132,0.0,0.0183224,-0.0151051,-2.92296,0.0,0.0,0.0,0.0,0.0,0.0,-2.11346e-05,-0.00111299,-0.492462
48924000,0.004446,0.0258645,-26.7468,0.0087132,0.0,0.0181233,-0.0131595,-2.94961,0.0,0.0,0.0,0.0,0.0,0.0,0.000308916,-0.000929679,-0.505591
49016000,0.00444236,0.0258547,-27.0191,0.0087132,0.0,0.0178413,-0.0110037,-2.94077,0.0,0.0,0.0,0.0,0.0,0.0,6.36922e-05,-0.00108936,-0.497473
49108000,0.00443871,0.025845,-27.2917,0.0087132,0.0,0.0173965,-0.00879258,-2.93102,0.0,0.0,0.0,0.0,0.0,0.0,-0.000787308,-0.000639185,-0.490185
49204000,0.00443491,0.0258348,-27.5764,0.0087132,0.0,0.0168514,-0.00678368,-2.95638,0.0,0.0,0.0,0.0,0.0,0.0,-0.000761667,-0.00043827,-0.504454
49296000,0.00443121,0.0258249,-27.8524,0.0087132,0.0,0.0161038,-0.00473148,-2.94923,0.0,0.0,0.0,0.0,0.0,0.0,-0.00142708,-0.000792846,-0.49822
49388000,0.00442752,0.025815,-28.1285,0.0087132,0.0,0.0152703,-0.00295928,-2.94189,0.0,0.0,0.0,0.0,0.0,0.0,-0.00181396,-0.000627517,-0.492197
49484000,0.00442367,0.0258047,-28.4165,0.0087132,0.0,0.0145284,-0.00147863,-2.97036,0.0,0.0,0.0,0.0,0.0,0.0,-0.00130657,-0.000610776,-0.506558
49576000,0.00441997,0.0257948,-28.6925,0.0087132,0.0,0.0141448,0.000256938,-2.96303,0.0,0.0,0.0,0.0,0.0,0.0,-0.000745062,-0.000144984,-0.498561
49668000,0.00441628,0.0257849,-28.9686,0.0087132,0.0,0.0138348,0.00205627,-2.95525,0.0,0.0,0.0,0.0,0.0,0.0,-0.000943349,-0.000415411,-0.491885
49764000,0.00441243,0.0257745,-29.2566,0.0087132,0.0,0.0136829,0.00368395,-2.98304,0.0,0.0,0.0,0.0,0.0,0.0,-0.000421562,-0.000126043,-0.50579
49856000,0.00440874,0.0257646,-29.5327,0.0087132,0.0,0.0135883,0.00587882,-2.97407,0.0,0.0,0.0,0.0,0.0,0.0,-8.3098e-05,0.00026265,-0.497548
49948000,0.00440504,0.0257547,-29.8087,0.0087132,0.0,0.0135612,0.00800503,-2.96398,0.0,0.0,0.0,0.0,0.0,0.0,-0.000571034,0.000380036,-0.490031
50044000,0.00440119,0.0257444,-30.0968,0.0087132,0.0,0.013706,0.00993929,-2.98973,0.0,0.0,0.0,0.0,0.0,0.0,-0.000117055,0.000370796,-0.503796
50136000,0.0043975,0.0257345,-30.3728,0.0087132,0.0,0.0138874,0.0117282,-2.97958,0.0,0.0,0.0,0.0,0.0,0.0,0.000168035,0.000684342,-0.496301
50228000,0.0043938,0.0257246,-30.6489,0.0087132,0.0,0.0139765,0.0135657,-2.9686,0.0,0.0,0.0,0.0,0.0,0.0,3.93122e-05,0.000718354,-0.487969
50324000,0.00438995,0.0257143,-30.9369,0.0087132,0.0,0.0140177,0.0154864,-2.99287,0.0,0.0,0.0,0.0,0.0,0.0,8.48144e-07,0.000829322,-0.501874
50416000,0.00438626,0.0257044,-31.2129,0.0087132,0.0,0.013975,0.0178124,-2.9823,0.0,0.0,0.0,0.0,0.0,0.0,0.000130571,0.000602583,-0.496081
50508000,0.00438257,0.0256945,-31.489,0.0087132,0.0,0.0137635,0.0200054,-2.97221,0.0,0.0,0.0,0.0,0.0,0.0,0.000114359,0.00055314,-0.491169
50604000,0.00437871,0.0256842,-31.777,0.0087132,0.0,0.0134384,0.0218711,-2.99735,0.0,0.0,0.0,0.0,0.0,0.0,9.53253e-05,0.000481278,-0.504204
50696000,0.00437502,0.0256743,-32.0531,0.0087132,0.0,0.0128502,0.0236827,-2.98537,0.0,0.0,0.0,0.0,0.0,0.0,-0.00125626,-1.56116e-05,-0.495396
50788000,0.00437133,0.0256644,-32.3291,0.0087132,0.0,0.0121223,0.025226,-2.97363,0.0,0.0,0.0,0.0,0.0,0.0,-0.000812984,1.41248e-05,-0.488295
50884000,0.00436747,0.0256541,-32.6172,0.0087132,0.0,0.0116634,0.0265578,-2.99842,0.0,0.0,0.0,0.0,0.0,0.0,-0.000931834,-0.000413015,-0.502987
50976000,0.00436378,0.0256442,-32.8932,0.0087132,0.0,0.0114844,0.0277752,-2.98743,0.0,0.0,0.0,0.0,0.0,0.0,-0.000938179,-0.00110105,-0.495836
51068000,0.00436009,0.0256343,-33.1692,0.0087132,0.0,0.0115,0.0285737,-2.97606,0.0,0.0,0.0,0.0,0.0,0.0,-0.00130976,-0.000777942,-0.489376
51164000,0.00435623,0.0256239,-33.4573,0.0087132,0.0,0.0113378,0.0295527,-3.0,0.0,0.0,0.0,0.0,0.0,0.0,-0.00080664,-0.000714611,-0.501995
51256000,0.00435254,0.025614,-33.7333,0.0087132,0.0,0.0111824,0.0305874,-2.98797,0.0,0.0,0.0,0.0,0.0,0.0,-0.0014219,0.000143187,-0.49421
51348000,0.00434885,0.0256042,-34.0094,0.0087132,0.0,0.01144,0.0315076,-2.97559,0.0,0.0,0.0,0.0,0.0,0.0,-0.00053861,-0.000860235,-0.487907
51444000,0.004345,0.0255938,-34.2974,0.0087132,0.0,0.011776,0.0321718,-3.0,0.0,0.0,0.0,0.0,0.0,0.0,-0.000272431,-0.000572593,-0.501597
51536000,0.0043413,0.0255839,-34.5735,0.0087132,0.0,0.0120036,0.0325009,-2.98946,0.0,0.0,0.0,0.0,0.0,0.0,-3.06252e-05,-0.000304532,-0.495024
51628000,0.00433761,0.025574,-34.8495,0.0087132,0.0,0.0122968,0.0325034,-2.97803,0.0,0.0,0.0,0.0,0.0,0.0,0.000602215,-0.000700514,-0.489679
51724000,0.00433376,0.0255637,-35.1375,0.0087132,0.0,0.0128352,0.0322538,-3.0,0.0,0.0,0.0,0.0,0.0,0.0,0.000390753,-0.000603144,-0.503319
51816000,0.00433006,0.0255538,-35.4136,0.0087132,0.0,0.0137128,0.0318211,-2.99348,0.0,0.0,0.0,0.0,0.0,0.0,3.32715e-05,-0.00104163,-0.498222
51908000,0.00432637,0.0255439,-35.6896,0.0087132,0.0,0.0147914,0.0311645,-2.98362,0.0,0.0,0.0,0.0,0.0,0.0,0.000743007,-0.00164943,-0.492869
52004000,0.00432252,0.0255336,-35.9777,0.0087132,0.0,0.0160798,0.030651,-2.98631,0.0,0.0,0.0,0.0,0.0,0.0,0.000807932,-0.00122001,-0.494034
52100000,0.00431866,0.0255233,-36.2657,0.0087132,0.0,0.0172799,0.0301443,-3.0,0.0,0.0,0.0,0.0,0.0,0.0,0.0010215,-0.00138467,-0.50042
52192000,0.00431497,0.0255134,-36.5418,0.0087132,0.0,0.0186085,0.0298286,-3.0,0.0,0.0,0.0,0.0,0.0,0.0,0.000894205,-0.000494593,-0.498658
52284000,0.00431128,0.0255035,-36.8178,0.0087132,0.0,0.0197899,0.0296817,-2.99086,0.0,0.0,0.0,0.0,0.0,0.0,0.00178113,-0.000528971,-0.493684
52380000,0.00430743,0.0254931,-37.1059,0.0087132,0.0,0.020674,0.029408,-3.0,0.0,0.0,0.0,0.0,0.0,0.0,0.00153277,-0.00079602,-0.497946
52472000,0.00430373,0.0254832,-37.3819,0.0087132,0.0,0.0214063,0.028566,-3.0,0.0,0.0,0.0,0.0,0.0,0.0,0.00158089,-0.00115733,-0.497415
52564000,0.00430004,0.0254733,-37.6579,0.0087132,0.0,0.0223391,0.0277333,-2.99349,0.0,0.0,0.0,0.0,0.0,0.0,0.000493475,-0.00102583,-0.494548
52660000,0.00429626,0.0254875,-37.9409,0.0087132,0.0,0.0232257,0.0275247,-3.0,0.0,0.0,0.0,0.0,0.0,0.0,0.00111325,-0.000743619,-0.497767
52752000,0.00429265,0.0255098,-38.2107,0.0087132,0.0,0.0240132,0.0271502,-2.99643,0.0,0.0,0.0,0.0,0.0,0.0,0.00136024,-0.000785789,-0.497028
52844000,0.00428904,0.025535,-38.4805,0.0087132,0.0,0.02513,0.0267438,-2.9792,0.0,0.0,0.0,0.0,0.0,0.0,0.00148637,-0.000706288,-0.489058
52940000,0.00428527,0.0255644,-38.7619,0.0087132,0.0,0.0262309,0.0265198,-2.99736,0.0,0.0,0.0,0.0,0.0,0.0,0.00148485,-0.000320674,-0.501109
53032000,0.00428167,0.0255955,-39.0315,0.0087132,0.0,0.0272924,0.0262774,-2.97931,0.0,0.0,0.0,0.0,0.0,0.0,0.00175663,0.000579729,-0.492752
53124000,0.00427806,0.0256185,-39.301,0.0087132,0.0,0.0282154,0.0257068,-2.96106,0.0,0.0,0.0,0.0,0.0,0.0,0.00249793,0.000707418,-0.48554
53220000,0.00427428,0.0256236,-39.5836,0.0087132,0.0,0.0289589,0.0253422,-2.98047,0.0,0.0,0.0,0.0,0.0,0.0,0.00264099,0.0007112,-0.501106
53312000,0.00427059,0.0256255,-39.8596,0.0087132,0.0,0.0294815,0.0249288,-2.97009,0.0,0.0,0.0,0.0,0.0,0.0,0.00261816,0.000578469,-0.495434
53404000,0.00426689,0.0256243,-40.1356,0.0087132,0.0,0.0297247,0.0244242,-2.95885,0.0,0.0,0.0,0.0,0.0,0.0,0.00202094,0.000219574,-0.487281
53500000,0.00426304,0.0256198,-40.4237,0.0087132,0.0,0.0297895,0.0238758,-2.98321,0.0,0.0,0.0,0.0,0.0,0.0,0.00160197,0.000108369,-0.501539
53592000,0.00425935,0.0256123,-40.6997,0.0087132,0.0,0.0301191,0.02336,-2.97221,0.0,0.0,0.0,0.0,0.0,0.0,0.00127115,-0.000127742,-0.495231
53684000,0.00425566,0.0256018,-40.9758,0.0087132,0.0,0.0305714,0.0229332,-2.96235,0.0,0.0,0.0,0.0,0.0,0.0,0.00167892,0.000263858,-0.489967
53780000,0.0042518,0.0255939,-41.2638,0.0087132,0.0,0.0310661,0.0230553,-2.98864,0.0,0.0,0.0,0.0,0.0,0.0,0.00169328,0.000642787,-0.503853
53872000,0.0042482,0.0256081,-41.5332,0.0087132,0.0,0.0314988,0.0227126,-2.97215,0.0,0.0,0.0,0.0,0.0,0.0,0.00202119,0.000373323,-0.494229
53964000,0.0042446,0.0256222,-41.8025,0.0087132,0.0,0.0320656,0.0216774,-2.95587,0.0,0.0,0.0,0.0,0.0,0.0,0.00179072,-0.000582191,-0.487343
54060000,0.00424083,0.0256369,-42.0836,0.0087132,0.0,0.0325724,0.0205942,-2.97553,0.0,0.0,0.0,0.0,0.0,0.0,0.0015682,-0.00124198,-0.501234
54152000,0.00423723,0.0256511,-42.3531,0.0087132,0.0,0.032895,0.0193918,-2.95965,0.0,0.0,0.0,0.0,0.0,0.0,0.00126111,-0.0018008,-0.492547
54244000,0.00423362,0.0256652,-42.6226,0.0087132,0.0,0.0329665,0.0183479,-2.94475,0.0,0.0,0.0,0.0,0.0,0.0,0.000794618,-0.00131622,-0.487438
54340000,0.00422986,0.02568,-42.9039,0.0087132,0.0,0.0328937,0.0178918,-2.96586,0.0,0.0,0.0,0.0,0.0,0.0,0.00039048,-0.000719115,-0.500886
54432000,0.00422625,0.0256942,-43.1735,0.0087132,0.0,0.0326746,0.0177797,-2.95108,0.0,0.0,0.0,0.0,0.0,0.0,0.000190277,-0.000995848,-0.494124
54524000,0.00422265,0.0257083,-43.4432,0.0087132,0.0,0.0322463,0.0176283,-2.93651,0.0,0.0,0.0,0.0,0.0,0.0,0.000842053,-0.000632188,-0.487846
54620000,0.00421888,0.0257231,-43.7246,0.0087132,0.0,0.0319464,0.0174964,-2.95776,0.0,0.0,0.0,0.0,0.0,0.0,0.000990413,-0.000231504,-0.501126
54712000,0.00421527,0.0257373,-43.9945,0.0087132,0.0,0.0315625,0.0173531,-2.94458,0.0,0.0,0.0,0.0,0.0,0.0,0.0010503,-0.000523305,-0.494849
54804000,0.00421166,0.0257514,-44.2643,0.0087132,0.0,0.0312412,0.0172099,-2.93222,0.0,0.0,0.0,0.0,0.0,0.0,0.000859718,-0.000450846,-0.489267
54900000,0.00420789,0.0257662,-44.546,0.0087132,0.0,0.0309446,0.0168278,-2.95541,0.0,0.0,0.0,0.0,0.0,0.0,0.0007194,-0.00111314,-0.50248
54992000,0.00420428,0.0257804,-44.816,0.0087132,0.0,0.0305469,0.0164448,-2.94386,0.0,0.0,0.0,0.0,0.0,0.0,0.00103432,-0.000122783,-0.495255
55084000,0.00420066,0.0257946,-45.0862,0.0087132,0.0,0.0299776,0.0161051,-2.93149,0.0,0.0,0.0,0.0,0.0,0.0,0.000514923,-0.000874539,-0.489356
55180000,0.00419689,0.0258094,-45.3682,0.0087132,0.0,0.0294386,0.0158834,-2.95371,0.0,0.0,0.0,0.0,0.0,0.0,0.000179408,-0.000935984,-0.501497
55272000,0.00419327,0.0258236,-45.6385,0.0087132,0.0,0.0287895,0.015603,-2.94145,0.0,0.0,0.0,0.0,0.0,0.0,-5.30635e-05,-0.00054237,-0.494324
55364000,0.00418966,0.0258378,-45.909,0.0087132,0.0,0.0280011,0.0156557,-2.92885,0.0,0.0,0.0,0.0,0.0,0.0,-0.000304267,-0.000433029,-0.487813
55460000,0.00420943,0.0258526,-46.1913,0.0087132,0.0,0.0277903,0.0158461,-2.95086,0.0,0.0,0.0,0.0,0.0,0.0,0.000295977,0.000207342,-0.500862
55552000,0.00423663,0.0258668,-46.4619,0.0087132,0.0,0.0271861,0.0161338,-2.93774,0.0,0.0,0.0,0.0,0.0,0.0,0.00035601,-9.92125e-05,-0.494399
55644000,0.00426638,0.025881,-46.7326,0.0087132,0.0,0.0268537,0.0160898,-2.92544,0.0,0.0,0.0,0.0,0.0,0.0,0.000736584,0.000591434,-0.487899
55740000,0.00430015,0.0258958,-47.0151,0.0087132,0.0,0.0266956,0.0160484,-2.94847,0.0,0.0,0.0,0.0,0.0,0.0,0.000999562,0.000419323,-0.502487
55832000,0.00433411,0.02591,-47.2858,0.0087132,0.0,0.026535,0.0164002,-2.93672,0.0,0.0,0.0,0.0,0.0,0.0,0.000788378,0.00073679,-0.495755
55924000,0.00434288,0.0259243,-47.5565,0.0087132,0.0,0.02623,0.0172046,-2.92567,0.0,0.0,0.0,0.0,0.0,0.0,0.000828907,0.000917602,-0.490129
56020000,0.00434844,0.0259391,-47.8389,0.0087132,0.0,0.0261606,0.0181087,-2.94981,0.0,0.0,0.0,0.0,0.0,0.0,0.00141409,0.000584807,-0.504453
56112000,0.0043513,0.0259533,-48.1094,0.0087132,0.0,0.0262067,0.0191285,-2.93838,0.0,0.0,0.0,0.0,0.0,0.0,0.000901618,0.0010195,-0.495586
56204000,0.00435174,0.0259675,-48.3798,0.0087132,0.0,0.0260165,0.0202013,-2.92664,0.0,0.0,0.0,0.0,0.0,0.0,-0.000282489,0.000880924,-0.489374
56300000,0.00434963,0.0259823,-48.662,0.0087132,0.0,0.0254189,0.0209619,-2.95059,0.0,0.0,0.0,0.0,0.0,0.0,-1.95248e-05,0.000419207,-0.504026
56392000,0.00434515,0.0259965,-48.9324,0.0087132,0.0,0.0242468,0.0217314,-2.93947,0.0,0.0,0.0,0.0,0.0,0.0,-0.000758123,0.000259342,-0.494645
56484000,0.00433825,0.0260107,-49.2029,0.0087132,0.0,0.0227537,0.0222993,-2.92817,0.0,0.0,0.0,0.0,0.0,0.0,-0.000661021,-0.000834009,-0.488307
56580000,0.00432846,0.0260255,-49.4853,0.0087132,0.0,0.0213632,0.0223099,-2.95212,0.0,0.0,0.0,0.0,0.0,0.0,-0.000406462,-0.000769091,-0.503754
56672000,0.00433414,0.0260397,-49.7561,0.0087132,0.0,0.020449,0.0223077,-2.94065,0.0,0.0,0.0,0.0,0.0,0.0,0.000463422,-0.000665577,-0.494624
56764000,0.00435247,0.0260539,-50.027,0.0087132,0.0,0.019254,0.0222617,-2.92914,0.0,0.0,0.0,0.0,0.0,0.0,5.13692e-05,0.000375703,-0.489232
56860000,0.00437415,0.0260688,-50.3099,0.0087132,0.0,0.0178939,0.022326,-2.95312,0.0,0.0,0.0,0.0,0.0,0.0,-0.000636501,0.000334917,-0.501707
56952000,0.00439739,0.026083,-50.5812,0.0087132,0.0,0.0163251,0.0221338,-2.94204,0.0,0.0,0.0,0.0,0.0,0.0,1.38203e-05,6.16509e-05,-0.49572
57044000,0.00442304,0.0260973,-50.8526,0.0087132,0.0,0.0146058,0.0219853,-2.93156,0.0,0.0,0.0,0.0,0.0,0.0,-0.000244532,0.000359136,-0.490457
57140000,0.00445238,0.0261122,-51.1361,0.0087132,0.0,0.0130799,0.0218952,-2.95647,0.0,0.0,0.0,0.0,0.0,0.0,-0.000192155,0.000563906,-0.503844
57232000,0.0044653,0.0261264,-51.4079,0.0087132,0.0,0.011398,0.0219641,-2.94557,0.0,0.0,0.0,0.0,0.0,0.0,-9.98267e-05,0.000684822,-0.496785
57324000,0.00446583,0.0261407,-51.6797,0.0087132,0.0,0.0100451,0.022062,-2.93508,0.0,0.0,0.0,0.0,0.0,0.0,-0.000416406,-0.000261568,-0.490704
57420000,0.00446428,0.0261556,-51.9635,0.0087132,0.0,0.00895902,0.0220897,-2.9597,0.0,0.0,0.0,0.0,0.0,0.0,2.36885e-05,-0.00016388,-0.503111
57512000,0.00446078,0.0261699,-52.2355,0.0087132,0.0,0.00802199,0.0219076,-2.94927,0.0,0.0,0.0,0.0,0.0,0.0,5.43034e-05,-0.00108631,-0.496835
57604000,0.00445531,0.0261842,-52.5076,0.0087132,0.0,0.00733505,0.0215202,-2.93892,0.0,0.0,0.0,0.0,0.0,0.0,6.45955e-05,-0.000553622,-0.490295
57700000,0.00444749,0.0261991,-52.7916,0.0087132,0.0,0.00674539,0.0211291,-2.96342,0.0,0.0,0.0,0.0,0.0,0.0,-0.000866225,-0.00105194,-0.504057
57792000,0.00443799,0.0262134,-53.0639,0.0087132,0.0,0.00589708,0.020579,-2.95236,0.0,0.0,0.0,0.0,0.0,0.0,-0.0010622,-0.000699448,-0.49663
57884000,0.0044265,0.0262277,-53.3364,0.0087132,0.0,0.00518168,0.0201416,-2.94156,0.0,0.0,0.0,0.0,0.0,0.0,-0.000219665,-0.00055286,-0.489495
57980000,0.00441241,0.0262426,-53.6207,0.0087132,0.0,0.00457741,0.0198827,-2.96599,0.0,0.0,0.0,0.0,0.0,0.0,1.8345e-05,-0.000413503,-0.502987
58072000,0.00439791,0.0262569,-53.8933,0.0087132,0.0,0.00417682,0.0196559,-2.9546,0.0,0.0,0.0,0.0,0.0,0.0,-6.61466e-05,-0.000134879,-0.494795
58164000,0.00440915,0.0262712,-54.166,0.0087132,0.0,0.00371947,0.0192979,-2.94387,0.0,0.0,0.0,0.0,0.0,0.0,0.000562947,-0.000548402,-0.490873
58260000,0.00442364,0.0262862,-54.4505,0.0087132,0.0,0.0035394,0.018935,-2.96889,0.0,0.0,0.0,0.0,0.0,0.0,0.000420769,-0.000721154,-0.504652
58352000,0.00443915,0.0263005,-54.7233,0.0087132,0.0,0.00328008,0.0184279,-2.95807,0.0,0.0,0.0,0.0,0.0,0.0,2.68172e-06,-0.000791014,-0.497332
58444000,0.00445631,0.0263036,-54.9968,0.0087132,0.0,0.00315198,0.0176042,-2.94806,0.0,0.0,0.0,0.0,0.0,0.0,-0.000101331,-0.000496686,-0.491229
58540000,0.00447613,0.0262874,-55.2848,0.0087132,0.0,0.00292919,0.0171787,-2.97622,0.0,0.0,0.0,0.0,0.0,0.0,-0.000290263,-0.000251983,-0.505589
58632000,0.00449679,0.0262703,-55.5609,0.0087132,0.0,0.00244471,0.0169233,-2.96807,0.0,0.0,0.0,0.0,0.0,0.0,-0.000190315,-0.000651915,-0.498259
58724000,0.00451909,0.0262518,-55.8369,0.0087132,0.0,0.00180278,0.0165877,-2.95886,0.0,0.0,0.0,0.0,0.0,0.0,-0.000695784,-0.000976622,-0.489545
58820000,0.00453769,0.0262308,-56.125,0.0087132,0.0,0.000723926,0.0160528,-2.98489,0.0,0.0,0.0,0.0,0.0,0.0,-0.000984428,-0.00106641,-0.502979
58912000,0.0045329,0.0262091,-56.401,0.0087132,0.0,-0.000168891,0.0153232,-2.97474,0.0,0.0,0.0,0.0,0.0,0.0,-0.00108807,-0.000646745,-0.495862
59004000,0.00452811,0.0261859,-56.677,0.0087132,0.0,-0.00130352,0.0144688,-2.96444,0.0,0.0,0.0,0.0,0.0,0.0,-0.00119598,-0.00128116,-0.489531
59100000,0.0045231,0.0261601,-56.9651,0.0087132,0.0,-0.0025102,0.0133904,-2.98997,0.0,0.0,0.0,0.0,0.0,0.0,-0.0007546,-0.00113254,-0.504007
59192000,0.00451831,0.0261338,-57.2411,0.0087132,0.0,-0.00384097,0.0120181,-2.97926,0.0,0.0,0.0,0.0,0.0,0.0,-0.00100172,-0.00170998,-0.495802
59284000,0.00451352,0.0261059,-57.5172,0.0087132,0.0,-0.00524629,0.0106254,-2.96851,0.0,0.0,0.0,0.0,0.0,0.0,-0.00132061,-0.00124326,-0.489791
59380000,0.00450852,0.0260753,-57.8052,0.0087132,0.0,-0.00633781,0.00964487,-2.99345,0.0,0.0,0.0,0.0,0.0,0.0,-0.0011866,-0.00157225,-0.502999
59472000,0.00450374,0.0260625,-58.0805,0.0087132,0.0,-0.00751638,0.00926804,-2.98142,0.0,0.0,0.0,0.0,0.0,0.0,-0.00108914,-0.00157846,-0.494775
59564000,0.00449899,0.026061,-58.3544,0.0087132,0.0,-0.008453,0.00872799,-2.96836,0.0,0.0,0.0,0.0,0.0,0.0,-0.000585218,-0.00190636,-0.488749
59660000,0.00449403,0.0260595,-58.6403,0.0087132,0.0,-0.00915301,0.00811482,-2.9914,0.0,0.0,0.0,0.0,0.0,0.0,-0.000634293,-0.00176945,-0.501864
59752000,0.00448927,0.026058,-58.9142,0.0087132,0.0,-0.00953472,0.00741804,-2.97919,0.0,0.0,0.0,0.0,0.0,0.0,-3.3785e-05,-0.00149166,-0.49421
59844000,0.00448451,0.0260565,-59.1882,0.0087132,0.0,-0.00966182,0.00664168,-2.96767,0.0,0.0,0.0,0.0,0.0,0.0,0.000238741,-0.00149649,-0.490442
59940000,0.00447955,0.026055,-59.4742,0.0087132,0.0,-0.0097611,0.00582603,-2.99182,0.0,0.0,0.0,0.0,0.0,0.0,0.000237381,-0.00173286,-0.502849
60032000,0.00447479,0.0260535,-59.7483,0.0087132,0.0,-0.00981673,0.00476701,-2.9798,0.0,0.0,0.0,0.0,0.0,0.0,-0.000444456,-0.00228738,-0.495214
60124000,0.00447003,0.026052,-60.0225,0.0087132,0.0,-0.00997633,0.00338997,-2.96753,0.0,0.0,0.0,0.0,0.0,0.0,-2.1651e-05,-0.0023948,-0.489397
60220000,0.00446506,0.0260505,-60.3081,0.0087132,0.0,-0.0101227,0.00212825,-2.968,0.0,0.0,0.0,0.0,0.0,0.0,0.000579292,-0.00205823,-0.489952
60312000,0.0044603,0.026049,-60.5773,0.0087132,0.0,-0.0102483,0.0010188,-2.88397,0.0,0.0,0.0,0.0,0.0,0.0,-0.000517913,-0.00197881,-0.458135
60404000,0.00445554,0.0260476,-60.8396,0.0087132,0.0,-0.0103534,0.000379823,-2.78852,0.0,0.0,0.0,0.0,0.0,0.0,-0.000338232,-0.00219067,-0.445189
60500000,0.00445057,0.026046,-61.1057,0.0087132,0.0,-0.0102496,9.5408e-05,-2.72378,0.0,0.0,0.0,0.0,0.0,0.0,-0.000258155,-0.0015744,-0.453304
60592000,0.00444581,0.0260445,-61.3534,0.0087132,0.0,-0.00999474,-0.000112697,-2.62904,0.0,0.0,0.0,0.0,0.0,0.0,-0.000851028,-0.000685816,-0.447859
60684000,0.00444105,0.0260431,-61.5943,0.0087132,0.0,-0.00964031,-0.000270535,-2.54011,0.0,0.0,0.0,0.0,0.0,0.0,0.000323632,-0.000732437,-0.446443
60780000,0.00443608,0.0260415,-61.8384,0.0087132,0.0,-0.00938604,-0.000177426,-2.48045,0.0,0.0,0.0,0.0,0.0,0.0,0.00109325,-0.000226653,-0.455395
60872000,0.00443131,0.02604,-62.0659,0.0087132,0.0,-0.00876027,0.000229246,-2.39746,0.0,0.0,0.0,0.0,0.0,0.0,0.000637686,-0.000130346,-0.451742
60964000,0.00442654,0.0260386,-62.2872,0.0087132,0.0,-0.0080167,0.000962709,-2.31671,0.0,0.0,0.0,0.0,0.0,0.0,0.00072845,0.000195981,-0.449718
61060000,0.00442157,0.026037,-62.5117,0.0087132,0.0,-0.00736286,0.00172625,-2.26243,0.0,0.0,0.0,0.0,0.0,0.0,0.00058759,0.000650037,-0.457321
61152000,0.0044168,0.0260356,-62.7207,0.0087132,0.0,-0.00669656,0.00265066,-2.18473,0.0,0.0,0.0,0.0,0.0,0.0,0.00113908,0.000754784,-0.453801
61244000,0.00441203,0.0260341,-62.9237,0.0087132,0.0,-0.00605102,0.00358605,-2.11032,0.0,0.0,0.0,0.0,0.0,0.0,0.000834016,0.000528179,-0.45119
61340000,0.00440705,0.0260325,-63.1295,0.0087132,0.0,-0.00574834,0.00436097,-2.05951,0.0,0.0,0.0,0.0,0.0,0.0,0.000501808,0.00106013,-0.458892
61432000,0.00440228,0.0260311,-63.3209,0.0087132,0.0,-0.00571807,0.00498177,-1.99044,0.0,0.0,0.0,0.0,0.0,0.0,-0.000345667,0.000583962,-0.457367
61524000,0.00439751,0.0260296,-63.5069,0.0087132,0.0,-0.00568455,0.00545722,-1.9255,0.0,0.0,0.0,0.0,0.0,0.0,-0.000326225,0.00025657,-0.457035
61620000,0.00439254,0.026028,-63.6953,0.0087132,0.0,-0.00550436,0.00591448,-1.88151,0.0,0.0,0.0,0.0,0.0,0.0,-0.00022387,-0.000326949,-0.46243
61712000,0.00438777,0.0260266,-63.8707,0.0087132,0.0,-0.00517089,0.00628714,-1.82078,0.0,0.0,0.0,0.0,0.0,0.0,-0.000750536,-0.00106663,-0.46179
61804000,0.004383,0.0260251,-64.0411,0.0087132,0.0,-0.00485732,0.00644298,-1.76327,0.0,0.0,0.0,0.0,0.0,0.0,6.85548e-05,-0.000556383,-0.46142
61900000,0.00437802,0.0260235,-64.2139,0.0087132,0.0,-0.0045332,0.00659568,-1.72523,0.0,0.0,0.0,0.0,0.0,0.0,-0.000470052,-0.000887562,-0.467484
61992000,0.00437326,0.0260221,-64.3747,0.0087132,0.0,-0.00425816,0.00668668,-1.67183,0.0,0.0,0.0,0.0,0.0,0.0,-0.000261185,-0.000992073,-0.465625
62084000,0.00436849,0.0260206,-64.531,0.0087132,0.0,-0.00435551,0.00673499,-1.62015,0.0,0.0,0.0,0.0,0.0,0.0,0.000174069,-0.000549623,-0.465056
62180000,0.00436351,0.0260191,-64.6895,0.0087132,0.0,-0.00466697,0.00666311,-1.58733,0.0,0.0,0.0,0.0,0.0,0.0,-0.000359713,-0.000455389,-0.471256
62272000,0.00435874,0.0260176,-64.8371,0.0087132,0.0,-0.00501613,0.0064718,-1.53846,0.0,0.0,0.0,0.0,0.0,0.0,8.48533e-05,-0.000277609,-0.467808
62364000,0.00435397,0.0260161,-64.9804,0.0087132,0.0,-0.00514308,0.00598451,-1.48981,0.0,0.0,0.0,0.0,0.0,0.0,-2.9393e-05,-0.00115623,-0.465593
62460000,0.004349,0.0260146,-65.1257,0.0087132,0.0,-0.00515315,0.00554909,-1.45867,0.0,0.0,0.0,0.0,0.0,0.0,-0.000386304,-0.00113769,-0.471916
62552000,0.00434423,0.0260131,-65.2609,0.0087132,0.0,-0.00515165,0.00505332,-1.41285,0.0,0.0,0.0,0.0,0.0,0.0,-0.000461583,-0.00127434,-0.469369
62644000,0.00433946,0.0260116,-65.3923,0.0087132,0.0,-0.00532078,0.0045503,-1.36852,0.0,0.0,0.0,0.0,0.0,0.0,-4.18054e-05,-0.00131092,-0.469
62740000,0.00433448,0.0260101,-65.5255,0.0087132,0.0,-0.00541115,0.00435396,-1.34104,0.0,0.0,0.0,0.0,0.0,0.0,-0.000412418,-0.00103629,-0.473873
62832000,0.00432971,0.0260086,-65.6493,0.0087132,0.0,-0.00546645,0.00447302,-1.29751,0.0,0.0,0.0,0.0,0.0,0.0,1.82117e-05,-0.000754498,-0.470827
62924000,0.00432494,0.0260071,-65.7697,0.0087132,0.0,-0.00558757,0.00488211,-1.25918,0.0,0.0,0.0,0.0,0.0,0.0,-0.000171345,-0.000696355,-0.470822
63020000,0.00431996,0.0260056,-65.8916,0.0087132,0.0,-0.00551628,0.00536786,-1.23399,0.0,0.0,0.0,0.0,0.0,0.0,-0.000152477,-0.000389923,-0.475249
63112000,0.00431519,0.0260041,-66.0053,0.0087132,0.0,-0.005284,0.00596398,-1.19791,0.0,0.0,0.0,0.0,0.0,0.0,-0.000298394,-1.4675e-05,-0.4748
63204000,0.00431043,0.0260026,-66.1157,0.0087132,0.0,-0.00510274,0.00644712,-1.16197,0.0,0.0,0.0,0.0,0.0,0.0,-0.000223594,-0.000990802,-0.473852
63300000,0.00430545,0.0260011,-66.2276,0.0087132,0.0,-0.00493527,0.00662505,-1.13954,0.0,0.0,0.0,0.0,0.0,0.0,-3.54985e-05,-0.00119589,-0.478688
63392000,0.00430068,0.0259996,-66.3319,0.0087132,0.0,-0.0047674,0.00667124,-1.10627,0.0,0.0,0.0,0.0,0.0,0.0,-0.000461156,-0.00114433,-0.475787
63484000,0.00429592,0.0259981,-66.4332,0.0087132,0.0,-0.00468637,0.0065781,-1.07205,0.0,0.0,0.0,0.0,0.0,0.0,-0.000609019,-0.000881929,-0.474688
63580000,0.00429094,0.0259966,-66.5359,0.0087132,0.0,-0.00466323,0.00655719,-1.0484,0.0,0.0,0.0,0.0,0.0,0.0,-0.000585696,-0.00120033,-0.476069
63672000,0.00428617,0.0259951,-66.6315,0.0087132,0.0,-0.0044749,0.00656828,-1.01754,0.0,0.0,0.0,0.0,0.0,0.0,-0.0002727,-0.00101536,-0.477188
63764000,0.0042814,0.0259936,-66.7245,0.0087132,0.0,-0.0040378,0.00669843,-0.987757,0.0,0.0,0.0,0.0,0.0,0.0,0.000452021,-0.00121956,-0.476029
63860000,0.00427643,0.0259921,-66.819,0.0087132,0.0,-0.00344086,0.00646745,-0.966424,0.0,0.0,0.0,0.0,0.0,0.0,-0.000183455,-0.00095542,-0.4771
63952000,0.00427166,0.0259906,-66.9069,0.0087132,0.0,-0.00319676,0.00601065,-0.937878,0.0,0.0,0.0,0.0,0.0,0.0,-9.40002e-05,-0.00108607,-0.478059
64044000,0.00426688,0.0259891,-66.9924,0.0087132,0.0,-0.00325871,0.0055217,-0.91025,0.0,0.0,0.0,0.0,0.0,0.0,0.000208714,-0.00125477,-0.475757
64140000,0.0042619,0.0259876,-67.0792,0.0087132,0.0,-0.00348963,0.0051669,-0.8904,0.0,0.0,0.0,0.0,0.0,0.0,-0.000343782,-0.00147662,-0.478057
64232000,0.00425713,0.0259861,-67.16,0.0087132,0.0,-0.00407004,0.00487924,-0.862382,0.0,0.0,0.0,0.0,0.0,0.0,-0.000461207,-0.00145508,-0.476571
64324000,0.00425236,0.0259846,-67.2386,0.0087132,0.0,-0.00458023,0.00464188,-0.835685,0.0,0.0,0.0,0.0,0.0,0.0,-0.000149179,-0.00137373,-0.477858
64420000,0.00424738,0.0259831,-67.3181,0.0087132,0.0,-0.00488234,0.00427349,-0.81707,0.0,0.0,0.0,0.0,0.0,0.0,-0.000888788,-0.00150353,-0.479736
64512000,0.00424261,0.0259816,-67.3922,0.0087132,0.0,-0.00524215,0.00364961,-0.791807,0.0,0.0,0.0,0.0,0.0,0.0,-0.00121333,-0.00154415,-0.477717
64604000,0.00423783,0.0259801,-67.4642,0.0087132,0.0,-0.00551031,0.0030555,-0.764863,0.0,0.0,0.0,0.0,0.0,0.0,-0.00114808,-0.00187087,-0.475976
64700000,0.00423285,0.0259786,-67.5371,0.0087132,0.0,-0.00565978,0.00244325,-0.748017,0.0,0.0,0.0,0.0,0.0,0.0,-0.000403794,-0.00190778,-0.479908
64792000,0.00422808,0.0259771,-67.6051,0.0087132,0.0,-0.00552754,0.00185544,-0.726265,0.0,0.0,0.0,0.0,0.0,0.0,-7.0487e-05,-0.00148796,-0.480358
64884000,0.0042233,0.0259756,-67.6713,0.0087132,0.0,-0.00518086,0.00135333,-0.704063,0.0,0.0,0.0,0.0,0.0,0.0,6.90393e-05,-0.000927357,-0.479674
64980000,0.00421832,0.0259741,-67.7384,0.0087132,0.0,-0.00510569,0.000584959,-0.689601,0.0,0.0,0.0,0.0,0.0,0.0,-0.000367029,-0.000831899,-0.482274
65072000,0.00421354,0.0259726,-67.8008,0.0087132,0.0,-0.0054532,-0.000620359,-0.667595,0.0,0.0,0.0,0.0,0.0,0.0,-0.000750614,-0.00167457,-0.481171
65164000,0.00420877,0.0259711,-67.8614,0.0087132,0.0,-0.00623474,-0.00218405,-0.648702,0.0,0.0,0.0,0.0,0.0,0.0,-0.000758936,-0.00203907,-0.481157
65260000,0.00420379,0.0259696,-67.923,0.0087132,0.0,-0.00676822,-0.00399083,-0.636379,0.0,0.0,0.0,0.0,0.0,0.0,-0.000645341,-0.00265048,-0.482889
65352000,0.00419903,0.0259681,-67.9802,0.0087132,0.0,-0.00684788,-0.00592911,-0.615522,0.0,0.0,0.0,0.0,0.0,0.0,5.86155e-05,-0.00303674,-0.481294
65444000,0.00419426,0.0259666,-68.0358,0.0087132,0.0,-0.0065762,-0.00784608,-0.597248,0.0,0.0,0.0,0.0,0.0,0.0,9.98856e-06,-0.00280152,-0.480484
65540000,0.0041893,0.0259651,-68.0922,0.0087132,0.0,-0.00603961,-0.00970195,-0.584195,0.0,0.0,0.0,0.0,0.0,0.0,0.000270011,-0.0031278,-0.482296
65632000,0.00418454,0.0259636,-68.1447,0.0087132,0.0,-0.00529197,-0.011843,-0.567009,0.0,0.0,0.0,0.0,0.0,0.0,0.000663599,-0.00293525,-0.482256
65724000,0.00417979,0.0259621,-68.1956,0.0087132,0.0,-0.00452509,-0.0139779,-0.550985,0.0,0.0,0.0,0.0,0.0,0.0,0.000780095,-0.00346214,-0.482026
65820000,0.00417484,0.0259606,-68.2471,0.0087132,0.0,-0.00378263,-0.0159882,-0.540445,0.0,0.0,0.0,0.0,0.0,0.0,0.000996799,-0.0035073,-0.484459
65912000,0.0041701,0.0259591,-68.2951,0.0087132,0.0,-0.00303132,-0.0179589,-0.526649,0.0,0.0,0.0,0.0,0.0,0.0,0.000134262,-0.00332783,-0.484809
66004000,0.00416537,0.0259577,-68.3418,0.0087132,0.0,-0.00223195,-0.0194397,-0.511314,0.0,0.0,0.0,0.0,0.0,0.0,0.000392628,-0.00268761,-0.482724
66100000,0.00416043,0.0259561,-68.3891,0.0087132,0.0,-0.00150704,-0.0203028,-0.501073,0.0,0.0,0.0,0.0,0.0,0.0,0.000420346,-0.00198843,-0.484629
66192000,0.0041557,0.0259547,-68.4331,0.0087132,0.0,-0.000783607,-0.0209729,-0.484907,0.0,0.0,0.0,0.0,0.0,0.0,0.000156956,-0.00228757,-0.482905
66284000,0.00415097,0.0259532,-68.4758,0.0087132,0.0,-0.000131911,-0.021679,-0.469716,0.0,0.0,0.0,0.0,0.0,0.0,0.000399236,-0.0024816,-0.482062
66380000,0.00415219,0.0259517,-68.5192,0.0087132,0.0,0.000937985,-0.0223052,-0.461342,0.0,0.0,0.0,0.0,0.0,0.0,0.000446286,-0.00230836,-0.484582
66472000,0.00417679,0.0259502,-68.5595,0.0087132,0.0,0.00185403,-0.0231617,-0.447594,0.0,0.0,0.0,0.0,0.0,0.0,0.000911243,-0.00196399,-0.484768
66564000,0.00420318,0.0259487,-68.5987,0.0087132,0.0,0.00258096,-0.0239848,-0.434029,0.0,0.0,0.0,0.0,0.0,0.0,0.000175617,-0.00280633,-0.483134
66660000,0.00423262,0.0259472,-68.6385,0.0087132,0.0,0.00322955,-0.024867,-0.427091,0.0,0.0,0.0,0.0,0.0,0.0,0.000514076,-0.00213599,-0.486516
66752000,0.00426267,0.0259458,-68.6756,0.0087132,0.0,0.00391061,-0.0259322,-0.414821,0.0,0.0,0.0,0.0,0.0,0.0,0.000111897,-0.00234753,-0.485093
66844000,0.00429449,0.0259443,-68.7117,0.0087132,0.0,0.0042484,-0.0270572,-0.402193,0.0,0.0,0.0,0.0,0.0,0.0,-3.21691e-05,-0.00290939,-0.483972
66940000,0.00432958,0.0259428,-68.7481,0.0087132,0.0,0.00449456,-0.0281916,-0.393418,0.0,0.0,0.0,0.0,0.0,0.0,-0.000183071,-0.00304538,-0.484942
67032000,0.00434755,0.0259413,-68.782,0.0087132,0.0,0.00429531,-0.0292007,-0.382408,0.0,0.0,0.0,0.0,0.0,0.0,0.000132415,-0.00315059,-0.485457
67124000,0.00435282,0.0259399,-68.815,0.0087132,0.0,0.0044617,-0.0298738,-0.371141,0.0,0.0,0.0,0.0,0.0,0.0,0.000269348,-0.00355586,-0.484894
67220000,0.00435588,0.0259383,-68.8485,0.0087132,0.0,0.00455943,-0.0306381,-0.361217,0.0,0.0,0.0,0.0,0.0,0.0,-2.97626e-05,-0.0035158,-0.48485
67312000,0.00435646,0.0259369,-68.8796,0.0087132,0.0,0.00444314,-0.0316096,-0.351697,0.0,0.0,0.0,0.0,0.0,0.0,-0.000186543,-0.00319945,-0.485224
67404000,0.00435476,0.0259354,-68.9099,0.0087132,0.0,0.00431609,-0.0325546,-0.341211,0.0,0.0,0.0,0.0,0.0,0.0,3.0779e-05,-0.00284255,-0.486037
67500000,0.00435054,0.0259339,-68.9407,0.0087132,0.0,0.00429384,-0.0333605,-0.334111,0.0,0.0,0.0,0.0,0.0,0.0,3.6276e-05,-0.00241886,-0.486957
67592000,0.00434417,0.0259325,-68.9693,0.0087132,0.0,0.0042564,-0.0342939,-0.323657,0.0,0.0,0.0,0.0,0.0,0.0,0.000558086,-0.00224878,-0.486445
67684000,0.00433552,0.025931,-68.9971,0.0087132,0.0,0.00442829,-0.0349945,-0.313605,0.0,0.0,0.0,0.0,0.0,0.0,0.000461818,-0.00257193,-0.485786
67780000,0.00433023,0.0259295,-69.0256,0.0087132,0.0,0.00516138,-0.0356789,-0.30771,0.0,0.0,0.0,0.0,0.0,0.0,6.52559e-05,-0.00303268,-0.485876
67872000,0.00434848,0.025928,-69.0518,0.0087132,0.0,0.00554501,-0.0363741,-0.297463,0.0,0.0,0.0,0.0,0.0,0.0,-0.000185319,-0.00303084,-0.485634
67964000,0.00436958,0.0259266,-69.0774,0.0087132,0.0,0.00587457,-0.0371021,-0.288528,0.0,0.0,0.0,0.0,0.0,0.0,0.000641228,-0.00274539,-0.484985
68060000,0.00439463,0.0259251,-69.1033,0.0087132,0.0,0.00622491,-0.0376577,-0.280749,0.0,0.0,0.0,0.0,0.0,0.0,0.000640603,-0.00251117,-0.485088
68152000,0.00442155,0.0259236,-69.1275,0.0087132,0.0,0.0062823,-0.0377433,-0.271955,0.0,0.0,0.0,0.0,0.0,0.0,0.000186778,-0.00168826,-0.485111
68244000,0.00444036,0.0259222,-69.151,0.0087132,0.0,0.00553551,-0.0377985,-0.263363,0.0,0.0,0.0,0.0,0.0,0.0,0.000131986,-0.00222569,-0.485964
68340000,0.00444104,0.0259207,-69.1749,0.0087132,0.0,0.00492825,-0.0379982,-0.258002,0.0,0.0,0.0,0.0,0.0,0.0,-9.72866e-05,-0.00231976,-0.487542
68432000,0.00443868,0.0259192,-69.1972,0.0087132,0.0,0.00409292,-0.0382758,-0.249551,0.0,0.0,0.0,0.0,0.0,0.0,-0.000688745,-0.00288719,-0.485609
68524000,0.00443338,0.0259178,-69.2188,0.00865414,0.0,0.00304352,-0.0385714,-0.24097,0.0,0.0,0.0,0.0,0.0,0.0,-0.00168255,-0.00295202,-0.485306
68620000,0.00442471,0.0259163,-69.2408,0.00865414,0.0,0.00187788,-0.0389465,-0.234112,0.0,0.0,0.0,0.0,0.0,0.0,-0.00123311,-0.00245327,-0.485353
68712000,0.00441341,0.0259148,-69.2612,0.00865414,0.0,0.000650483,-0.0391413,-0.226746,0.0,0.0,0.0,0.0,0.0,0.0,-0.000859286,-0.00209001,-0.486239
68804000,0.00439917,0.0259134,-69.2811,0.00865414,0.0,-0.0002302,-0.0390531,-0.221487,0.0,0.0,0.0,0.0,0.0,0.0,-0.000390346,-0.00208342,-0.488152
68900000,0.00438117,0.0259119,-69.3013,0.00865414,0.0,-0.000723163,-0.0385905,-0.21686,0.0,0.0,0.0,0.0,0.0,0.0,-0.00091517,-0.00212064,-0.487992
68992000,0.00437832,0.0259104,-69.3202,0.00865414,0.0,-0.00112609,-0.0380455,-0.209353,0.0,0.0,0.0,0.0,0.0,0.0,-0.00121724,-0.00292784,-0.487185
69084000,0.00438838,0.025909,-69.3385,0.00865414,0.0,-0.00221122,-0.0374449,-0.204534,0.0,0.0,0.0,0.0,0.0,0.0,-0.00172307,-0.00252879,-0.487525
69180000,0.00440202,0.0259074,-69.3571,0.00865414,0.0,-0.00334273,-0.0366906,-0.19971,0.0,0.0,0.0,0.0,0.0,0.0,-0.0020001,-0.00216528,-0.487677
69272000,0.00441851,0.025906,-69.3749,0.00865414,0.0,-0.00456759,-0.035576,-0.194539,0.0,0.0,0.0,0.0,0.0,0.0,-0.00191052,-0.00163979,-0.487706
69364000,0.00443809,0.0259045,-69.3921,0.00865414,0.0,-0.00588145,-0.0345276,-0.189444,0.0,0.0,0.0,0.0,0.0,0.0,-0.000978767,-0.00158992,-0.488781
69460000,0.0044618,0.0259029,-69.4096,0.00865414,0.0,-0.00701709,-0.0333995,-0.185289,0.0,0.0,0.0,0.0,0.0,0.0,-0.00139758,-0.00142389,-0.487907
69552000,0.0044694,0.0259015,-69.4258,0.00865414,0.0,-0.00877425,-0.0321965,-0.179319,0.0,0.0,0.0,0.0,0.0,0.0,-0.00199451,-0.0015742,-0.48798
69644000,0.00446591,0.0259,-69.4412,0.00865414,0.0,-0.0101486,-0.0310236,-0.173809,0.0,0.0,0.0,0.0,0.0,0.0,-0.00188939,-0.00133923,-0.486843
69740000,0.00446227,0.0258985,-69.457,0.00865414,0.0,-0.0113435,-0.0298883,-0.169035,0.0,0.0,0.0,0.0,0.0,0.0,-0.00167419,-0.00145953,-0.4881
69832000,0.00445878,0.025897,-69.4717,0.00865414,0.0,-0.0122628,-0.0286568,-0.164431,0.0,0.0,0.0,0.0,0.0,0.0,-0.00130137,-0.00152714,-0.487654
69924000,0.00445529,0.0258956,-69.4859,0.00865414,0.0,-0.0130797,-0.0275075,-0.160331,0.0,0.0,0.0,0.0,0.0,0.0,-0.00141707,-0.00205272,-0.487943
70020000,0.00445165,0.025894,-69.5004,0.00865414,0.0,-0.0140233,-0.0265369,-0.157211,0.0,0.0,0.0,0.0,0.0,0.0,-0.00185587,-0.00194041,-0.488483
70112000,0.00444815,0.0258926,-69.514,0.00865414,0.0,-0.0150345,-0.025446,-0.153266,0.0,0.0,0.0,0.0,0.0,0.0,-0.00148586,-0.00129895,-0.48906
70204000,0.00444466,0.0258911,-69.5271,0.00865414,0.0,-0.0158664,-0.0243192,-0.147888,0.0,0.0,0.0,0.0,0.0,0.0,-0.00132431,-0.00136219,-0.486905
70300000,0.00444101,0.0258896,-69.5404,0.00865414,0.0,-0.0165195,-0.0232665,-0.142808,0.0,0.0,0.0,0.0,0.0,0.0,-0.00184924,-0.00144671,-0.486656
70392000,0.00443751,0.0258882,-69.5528,0.00865414,0.0,-0.0173104,-0.022025,-0.139585,0.0,0.0,0.0,0.0,0.0,0.0,-0.00198633,-0.00156166,-0.488862
70484000,0.00443401,0.0258867,-69.565,0.00865414,0.0,-0.018089,-0.0204086,-0.133933,0.0,0.0,0.0,0.0,0.0,0.0,-0.00154817,-0.00066059,-0.487216
70580000,0.00443036,0.0258852,-69.5772,0.00865414,0.0,-0.0189171,-0.0186253,-0.129473,0.0,0.0,0.0,0.0,0.0,0.0,-0.00182757,-0.0001405,-0.486893
70672000,0.00442686,0.0258837,-69.5887,0.00865414,0.0,-0.0196558,-0.0165083,-0.127487,0.0,0.0,0.0,0.0,0.0,0.0,-0.00183509,-0.000149433,-0.489167
70764000,0.00442335,0.0258823,-69.5998,0.00865414,0.0,-0.0205489,-0.0144361,-0.12355,0.0,0.0,0.0,0.0,0.0,0.0,-0.0016577,0.000100131,-0.48888
70860000,0.0044197,0.0258807,-69.6112,0.00865414,0.0,-0.0215589,-0.0129093,-0.123103,0.0,0.0,0.0,0.0,0.0,0.0,-0.00140959,-0.000508267,-0.490252
70952000,0.00441619,0.0258793,-69.6218,0.00865414,0.0,-0.0228657,-0.0111748,-0.119458,0.0,0.0,0.0,0.0,0.0,0.0,-0.00200431,-0.000448466,-0.488869
71044000,0.00441269,0.0258778,-69.632,0.00865414,0.0,-0.0240209,-0.00940438,-0.118532,0.0,0.0,0.0,0.0,0.0,0.0,-0.00211733,-0.00103954,-0.490749
71140000,0.00440904,0.0258763,-69.6424,0.00865414,0.0,-0.024948,-0.00792297,-0.117144,0.0,0.0,0.0,0.0,0.0,0.0,-0.00278943,-0.000692619,-0.490663
71232000,0.00440553,0.0258748,-69.6522,0.00865414,0.0,-0.0257283,-0.00621788,-0.113468,0.0,0.0,0.0,0.0,0.0,0.0,-0.00202053,-0.000400534,-0.489509
71324000,0.00440203,0.0258734,-69.6615,0.00865414,0.0,-0.02602,-0.00440888,-0.113078,0.0,0.0,0.0,0.0,0.0,0.0,-0.00123286,-0.000210389,-0.49051
71420000,0.00439838,0.0258719,-69.6711,0.00865414,0.0,-0.0256801,-0.00257401,-0.11276,0.0,0.0,0.0,0.0,0.0,0.0,-0.000319879,-0.000396969,-0.491351
71512000,0.00439487,0.0258704,-69.6801,0.00865414,0.0,-0.0249579,-0.000429964,-0.109909,0.0,0.0,0.0,0.0,0.0,0.0,-8.18194e-05,2.47626e-05,-0.489465
71604000,0.0352469,0.0254587,-39.6705,0.0,0.0,0.000357538,0.00160329,1.0,0.0,0.0,0.0,0.0,0.0,0.0,0.00430794,-0.000220365,-0.12
71700000,0.0352469,0.0254587,-39.6705,0.0,0.0,0.000701731,0.00383574,1.0,0.0,0.0,0.0,0.0,0.0,0.0,0.00294354,1.05822e-07,-0.201356
71792000,0.0352469,0.0254587,-39.6705,0.0,0.0,0.000508595,0.00639914,1.0,0.0,0.0,0.0,0.0,0.0,0.0,-3.61344e-06,0.000803532,-0.468989
71884000,0.0352469,0.0254587,-39.6705,0.0,0.0,-0.000445932,0.00888558,1.0,0.0,0.0,0.0,0.0,0.0,0.0,-0.00300301,0.00108577,-0.490066
71980000,0.0352469,0.0254587,-39.6705,0.0,0.0,-0.00208167,0.0110023,1.0,0.0,0.0,0.0,0.0,0.0,0.0,-0.00291099,0.000978087,-0.488667
72072000,0.0352469,0.0254587,-39.6705,0.0,0.0,-0.00380362,0.0127483,1.0,0.0,0.0,0.0,0.0,0.0,0.0,-0.00242111,-0.000101316,-0.487074
72164000,0.0352469,0.0254587,-39.6705,0.0,0.0,-0.0051416,0.014388,1.0,0.0,0.0,0.0,0.0,0.0,0.0,-0.0019448,-0.000117802,-0.48873
72260000,0.0352469,0.0254587,-39.6705,0.0,0.0,-0.00624921,0.0156404,1.0,0.0,0.0,0.0,0.0,0.0,0.0,-0.00180413,0.000162365,-0.488725
72352000,0.0352469,0.0254587,-39.6705,0.0,0.0,-0.00708711,0.0169298,1.0,0.0,0.0,0.0,0.0,0.0,0.0,-0.00143303,0.000129748,-0.488485
72444000,0.0352469,0.0254587,-39.6705,0.0,0.0,-0.00755604,0.0184621,1.0,0.0,0.0,0.0,0.0,0.0,0.0,-0.000836657,7.2387e-07,-0.489197
72540000,0.0352469,0.0254587,-39.6705,0.0,0.0,-0.00806074,0.0199692,1.0,0.0,0.0,0.0,0.0,0.0,0.0,-0.00086505,0.000302917,-0.488434
72632000,0.0352469,0.0254587,-39.6705,0.0,0.0,-0.00874399,0.0217508,1.0,0.0,0.0,0.0,0.0,0.0,0.0,-0.00121392,5.17596e-05,-0.489487
72728000,0.0352469,0.0254587,-39.6705,0.0,0.0,-0.00964216,0.0234405,1.0,0.0,0.0,0.0,0.0,0.0,0.0,-0.00123397,-0.000253574,-0.490141
72820000,0.0352469,0.0254587,-39.6705,0.0,0.0,-0.010404,0.0249736,1.0,0.0,0.0,0.0,0.0,0.0,0.0,-0.000794502,-8.76476e-05,-0.490361
72916000,0.0352469,0.0254587,-39.6705,0.0,0.0,-0.0107972,0.0262621,1.0,0.0,0.0,0.0,0.0,0.0,0.0,-0.000895906,0.000326902,-0.490404
73008000,0.0352469,0.0254587,-39.6705,0.0,0.0,-0.0111499,0.0277111,1.0,0.0,0.0,0.0,0.0,0.0,0.0,-0.00110751,0.000586201,-0.490127
73100000,0.0352469,0.0254587,-39.6705,0.0,0.0,-0.0114187,0.029243,1.0,0.0,0.0,0.0,0.0,0.0,0.0,-0.000791584,0.000787285,-0.490544
73196000,0.0352469,0.0254587,-39.6705,0.0,0.0,-0.0116887,0.0307801,1.0,0.0,0.0,0.0,0.0,0.0,0.0,-0.000641871,0.000823454,-0.490586
73288000,0.0352469,0.0254587,-39.6705,0.0,0.0,-0.012011,0.0325494,1.0,0.0,0.0,0.0,0.0,0.0,0.0,-0.000548568,0.00138223,-0.490197
73380000,0.0352469,0.0254587,-39.6705,0.0,0.0,-0.0125607,0.0344393,1.0,0.0,0.0,0.0,0.0,0.0,0.0,-0.000166196,0.00216749,-0.490589
73476000,0.0352469,0.0254587,-39.6705,0.0,0.0,-0.0132423,0.0360046,1.0,0.0,0.0,0.0,0.0,0.0,0.0,-0.000797203,0.00163874,-0.490949
73568000,0.0352469,0.0254587,-39.6705,0.0,0.0,-0.0140919,0.0376824,1.0,0.0,0.0,0.0,0.0,0.0,0.0,-0.000650041,0.00127741,-0.489944
73660000,0.0352469,0.0254587,-39.6705,0.0,0.0,-0.0145854,0.0390175,1.0,0.0,0.0,0.0,0.0,0.0,0.0,-0.000853438,0.00115758,-0.490097
73756000,0.0352469,0.0254587,-39.6705,0.0,0.0,-0.014624,0.0400801,1.0,0.0,0.0,0.0,0.0,0.0,0.0,-0.000560985,0.000698935,-0.490091
73848000,0.0352469,0.0254587,-39.6705,0.0,0.0,-0.0142854,0.0408661,1.0,0.0,0.0,0.0,0.0,0.0,0.0,-0.000264518,0.00118287,-0.489354
73940000,0.0352469,0.0254587,-39.6705,0.0,0.0,-0.0138458,0.0416642,1.0,0.0,0.0,0.0,0.0,0.0,0.0,-0.000192611,0.00126054,-0.489162
74036000,0.0352469,0.0254587,-39.6705,0.0,0.0,-0.0133718,0.0423948,1.0,0.0,0.0,0.0,0.0,0.0,0.0,-5.10996e-05,0.000955716,-0.489593
74128000,0.0352469,0.0254587,-39.6705,0.0,0.0,-0.0125888,0.0429316,1.0,0.0,0.0,0.0,0.0,0.0,0.0,0.000887928,0.00076162,-0.488479
74220000,0.0352469,0.0254587,-39.6705,0.0,0.0,-0.0118665,0.0431523,1.0,0.0,0.0,0.0,0.0,0.0,0.0,0.000540841,7.54956e-05,-0.488871
74316000,0.0352469,0.0254587,-39.6705,0.0,0.0,-0.0112469,0.0431706,1.0,0.0,0.0,0.0,0.0,0.0,0.0,0.000255978,0.00114709,-0.488852
74408000,0.0352469,0.0254587,-39.6705,0.0,0.0,-0.0105016,0.0434073,1.0,0.0,0.0,0.0,0.0,0.0,0.0,0.000619059,0.00129477,-0.489617
74500000,0.0352469,0.0254587,-39.6705,0.0,0.0,-0.00960007,0.043654,1.0,0.0,0.0,0.0,0.0,0.0,0.0,0.000438223,0.000853589,-0.489701
74596000,0.0352469,0.0254587,-39.6705,0.0,0.0,-0.00868359,0.0436866,1.0,0.0,0.0,0.0,0.0,0.0,0.0,0.00074997,0.000698642,-0.489657
74688000,0.0352469,0.0254587,-39.6705,0.0,0.0,-0.0077024,0.0432747,1.0,0.0,0.0,0.0,0.0,0.0,0.0,0.000398245,0.000364035,-0.489418
74780000,0.0352469,0.0254587,-39.6705,0.0,0.0,-0.00675118,0.0425143,1.0,0.0,0.0,0.0,0.0,0.0,0.0,0.000616847,-5.18945e-05,-0.490102
74876000,0.0352469,0.0254587,-39.6705,0.0,0.0,-0.00600483,0.0416661,1.0,0.0,0.0,0.0,0.0,0.0,0.0,0.000692182,-0.000485623,-0.49082
74968000,0.0352469,0.0254587,-39.6705,0.0,0.0,-0.00525776,0.0406866,1.0,0.0,0.0,0.0,0.0,0.0,0.0,0.00118464,-0.00083584,-0.489851
75060000,0.0352469,0.0254587,-39.6705,0.0,0.0,-0.00415861,0.039566,1.0,0.0,0.0,0.0,0.0,0.0,0.0,0.00109634,-0.000948984,-0.490446
75156000,0.0352469,0.0254587,-39.6705,0.0,0.0,-0.00308098,0.0384143,1.0,0.0,0.0,0.0,0.0,0.0,0.0,0.000529762,-0.000864957,-0.489605
75248000,0.0352469,0.0254587,-39.6705,0.0,0.0,-0.0020202,0.0371512,1.0,0.0,0.0,0.0,0.0,0.0,0.0,-6.85806e-05,-0.00104581,-0.489314
75340000,0.0352469,0.0254587,-39.6705,0.0,0.0,-0.000798282,0.0359515,1.0,0.0,0.0,0.0,0.0,0.0,0.0,-3.1259e-05,-0.000232119,-0.489638
75436000,0.0352469,0.0254587,-39.6705,0.0,0.0,0.000778332,0.0349217,1.0,0.0,0.0,0.0,0.0,0.0,0.0,0.00126797,-0.00117753,-0.489772
75532000,0.0352469,0.0254587,-39.6705,0.0,0.0,0.00229679,0.033992,1.0,0.0,0.0,0.0,0.0,0.0,0.0,0.000965304,-0.00123847,-0.489655
75624000,0.0352469,0.0254587,-39.6705,0.0,0.0,0.00378149,0.032847,1.0,0.0,0.0,0.0,0.0,0.0,0.0,0.000967369,-0.000847347,-0.488949
75716000,0.0352469,0.0254587,-39.6705,0.0,0.0,0.00509672,0.0314739,1.0,0.0,0.0,0.0,0.0,0.0,0.0,0.00105184,-0.00159263,-0.49
75812000,0.0352469,0.0254587,-39.6705,0.0,0.0,0.00621918,0.0301109,1.0,0.0,0.0,0.0,0.0,0.0,0.0,0.000529838,-0.00150094,-0.489968
75904000,0.0352469,0.0254587,-39.6705,0.0,0.0,0.00732752,0.0287287,1.0,0.0,0.0,0.0,0.0,0.0,0.0,0.000519545,-0.00146503,-0.490009
75996000,0.0352469,0.0254587,-39.6705,0.0,0.0,0.00849356,0.0277324,1.0,0.0,0.0,0.0,0.0,0.0,0.0,0.00090123,-0.000387348,-0.489693
76092000,0.0352469,0.0254587,-39.6705,0.0,0.0,0.00962686,0.0269578,1.0,0.0,0.0,0.0,0.0,0.0,0.0,0.00076746,-0.000662839,-0.488776
76184000,0.0352469,0.0254587,-39.6705,0.0,0.0,0.0107855,0.0261269,1.0,0.0,0.0,0.0,0.0,0.0,0.0,0.00101528,-0.00100074,-0.489571
76276000,0.0352469,0.0254587,-39.6705,0.0,0.0,0.01156,0.0251028,1.0,0.0,0.0,0.0,0.0,0.0,0.0,0.000387982,-0.00159892,-0.490264
76372000,0.0352469,0.0254587,-39.6705,0.0,0.0,0.0122133,0.0239556,1.0,0.0,0.0,0.0,0.0,0.0,0.0,0.000311638,-0.00122714,-0.49013
