timestamp,rollspeed,pitchspeed,yawspeed,rollspeed_integ,pitchspeed_integ,yawspeed_integ,additional_integ1
72000,2.59872e-05,0.00457214,0.00576468,0.0,0.0,0.0,0.0
104000,0.00154027,0.00161117,-0.00429875,0.0,0.0,0.0,0.0
132000,-0.00218347,0.00192475,-0.00235566,0.0,0.0,0.0,0.0
160000,0.00342177,0.00501166,-0.00818232,0.0,0.0,0.0,0.0
188000,0.00459386,0.00769576,-0.00218041,0.0,0.0,0.0,0.0
216000,-0.00701379,0.00369063,0.00569172,0.0,0.0,0.0,0.0
244000,0.00351368,0.00140463,-0.00191232,0.0,0.0,0.0,0.0
276000,0.00117166,-0.00346394,0.00495584,0.0,0.0,0.0,0.0
308000,-0.00467527,0.00413157,-0.000546027,0.0,0.0,0.0,0.0
340000,0.00255826,0.00423034,-0.0001917,0.0,0.0,0.0,0.0
368000,1.37254e-06,0.00424786,-0.0062605,0.0,0.0,0.0,0.0
400000,0.00347516,0.00139839,-0.00512912,0.0,0.0,0.0,0.0
428000,0.00169825,-0.000650331,0.00255869,0.0,0.0,0.0,0.0
460000,0.00413868,0.00431087,0.00611482,0.0,0.0,0.0,0.0
492000,-0.00288937,0.00120613,-0.0054158,0.0,0.0,0.0,0.0
520000,-0.000540576,0.000586391,-0.00377064,0.0,0.0,0.0,0.0
548000,-0.00346903,-0.00785626,-0.00304349,0.0,0.0,0.0,0.0
576000,-0.00107666,0.00713147,-0.00145881,0.0,0.0,0.0,0.0
604000,-0.00232374,-0.00152144,-0.00322973,0.0,0.0,0.0,0.0
636000,0.00265486,0.00386585,0.000801568,0.0,0.0,0.0,0.0
664000,-0.000163725,0.00560558,0.00852059,0.0,0.0,0.0,0.0
692000,0.00260165,-0.000585517,-0.00459388,0.0,0.0,0.0,0.0
724000,-0.00565163,-0.00938662,0.00543664,0.0,0.0,0.0,0.0
752000,-0.000691854,0.00951876,0.00186205,0.0,0.0,0.0,0.0
780000,-0.00490795,-0.00932065,-0.00457157,0.0,0.0,0.0,0.0
808000,0.00882854,0.0015249,0.0028844,0.0,0.0,0.0,0.0
840000,6.90008e-05,0.00112434,-0.011128,0.0,0.0,0.0,0.0
868000,0.00160503,0.00669322,0.00273927,0.0,0.0,0.0,0.0
900000,0.00548457,0.00618415,0.00123616,0.0,0.0,0.0,0.0
932000,-0.00287125,-0.0134874,0.00128896,0.0,0.0,0.0,0.0
960000,-0.0060477,-8.91998e-05,-0.00249303,0.0,0.0,0.0,0.0
988000,0.00431457,0.00406276,-0.00111937,0.0,0.0,0.0,0.0
1020000,0.00627371,0.00545572,-0.00504755,0.0,0.0,0.0,0.0
1052000,-0.00516404,-0.000273941,0.000290176,0.0,0.0,0.0,0.0
1084000,0.00351279,-0.00592988,0.00610741,0.0,0.0,0.0,0.0
1112000,0.00280741,-0.00423174,-0.00891311,0.0,0.0,0.0,0.0
1144000,-0.000450652,0.00721517,0.00455796,0.0,0.0,0.0,0.0
1176000,0.00333838,0.00439752,-0.00425627,0.0,0.0,0.0,0.0
1204000,-0.00638531,0.00235887,-0.00389695,0.0,0.0,0.0,0.0
1236000,-0.00224152,0.00345518,0.000820741,0.0,0.0,0.0,0.0
1264000,-0.00649335,-0.0113794,-0.00432672,0.0,0.0,0.0,0.0
1292000,0.00792717,0.00330291,0.00253132,0.0,0.0,0.0,0.0
1320000,0.00501917,-0.00150415,0.000683691,0.0,0.0,0.0,0.0
1352000,0.00557706,0.00216183,0.00490611,0.0,0.0,0.0,0.0
1384000,-0.000765339,0.00856089,-0.00753992,0.0,0.0,0.0,0.0
1416000,-0.00563303,0.000534155,-0.00222125,0.0,0.0,0.0,0.0
1444000,0.000736711,-0.00386278,-0.0078628,0.0,0.0,0.0,0.0
1472000,0.00383592,0.00133882,-0.00249395,0.0,0.0,0.0,0.0
1500000,0.00152418,0.00418051,0.000147084,0.0,0.0,0.0,0.0
1532000,-0.00329925,0.00286652,0.00250851,0.0,0.0,0.0,0.0
1560000,0.00379569,-0.00540663,-0.000681933,0.0,0.0,0.0,0.0
1592000,-0.00742945,-0.00076422,0.00366002,0.0,0.0,0.0,0.0
1624000,-0.000275912,-0.00030757,-0.00129471,0.0,0.0,0.0,0.0
1652000,-0.000859596,0.00574541,0.0054626,0.0,0.0,0.0,0.0
1680000,-0.0102144,0.000118094,0.00483574,0.0,0.0,0.0,0.0
1712000,-0.000496533,0.00763209,0.00157412,0.0,0.0,0.0,0.0
1744000,0.00191333,-0.00340789,-0.000204091,0.0,0.0,0.0,0.0
1776000,0.00238112,0.00504862,0.00551182,0.0,0.0,0.0,0.0
1808000,-0.00284333,0.00378474,0.00209644,0.0,0.0,0.0,0.0
1836000,0.0035135,0.00258095,-0.00755357,0.0,0.0,0.0,0.0
1868000,-0.00605184,0.00343279,-0.0036535,0.0,0.0,0.0,0.0
1896000,0.00165754,0.0102168,-0.000445569,0.0,0.0,0.0,0.0
1924000,0.00293865,0.000490817,-0.0025643,0.0,0.0,0.0,0.0
1952000,0.00355151,0.00433117,0.00776931,0.0,0.0,0.0,0.0
1984000,0.000818278,0.000144634,-0.00477395,0.0,0.0,0.0,0.0
2016000,-0.00255708,-0.00156524,0.00587747,0.0,0.0,0.0,0.0
2044000,-0.00326267,-0.00643302,0.00302022,0.0,0.0,0.0,0.0
2076000,-0.00064617,0.00487269,0.00260403,0.0,0.0,0.0,0.0
2104000,-0.0036475,0.00717702,-0.00819576,0.0,0.0,0.0,0.0
2132000,0.00153032,-0.00383869,-0.00076996,0.0,0.0,0.0,0.0
2164000,-0.00523078,-0.00157474,0.00266438,0.0,0.0,0.0,0.0
2196000,-0.00452094,0.0111661,-0.00451271,0.0,0.0,0.0,0.0
2228000,0.00872901,-0.00406156,-0.00105925,0.0,0.0,0.0,0.0
2256000,-0.00517176,0.00241749,-0.00256768,0.0,0.0,0.0,0.0
2284000,-0.000631141,0.00173856,0.00527319,0.0,0.0,0.0,0.0
2312000,-0.00702483,-0.00488726,0.000764732,0.0,0.0,0.0,0.0
2344000,0.00642646,0.0030188,0.00182482,0.0,0.0,0.0,0.0
2376000,-0.00160272,-0.00151387,0.00608484,0.0,0.0,0.0,0.0
2404000,-0.00554822,-0.00215591,-0.00286078,0.0,0.0,0.0,0.0
2436000,-0.00348523,0.0022479,0.00395969,0.0,0.0,0.0,0.0
2468000,0.00348984,0.000192166,0.0085005,0.0,0.0,0.0,0.0
2496000,-0.00180636,0.00209696,0.0125614,0.0,0.0,0.0,0.0
2524000,0.0033327,0.00450569,0.00700312,0.0,0.0,0.0,0.0
2552000,-6.70895e-05,0.00553802,-0.00334714,0.0,0.0,0.0,0.0
2584000,-0.00322151,-0.00128328,-0.0022178,0.0,0.0,0.0,0.0
2616000,-0.00809301,-0.00320253,-0.00411638,0.0,0.0,0.0,0.0
2648000,-0.00211,7.56625e-06,-0.00264572,0.0,0.0,0.0,0.0
2680000,-0.00773249,-0.00343035,-0.00722821,0.0,0.0,0.0,0.0
2708000,0.00385291,-0.00628562,-0.00325604,0.0,0.0,0.0,0.0
2740000,-0.00507993,0.00447235,0.00082927,0.0,0.0,0.0,0.0
2768000,0.00534849,0.00116352,-0.00660955,0.0,0.0,0.0,0.0
2800000,-0.000569239,-0.00944357,-0.00379533,0.0,0.0,0.0,0.0
2828000,0.00277646,-0.00339443,0.0025669,0.0,0.0,0.0,0.0
2860000,-0.0020443,-0.00587082,0.00269881,0.0,0.0,0.0,0.0
2892000,-0.00725199,0.0169344,-0.0108338,0.0,0.0,0.0,0.0
2920000,0.00637016,-0.0131369,-0.000267796,0.0,0.0,0.0,0.0
2952000,0.00507722,0.00664925,0.00901727,0.0,0.0,0.0,0.0
2980000,-0.00327058,-0.00296372,0.000643169,0.0,0.0,0.0,0.0
3012000,-0.00036051,0.00127564,-0.00380911,0.0,0.0,0.0,0.0
3040000,-0.001534,0.00904873,-0.00677442,0.0,0.0,0.0,0.0
3072000,0.00106541,-0.0122807,0.00106651,0.0,0.0,0.0,0.0
3100000,-0.00429333,0.00707843,-0.00180538,0.0,0.0,0.0,0.0
3128000,-1.9665e-05,-9.42291e-05,0.000931608,0.0,0.0,0.0,0.0
3160000,0.0107179,0.00409742,-0.00412246,0.0,0.0,0.0,0.0
3188000,-0.00480933,-0.00653342,-0.00168939,0.0,0.0,0.0,0.0
3220000,-0.00197134,3.89824e-05,0.00645427,0.0,0.0,0.0,0.0
3252000,-0.00121625,-0.00314971,-0.00990269,0.0,0.0,0.0,0.0
3280000,0.00647543,-0.00199108,0.00733775,0.0,0.0,0.0,0.0
3312000,0.00092063,-0.000126692,0.00313371,0.0,0.0,0.0,0.0
3344000,-0.00434049,0.00292914,0.00831906,0.0,0.0,0.0,0.0
3372000,-0.00394765,-0.00116396,-0.00163473,0.0,0.0,0.0,0.0
3400000,-0.00402099,-0.00352611,0.00517892,0.0,0.0,0.0,0.0
3432000,-0.000180014,0.00768362,-0.0036984,0.0,0.0,0.0,0.0
3464000,0.0051782,-0.000471355,-0.000690358,0.0,0.0,0.0,0.0
3496000,-0.00670575,-0.00362086,0.00660489,0.0,0.0,0.0,0.0
3528000,0.000370081,0.00402095,-0.002602,0.0,0.0,0.0,0.0
3560000,0.00449505,0.0044387,0.00826199,0.0,0.0,0.0,0.0
3588000,0.0122098,0.000651427,0.0117341,0.0,0.0,0.0,0.0
3616000,-0.00368606,-0.00351255,-0.000588638,0.0,0.0,0.0,0.0
3648000,-0.00383294,0.0010053,-0.000141521,0.0,0.0,0.0,0.0
3676000,-0.00419896,0.00542389,0.00210041,0.0,0.0,0.0,0.0
3704000,-0.00944422,0.00127743,-0.0118865,0.0,0.0,0.0,0.0
3732000,-0.00284159,-0.000563549,0.00165742,0.0,0.0,0.0,0.0
3764000,0.00141083,-0.00865978,0.00637337,0.0,0.0,0.0,0.0
3792000,0.00348056,-0.00365933,-0.000141167,0.0,0.0,0.0,0.0
3824000,-0.00405212,0.00922173,0.00207764,0.0,0.0,0.0,0.0
3852000,0.00231701,-0.00101176,-0.00657606,0.0,0.0,0.0,0.0
3884000,-0.0101477,-0.00034028,0.00923816,0.0,0.0,0.0,0.0
3912000,-0.00247308,-0.00302084,1.30713e-05,0.0,0.0,0.0,0.0
3940000,-0.0040948,0.00129932,-0.00177407,0.0,0.0,0.0,0.0
3972000,0.00332514,-0.00454232,-0.00213433,0.0,0.0,0.0,0.0
4000000,-0.000933572,-0.00595428,-0.000874962,0.0,0.0,0.0,0.0
4028000,0.00214505,0.00364625,0.000837218,0.0,0.0,0.0,0.0
4056000,-0.00374686,0.00266063,0.00199226,0.0,0.0,0.0,0.0
4088000,-0.00345732,0.00730451,-0.00348927,0.0,0.0,0.0,0.0
4120000,-0.00128261,-0.00615962,0.00282118,0.0,0.0,0.0,0.0
4148000,-0.0122279,-0.00208834,0.00402594,0.0,0.0,0.0,0.0
4180000,0.0038892,0.000812139,0.00223336,0.0,0.0,0.0,0.0
4212000,-0.0056456,0.0048972,-0.0035991,0.0,0.0,0.0,0.0
4240000,0.00209004,-0.0113611,0.00656733,0.0,0.0,0.0,0.0
4268000,0.00444997,-0.000433137,0.00267652,0.0,0.0,0.0,0.0
4300000,-0.00411744,0.00425199,-0.00322745,0.0,0.0,0.0,0.0
4332000,0.00691664,-0.00241766,0.00238896,0.0,0.0,0.0,0.0
4364000,0.00312471,0.000493627,-0.0041881,0.0,0.0,0.0,0.0
4392000,0.00121709,0.00164567,0.00486602,0.0,0.0,0.0,0.0
4424000,-0.00460716,-0.00693124,-0.0126464,0.0,0.0,0.0,0.0
4452000,0.00330345,-0.00112077,0.00629804,0.0,0.0,0.0,0.0
4480000,-0.00356155,-0.00747984,-0.00514721,0.0,0.0,0.0,0.0
4512000,-0.00463989,0.00655046,-0.00219256,0.0,0.0,0.0,0.0
4544000,0.00362284,-0.00879304,-0.000725824,0.0,0.0,0.0,0.0
4572000,-0.00894579,0.0038631,0.00455695,0.0,0.0,0.0,0.0
4604000,-0.00487637,0.004382,0.0067701,0.0,0.0,0.0,0.0
4636000,-0.00526611,-0.00609333,-0.00135483,0.0,0.0,0.0,0.0
4664000,-0.000869559,0.00552223,0.00723408,0.0,0.0,0.0,0.0
4696000,0.00514415,-0.00244961,8.03259e-05,0.0,0.0,0.0,0.0
4728000,-0.00885459,0.00312498,-0.00332422,0.0,0.0,0.0,0.0
4756000,0.0025451,0.00247615,-0.00203319,0.0,0.0,0.0,0.0
4784000,0.00268465,0.00176372,0.00515587,0.0,0.0,0.0,0.0
4812000,-0.00754228,0.00286602,0.00550159,0.0,0.0,0.0,0.0
4840000,0.00995236,-0.001941,0.00486007,0.0,0.0,0.0,0.0
4872000,0.00298383,-0.011213,0.00296886,0.0,0.0,0.0,0.0
4904000,-0.000553174,0.00434299,-0.00407444,0.0,0.0,0.0,0.0
4932000,0.00572772,0.00318361,0.00174043,0.0,0.0,0.0,0.0
4964000,-0.000255409,0.00566093,0.00269694,0.0,0.0,0.0,0.0
4992000,0.00592267,-0.00258935,-0.00561059,0.0,0.0,0.0,0.0
5020000,0.00820657,0.00214733,-0.00570193,0.0,0.0,0.0,0.0
5052000,-0.00605124,-0.00540901,-0.00413185,0.0,0.0,0.0,0.0
5080000,0.00499935,-0.00321619,-0.00120709,0.0,0.0,0.0,0.0
5108000,0.00226306,0.00487686,0.000148183,0.0,0.0,0.0,0.0
5140000,-0.00363375,-0.00372208,-0.00362981,0.0,0.0,0.0,0.0
5168000,0.00155228,-0.00231544,-0.00187758,0.0,0.0,0.0,0.0
5200000,-0.0101715,-9.81966e-05,0.000329558,0.0,0.0,0.0,0.0
5228000,-0.00803067,0.000265857,0.000353204,0.0,0.0,0.0,0.0
5260000,-0.0113677,0.00696407,0.00370957,0.0,0.0,0.0,0.0
5292000,0.0144375,0.00109924,0.00287436,0.0,0.0,0.0,0.0
5320000,0.000444195,-0.00283546,0.00982244,0.0,0.0,0.0,0.0
5348000,-0.00473195,-0.00215357,0.00721883,0.0,0.0,0.0,0.0
5380000,0.00189057,-0.00263726,-0.00442194,0.0,0.0,0.0,0.0
5408000,-0.00231448,0.000932587,-0.00300551,0.0,0.0,0.0,0.0
5440000,-0.000653315,-0.00298296,-0.00309424,0.0,0.0,0.0,0.0
5472000,-0.000148827,0.00811232,-0.00560241,0.0,0.0,0.0,0.0
5500000,-0.00250104,0.0045909,-0.00154397,0.0,0.0,0.0,0.0
5532000,-0.0012916,0.00288951,-0.00463615,0.0,0.0,0.0,0.0
5564000,-0.000228211,0.00496858,-0.00539281,0.0,0.0,0.0,0.0
5596000,-0.00253559,-0.000642753,0.00102129,0.0,0.0,0.0,0.0
5628000,-0.0029527,0.00570728,-0.00217623,0.0,0.0,0.0,0.0
5656000,-0.00158175,0.00285664,0.000791756,0.0,0.0,0.0,0.0
5684000,-0.00294315,0.00635838,-0.0027549,0.0,0.0,0.0,0.0
5716000,-0.00266207,-0.00742084,-0.00172794,0.0,0.0,0.0,0.0
5748000,-0.00224265,0.000249073,0.00216526,0.0,0.0,0.0,0.0
5776000,0.00834147,0.00895166,0.00308679,0.0,0.0,0.0,0.0
5808000,-0.00684661,0.000944804,-0.0052968,0.0,0.0,0.0,0.0
5836000,0.00311969,-0.0044741,0.0104111,0.0,0.0,0.0,0.0
5864000,0.00226373,0.0110821,-0.00286409,0.0,0.0,0.0,0.0
5896000,-0.000861745,0.00371525,0.00256089,0.0,0.0,0.0,0.0
5928000,0.00436031,0.0123068,-0.00627594,0.0,0.0,0.0,0.0
5960000,-0.00480917,-0.00420164,0.000291958,0.0,0.0,0.0,0.0
5988000,0.00150178,-0.00405428,-0.00540444,0.0,0.0,0.0,0.0
6020000,-0.000455607,-0.00168446,-0.00376682,0.0,0.0,0.0,0.0
6052000,-7.86621e-05,0.000395507,0.0040715,0.0,0.0,0.0,0.0
6080000,-0.004994,0.00471198,0.000275729,0.0,0.0,0.0,0.0
6112000,-0.0110347,-0.000414554,-0.00161334,0.0,0.0,0.0,0.0
6140000,-0.00374465,0.00681029,0.00118937,0.0,0.0,0.0,0.0
6172000,0.00173081,0.00111221,-0.00400772,0.0,0.0,0.0,0.0
6200000,0.0034404,-0.00882135,0.00242437,0.0,0.0,0.0,0.0
6232000,-0.00436117,-0.00146672,-0.00518414,0.0,0.0,0.0,0.0
6260000,-0.00407969,-0.00252219,-0.00242346,0.0,0.0,0.0,0.0
6292000,0.00207652,-0.00449043,0.00758615,0.0,0.0,0.0,0.0
6320000,0.00534636,0.00200469,0.0119054,0.0,0.0,0.0,0.0
6352000,-0.00733101,-0.000344073,-0.00400655,0.0,0.0,0.0,0.0
6384000,0.00544308,-0.00224824,0.000744075,0.0,0.0,0.0,0.0
6416000,0.000716349,0.00158077,-0.00547143,0.0,0.0,0.0,0.0
6444000,-0.00637424,-0.00548519,0.00197176,0.0,0.0,0.0,0.0
6472000,0.00660798,-0.0034755,-0.000719729,0.0,0.0,0.0,0.0
6504000,0.00631045,0.00449375,9.565e-05,0.0,0.0,0.0,0.0
6532000,0.00559716,-0.00538914,0.00508497,0.0,0.0,0.0,0.0
6564000,0.00152997,0.0103311,-0.00676608,0.0,0.0,0.0,0.0
6592000,0.0116825,0.00466837,0.00255929,0.0,0.0,0.0,0.0
6620000,-0.00889833,-0.000607202,0.0106942,0.0,0.0,0.0,0.0
6652000,0.000610589,-0.00171054,0.0025348,0.0,0.0,0.0,0.0
6684000,0.00144571,-0.00282828,-0.00143804,0.0,0.0,0.0,0.0
6716000,0.00570987,-0.00249524,0.00121974,0.0,0.0,0.0,0.0
6748000,0.000254033,0.0028117,-0.00275173,0.0,0.0,0.0,0.0
6780000,-0.00165237,-0.00484976,-0.00172381,0.0,0.0,0.0,0.0
6808000,-0.000692714,-0.00509492,0.0116614,0.0,0.0,0.0,0.0
6840000,-0.00360029,0.00217356,-0.00270115,0.0,0.0,0.0,0.0
6872000,0.00764712,-0.00722826,-0.00270275,0.0,0.0,0.0,0.0
6904000,-0.00184548,0.0022009,-0.0037216,0.0,0.0,0.0,0.0
6932000,-0.000943407,-0.0058975,0.000366772,0.0,0.0,0.0,0.0
6964000,0.000358394,0.000428419,0.00163722,0.0,0.0,0.0,0.0
6996000,-0.000362288,-0.00653348,-0.00434786,0.0,0.0,0.0,0.0
7024000,0.00714185,0.00487939,-0.00300745,0.0,0.0,0.0,0.0
7056000,-0.00189753,-0.000126841,0.00706281,0.0,0.0,0.0,0.0
7088000,-0.00161013,0.00112434,0.00253388,0.0,0.0,0.0,0.0
7116000,0.00391911,-0.00960215,0.00653273,0.0,0.0,0.0,0.0
7144000,-0.0065022,0.00183755,-0.0033107,0.0,0.0,0.0,0.0
7172000,-0.00321255,-0.0104844,0.00196586,0.0,0.0,0.0,0.0
7204000,0.00498432,2.78368e-05,0.00363554,0.0,0.0,0.0,0.0
7236000,-0.00102076,-0.00177095,-0.00227318,0.0,0.0,0.0,0.0
7268000,-0.00391612,0.00232409,0.00447249,0.0,0.0,0.0,0.0
7300000,0.00653999,0.00317102,0.000758433,0.0,0.0,0.0,0.0
7332000,0.000455989,-0.00345907,-0.00262302,0.0,0.0,0.0,0.0
7364000,0.00181742,0.00127832,0.00176847,0.0,0.0,0.0,0.0
7396000,0.00785523,-0.00850141,-0.00183408,0.0,0.0,0.0,0.0
7428000,0.00742375,-0.00326536,-0.00661334,0.0,0.0,0.0,0.0
7456000,-0.00542759,-0.00168005,-0.000753237,0.0,0.0,0.0,0.0
7488000,0.00325493,0.00671709,0.00649823,0.0,0.0,0.0,0.0
7520000,-0.00383031,0.0108871,0.00220402,0.0,0.0,0.0,0.0
7548000,0.0128792,-0.00011231,0.00459778,0.0,0.0,0.0,0.0
7580000,0.00107247,0.000996138,0.00110674,0.0,0.0,0.0,0.0
7608000,-0.00288425,0.00493084,-0.00685853,0.0,0.0,0.0,0.0
7640000,-0.000206532,-0.00300312,0.00237139,0.0,0.0,0.0,0.0
7668000,-0.00548448,0.00642037,-0.00442611,0.0,0.0,0.0,0.0
7696000,0.00424021,-0.000961958,0.00154948,0.0,0.0,0.0,0.0
7728000,0.00442553,-0.003227,0.00118935,0.0,0.0,0.0,0.0
7760000,0.00120306,0.000484657,0.00153261,0.0,0.0,0.0,0.0
7788000,0.00429682,0.00223075,-0.000811381,0.0,0.0,0.0,0.0
7820000,-0.00588093,-0.00339338,-0.00824655,0.0,0.0,0.0,0.0
7848000,-0.00363774,0.00343604,0.00425539,0.0,0.0,0.0,0.0
7880000,-0.00833461,0.00468253,0.0140041,0.0,0.0,0.0,0.0
7908000,-0.00417882,-0.00383033,-0.00304057,0.0,0.0,0.0,0.0
7940000,-0.00122807,-0.0084423,0.00590168,0.0,0.0,0.0,0.0
7968000,0.00495551,0.000710706,-0.00440049,0.0,0.0,0.0,0.0
8000000,0.000517559,-0.0027078,-0.00263785,0.0,0.0,0.0,0.0
8032000,0.00209635,0.000766442,0.00212576,0.0,0.0,0.0,0.0
8064000,-0.00321734,0.00285796,-0.00510088,0.0,0.0,0.0,0.0
8096000,-0.00717656,-0.00245831,-0.00243158,0.0,0.0,0.0,0.0
8124000,0.00386724,-0.00762127,0.000679648,0.0,0.0,0.0,0.0
8156000,-0.00104902,-0.00097967,-0.00170373,0.0,0.0,0.0,0.0
8184000,-0.0015308,-0.00047568,-0.00755044,0.0,0.0,0.0,0.0
8212000,0.0162144,0.00862442,0.000777696,0.0,0.0,0.0,0.0
8244000,0.00210855,0.00563658,0.00564023,0.0,0.0,0.0,0.0
8276000,-0.00450662,0.00550362,-0.00934612,0.0,0.0,0.0,0.0
8308000,0.00399095,-0.00769752,-0.000208579,0.0,0.0,0.0,0.0
8336000,-0.00259413,0.00280616,0.00242815,0.0,0.0,0.0,0.0
8368000,-0.00606219,0.0111863,-0.00431823,0.0,0.0,0.0,0.0
8400000,0.002107,-0.00197943,-0.00632217,0.0,0.0,0.0,0.0
8432000,-0.00616849,-0.00360517,0.00317028,0.0,0.0,0.0,0.0
8464000,0.000217155,0.0106256,-0.00112786,0.0,0.0,0.0,0.0
8496000,-0.00934213,-0.00471033,-0.000454084,0.0,0.0,0.0,0.0
8528000,-0.00380495,-0.00350025,0.00254154,0.0,0.0,0.0,0.0
8556000,-2.69857e-06,0.00388878,-0.00596768,0.0,0.0,0.0,0.0
8588000,0.00903285,-0.000511079,0.00867791,0.0,0.0,0.0,0.0
8620000,0.00304618,-0.000455756,-0.0029872,0.0,0.0,0.0,0.0
8652000,0.00796951,0.00395226,0.00842393,0.0,0.0,0.0,0.0
8684000,-0.00989539,-0.00211337,0.0050237,0.0,0.0,0.0,0.0
8716000,0.000728738,0.0106646,0.000902762,0.0,0.0,0.0,0.0
8744000,-0.0101583,-0.00591344,0.00148123,0.0,0.0,0.0,0.0
8776000,0.00822822,0.00478142,0.0017024,0.0,0.0,0.0,0.0
8808000,0.00436663,-0.0111107,0.00264334,0.0,0.0,0.0,0.0
8840000,-0.00283582,1.41739e-05,-0.00109583,0.0,0.0,0.0,0.0
8868000,-0.00379905,0.00331969,-0.00779788,0.0,0.0,0.0,0.0
8900000,0.00643409,-0.00257541,-0.00831772,0.0,0.0,0.0,0.0
8928000,0.00182453,0.00197053,-0.00156897,0.0,0.0,0.0,0.0
8960000,0.00504325,0.00313794,0.000701458,0.0,0.0,0.0,0.0
8992000,0.0128653,-0.000996135,-0.00377372,0.0,0.0,0.0,0.0
9020000,0.00760035,0.000864784,-0.00147245,0.0,0.0,0.0,0.0
9048000,-0.00948391,0.000947168,-0.00297969,0.0,0.0,0.0,0.0
9080000,-0.00718469,-0.00428219,-0.000763825,0.0,0.0,0.0,0.0
9112000,0.00193861,-0.00220289,0.00476055,0.0,0.0,0.0,0.0
9144000,0.0015069,-0.00028786,0.00082394,0.0,0.0,0.0,0.0
9176000,-0.0018678,0.00142178,0.0123801,0.0,0.0,0.0,0.0
9204000,0.0018742,-0.00376582,0.00196325,0.0,0.0,0.0,0.0
9232000,-0.00757197,-0.00281881,-0.000531986,0.0,0.0,0.0,0.0
9260000,0.0063483,0.00951658,-0.00384034,0.0,0.0,0.0,0.0
9288000,-0.00242637,-2.82912e-05,0.00258366,0.0,0.0,0.0,0.0
9320000,0.000351162,0.00233713,-0.00229109,0.0,0.0,0.0,0.0
9352000,-0.00524972,-0.00395974,0.00381554,0.0,0.0,0.0,0.0
9384000,-0.00293342,-0.00374575,-0.000855484,0.0,0.0,0.0,0.0
9412000,0.000290756,0.00218389,-0.00254292,0.0,0.0,0.0,0.0
9440000,0.00726252,-0.00195863,-0.00438244,0.0,0.0,0.0,0.0
9472000,-0.000643925,0.00459912,-0.00374898,0.0,0.0,0.0,0.0
9504000,-0.000882084,-0.00439613,0.00524465,0.0,0.0,0.0,0.0
9536000,-0.00152932,0.0106306,-0.0132265,0.0,0.0,0.0,0.0
9568000,-0.00343204,-0.00830072,-0.00508391,0.0,0.0,0.0,0.0
9596000,0.0017566,-0.00724503,0.00673008,0.0,0.0,0.0,0.0
9628000,0.00262546,-0.00287648,0.00309808,0.0,0.0,0.0,0.0
9660000,0.00157922,-0.00394442,0.00168736,0.0,0.0,0.0,0.0
9692000,0.00940759,-0.00153855,0.00203131,0.0,0.0,0.0,0.0
9724000,0.00211302,-0.00100914,0.000294922,0.0,0.0,0.0,0.0
9756000,-0.00162334,-0.012289,-0.00308799,0.0,0.0,0.0,0.0
9784000,-0.00517414,0.00383828,0.0107446,0.0,0.0,0.0,0.0
9816000,-0.00354771,-0.00359106,-0.00518076,0.0,0.0,0.0,0.0
9844000,0.0044041,0.000731501,-0.00371264,0.0,0.0,0.0,0.0
9872000,-0.00747119,0.00226075,0.00317693,0.0,0.0,0.0,0.0
9904000,-0.0115189,0.000821471,0.0101642,0.0,0.0,0.0,0.0
9936000,-0.00202433,0.00333657,0.0016025,0.0,0.0,0.0,0.0
9968000,-0.00114592,0.00628014,-0.0019941,0.0,0.0,0.0,0.0
9996000,0.00126961,-0.00450984,0.00606091,0.0,0.0,0.0,0.0
10028000,0.000688863,0.00734297,0.00750059,0.0,0.0,0.0,0.0
10060000,-0.00324574,-0.00464193,-0.00959899,0.0,0.0,0.0,0.0
10092000,0.000716324,-0.00021189,0.00875949,0.0,0.0,0.0,0.0
10120000,0.0064338,0.00261082,-0.00268378,0.0,0.0,0.0,0.0
10152000,-0.00869814,-0.00320044,-0.00395615,0.0,0.0,0.0,0.0
10180000,-0.00258618,-0.00065312,-0.00355756,0.0,0.0,0.0,0.0
10208000,0.000974984,0.00356892,0.00034892,0.0,0.0,0.0,0.0
10240000,-0.000578498,-0.00384304,-0.000460121,0.0,0.0,0.0,0.0
10268000,-0.00844194,-0.00326938,-0.00274041,0.0,0.0,0.0,0.0
10300000,-0.000811558,0.00112801,0.00342445,0.0,0.0,0.0,0.0
10332000,-0.00282111,-0.000755872,0.00431757,0.0,0.0,0.0,0.0
10360000,-0.000941656,-0.000705642,0.00169232,0.0,0.0,0.0,0.0
10392000,0.00626069,-0.00798737,0.000504477,0.0,0.0,0.0,0.0
10424000,-0.0044639,-0.00614217,-0.00242621,0.0,0.0,0.0,0.0
10456000,-0.00323879,-0.00658952,0.000645798,0.0,0.0,0.0,0.0
10488000,0.00220584,-0.00307897,-0.00185804,0.0,0.0,0.0,0.0
10520000,0.00702184,-0.003461,0.00498049,0.0,0.0,0.0,0.0
10548000,-0.000386579,-0.00161107,0.001749,0.0,0.0,0.0,0.0
10580000,-0.00147934,-0.00316715,-0.00193412,0.0,0.0,0.0,0.0
10608000,-0.00255174,-0.00518204,0.00557208,0.0,0.0,0.0,0.0
10640000,-0.00340631,0.0093973,-0.00364202,0.0,0.0,0.0,0.0
10672000,0.0017722,-0.000776065,0.00660495,0.0,0.0,0.0,0.0
10704000,0.00706494,0.00236973,0.00451407,0.0,0.0,0.0,0.0
10732000,-0.00184706,0.0001748,-0.00999189,0.0,0.0,0.0,0.0
10760000,-0.00153287,-0.00135167,-0.00799268,0.0,0.0,0.0,0.0
10792000,-0.00120865,-0.000502251,0.000267357,0.0,0.0,0.0,0.0
10820000,6.88471e-06,0.00123071,-0.00196397,0.0,0.0,0.0,0.0
10848000,-0.0142494,-0.000522275,-0.000922748,0.0,0.0,0.0,0.0
10876000,0.0097419,0.00628763,0.00591565,0.0,0.0,0.0,0.0
10904000,-0.0156084,0.00269371,0.00119967,0.0,0.0,0.0,0.0
10936000,-0.00494724,0.00178778,0.00199493,0.0,0.0,0.0,0.0
10968000,0.000128269,-0.00207081,0.00108453,0.0,0.0,0.0,0.0
10996000,-0.00305563,-0.00432995,0.00784752,0.0,0.0,0.0,0.0
11024000,-0.00490608,-0.00519158,0.00787717,0.0,0.0,0.0,0.0
11052000,0.0114857,-0.0109337,0.00222476,0.0,0.0,0.0,0.0
11080000,0.00147751,0.00269044,0.000762654,0.0,0.0,0.0,0.0
11112000,-0.00384892,-0.00149249,0.00544392,0.0,0.0,0.0,0.0
11144000,-7.57217e-05,-0.00368912,-0.00299779,0.0,0.0,0.0,0.0
11176000,0.000239216,-0.0070068,-0.00363534,0.0,0.0,0.0,0.0
11204000,-0.00476522,-0.00128168,0.00258339,0.0,0.0,0.0,0.0
11236000,0.00159291,0.00927697,-0.00398003,0.0,0.0,0.0,0.0
11268000,-0.00525602,0.00286388,-0.000267094,0.0,0.0,0.0,0.0
11296000,-0.000455902,0.00286925,0.00357325,0.0,0.0,0.0,0.0
11328000,0.00610073,0.000904145,5.51303e-05,0.0,0.0,0.0,0.0
11360000,0.00317534,0.00933821,0.00538817,0.0,0.0,0.0,0.0
11392000,-0.00233355,0.00616054,0.00018963,0.0,0.0,0.0,0.0
11424000,0.00288568,-0.00651628,-0.00464562,0.0,0.0,0.0,0.0
11456000,-0.00827185,-0.00213767,-0.00453702,0.0,0.0,0.0,0.0
11484000,0.00500067,0.00331926,-0.00464052,0.0,0.0,0.0,0.0
11512000,0.00417812,-0.00459912,-0.00467633,0.0,0.0,0.0,0.0
11540000,0.00867597,0.00532664,0.00593312,0.0,0.0,0.0,0.0
11568000,-0.00320375,0.00520652,0.00483462,0.0,0.0,0.0,0.0
11600000,0.00705242,0.0100743,0.00362175,0.0,0.0,0.0,0.0
11628000,-0.00473119,-0.00677798,-0.0102651,0.0,0.0,0.0,0.0
11656000,0.00226898,-0.00522166,0.00663584,0.0,0.0,0.0,0.0
11688000,0.00301471,-0.00363377,-0.00107403,0.0,0.0,0.0,0.0
11720000,-0.00046787,0.0059955,0.00611625,0.0,0.0,0.0,0.0
11752000,0.00154683,0.000637371,0.000422537,0.0,0.0,0.0,0.0
11784000,0.00227531,-0.00401927,0.0102016,0.0,0.0,0.0,0.0
11816000,0.00399168,0.0103732,-0.000575164,0.0,0.0,0.0,0.0
11848000,0.00297506,0.00143578,-0.00297528,0.0,0.0,0.0,0.0
11876000,0.00275218,0.000320905,0.000765055,0.0,0.0,0.0,0.0
11904000,-0.00452158,0.00504495,-0.00987257,0.0,0.0,0.0,0.0
11932000,0.00331255,0.0027353,-0.000565698,0.0,0.0,0.0,0.0
11960000,0.00253433,-0.00270463,0.000786475,0.0,0.0,0.0,0.0
11988000,0.00497219,0.000562825,0.00578345,0.0,0.0,0.0,0.0
12016000,-0.00246031,-0.00605162,0.00198072,0.0,0.0,0.0,0.0
12044000,-0.00037895,0.00241885,0.0010708,0.0,0.0,0.0,0.0
12076000,-0.00604749,-0.00362373,-0.00354572,0.0,0.0,0.0,0.0
12104000,0.00155831,0.0134156,0.00294459,0.0,0.0,0.0,0.0
12132000,0.00513231,0.00657734,-0.0107177,0.0,0.0,0.0,0.0
12164000,-0.00306703,-0.00134322,0.000213537,0.0,0.0,0.0,0.0
12196000,0.00171846,-0.00531009,-0.003904,0.0,0.0,0.0,0.0
12228000,-0.00705968,-0.0059217,-0.00114096,0.0,0.0,0.0,0.0
12260000,-0.0026063,-0.00505355,0.00080188,0.0,0.0,0.0,0.0
12288000,1.7178e-05,0.000322934,0.00473052,0.0,0.0,0.0,0.0
12316000,-0.0118904,-0.000985948,-0.00303488,0.0,0.0,0.0,0.0
12348000,0.00426738,0.000263049,0.0108124,0.0,0.0,0.0,0.0
12380000,0.00784542,0.00425117,0.00130942,0.0,0.0,0.0,0.0
12412000,0.00414605,0.00383532,-0.00102969,0.0,0.0,0.0,0.0
12440000,0.00298861,0.00392154,-0.00525245,0.0,0.0,0.0,0.0
12468000,-0.00204223,0.0034815,0.00149945,0.0,0.0,0.0,0.0
12500000,-0.00185428,0.0023315,-0.00701361,0.0,0.0,0.0,0.0
12532000,-0.00241716,0.00265312,-0.00569944,0.0,0.0,0.0,0.0
12560000,-0.00150527,0.0117084,-0.00453943,0.0,0.0,0.0,0.0
12588000,0.00839682,-0.00388155,0.00822781,0.0,0.0,0.0,0.0
12616000,0.00419299,-0.00508385,-0.00383724,0.0,0.0,0.0,0.0
12644000,-0.00121031,0.00347361,0.00518403,0.0,0.0,0.0,0.0
12672000,-0.00464576,0.00111403,0.0041777,0.0,0.0,0.0,0.0
12700000,0.00138172,-0.00452942,0.00472119,0.0,0.0,0.0,0.0
12732000,-0.000267377,0.00555787,-0.00433309,0.0,0.0,0.0,0.0
12764000,0.0032211,0.00132596,-0.000163314,0.0,0.0,0.0,0.0
12792000,0.00630475,0.00284002,-0.00843976,0.0,0.0,0.0,0.0
12820000,0.00710997,0.00704061,-0.00290346,0.0,0.0,0.0,0.0
12852000,0.00219297,-0.00271325,0.00255795,0.0,0.0,0.0,0.0
12884000,0.000259877,-0.00246613,0.000965333,0.0,0.0,0.0,0.0
12916000,-0.00228097,-0.00934158,-0.00534233,0.0,0.0,0.0,0.0
12948000,-0.00613264,0.00032527,0.000811914,0.0,0.0,0.0,0.0
12980000,0.00282337,-0.00338751,0.00633375,0.0,0.0,0.0,0.0
13012000,0.0133676,0.0049764,0.00786616,0.0,0.0,0.0,0.0
13040000,-0.00141684,-0.00496211,0.00593873,0.0,0.0,0.0,0.0
13072000,0.00293531,0.00240194,-0.00172558,0.0,0.0,0.0,0.0
13100000,-0.00841839,0.00681294,0.00471026,0.0,0.0,0.0,0.0
13132000,-0.00231397,-0.00196911,-0.00530418,0.0,0.0,0.0,0.0
13164000,0.00929527,0.00585382,-0.00061148,0.0,0.0,0.0,0.0
13196000,-0.00705494,-0.000912498,-0.00362845,0.0,0.0,0.0,0.0
13228000,-0.00800945,0.00141889,-0.000506536,0.0,0.0,0.0,0.0
13256000,-0.00134759,0.00326319,0.00543922,0.0,0.0,0.0,0.0
13288000,-0.00355908,0.00792538,0.000555361,0.0,0.0,0.0,0.0
13320000,-0.004286,-0.0100808,-0.00272258,0.0,0.0,0.0,0.0
13352000,0.00294504,-0.000622195,0.00427162,0.0,0.0,0.0,0.0
13384000,-0.00307418,-0.00217028,0.0058215,0.0,0.0,0.0,0.0
13416000,-0.00396947,-0.00226252,0.004541,0.0,0.0,0.0,0.0
13444000,-0.00287889,-0.00302146,-0.00459219,0.0,0.0,0.0,0.0
13476000,-0.00610301,-0.00308434,-0.0145919,0.0,0.0,0.0,0.0
13508000,-0.0061084,-0.00121475,0.00286087,0.0,0.0,0.0,0.0
13540000,0.00233179,-0.00114919,0.00569663,0.0,0.0,0.0,0.0
13568000,-0.00836735,0.0015076,0.00162275,0.0,0.0,0.0,0.0
13596000,0.000809399,-0.00725761,0.0035918,0.0,0.0,0.0,0.0
13624000,0.0023114,0.00306796,-0.00130548,0.0,0.0,0.0,0.0
13656000,0.00598614,0.00610514,0.00287072,0.0,0.0,0.0,0.0
13684000,0.00163671,0.00568309,-0.00252715,0.0,0.0,0.0,0.0
13716000,0.00126582,-0.00336415,0.000513314,0.0,0.0,0.0,0.0
13748000,-0.00314778,9.96673e-05,-9.64865e-05,0.0,0.0,0.0,0.0
13780000,0.0013321,0.00629555,0.000312774,0.0,0.0,0.0,0.0
13812000,-0.00383437,-0.00449095,0.00542289,0.0,0.0,0.0,0.0
13844000,0.00945674,-0.00455649,0.00603355,0.0,0.0,0.0,0.0
13872000,-0.00257701,0.00438682,-0.0018334,0.0,0.0,0.0,0.0
13900000,0.00333932,0.00335473,-0.000383176,0.0,0.0,0.0,0.0
13928000,5.88273e-05,-0.00397409,0.00314194,0.0,0.0,0.0,0.0
13956000,-0.00388875,-0.000357419,-0.0018042,0.0,0.0,0.0,0.0
13988000,0.000448822,-0.00176843,-0.00498217,0.0,0.0,0.0,0.0
14020000,0.00108905,0.00977081,-0.00998325,0.0,0.0,0.0,0.0
14048000,0.00412347,-0.00558692,0.00447597,0.0,0.0,0.0,0.0
14080000,0.003641,-0.00284455,-0.00506377,0.0,0.0,0.0,0.0
14112000,0.00351091,-0.00130598,0.00220777,0.0,0.0,0.0,0.0
14144000,-0.00682048,-0.00129722,0.00178321,0.0,0.0,0.0,0.0
14176000,-0.00305429,-0.0122486,0.00253041,0.0,0.0,0.0,0.0
14208000,0.000358054,-0.00165308,-0.00624211,0.0,0.0,0.0,0.0
14236000,-0.00323018,0.00451012,-0.00141223,0.0,0.0,0.0,0.0
14268000,0.00145808,0.00237559,0.00652632,0.0,0.0,0.0,0.0
14296000,0.00283967,0.00385747,-0.00156251,0.0,0.0,0.0,0.0
14328000,0.00348249,-0.00285799,0.00761965,0.0,0.0,0.0,0.0
14360000,-0.00062137,-0.00749442,-0.000638111,0.0,0.0,0.0,0.0
14392000,-0.00637684,0.00228643,0.00403133,0.0,0.0,0.0,0.0
14420000,0.00634677,0.00226611,0.00338334,0.0,0.0,0.0,0.0
14448000,-0.00119854,-0.000275202,0.00245204,0.0,0.0,0.0,0.0
14480000,-0.00435669,0.00406963,0.000959477,0.0,0.0,0.0,0.0
14512000,0.00349665,0.0011009,0.0039783,0.0,0.0,0.0,0.0
14540000,0.0105757,0.00271017,0.00867615,0.0,0.0,0.0,0.0
14568000,-0.00740701,-0.00380497,0.00525163,0.0,0.0,0.0,0.0
14600000,0.00474435,0.00219056,0.00459358,0.0,0.0,0.0,0.0
14628000,0.00246826,0.00426873,-0.00414167,0.0,0.0,0.0,0.0
14656000,0.00171722,0.00276615,-0.00152531,0.0,0.0,0.0,0.0
14684000,0.00347762,0.00608369,0.0031442,0.0,0.0,0.0,0.0
14712000,0.000660035,-0.00367059,0.00566735,0.0,0.0,0.0,0.0
14740000,0.00126389,0.0067674,-0.00313649,0.0,0.0,0.0,0.0
14772000,0.0081219,0.00182437,0.00489074,0.0,0.0,0.0,0.0
14804000,0.0061992,-0.000128828,-0.00777826,0.0,0.0,0.0,0.0
14836000,-0.00162307,0.00434382,0.00921026,0.0,0.0,0.0,0.0
14868000,-0.000964119,0.00188212,0.00482815,0.0,0.0,0.0,0.0
14900000,0.00155955,0.00239619,0.00868369,0.0,0.0,0.0,0.0
14928000,-0.00527343,-0.00657522,-0.0014231,0.0,0.0,0.0,0.0
14956000,-0.00225357,-0.00126938,-0.00648019,0.0,0.0,0.0,0.0
14988000,-0.00389915,-0.0040003,-0.000420095,0.0,0.0,0.0,0.0
15020000,-0.00475585,0.00188705,0.0017365,0.0,0.0,0.0,0.0
15052000,0.00261149,0.00149472,-0.0035421,0.0,0.0,0.0,0.0
15084000,0.00274774,-0.00330078,0.00649437,0.0,0.0,0.0,0.0
15112000,-0.000327267,0.00134363,-0.000631761,0.0,0.0,0.0,0.0
15144000,-0.000267961,0.0021804,-0.00934601,0.0,0.0,0.0,0.0
15172000,-0.00107983,0.00604486,-0.00643839,0.0,0.0,0.0,0.0
15200000,-0.0096799,0.00172634,-0.00104148,0.0,0.0,0.0,0.0
15232000,0.00640783,0.00549373,0.00379523,0.0,0.0,0.0,0.0
15264000,-0.00179189,0.00299905,0.000775585,0.0,0.0,0.0,0.0
15296000,0.00136342,0.0041447,0.0032089,0.0,0.0,0.0,0.0
15328000,-0.0126198,-0.00717288,-0.00591469,0.0,0.0,0.0,0.0
15356000,0.000685442,-0.000565367,0.00260114,0.0,0.0,0.0,0.0
15388000,-0.00351588,0.00367358,-0.00687825,0.0,0.0,0.0,0.0
15420000,0.00498857,-0.00762359,0.00769355,0.0,0.0,0.0,0.0
15448000,0.00260491,0.00353695,0.000968578,0.0,0.0,0.0,0.0
15476000,-0.00139643,-0.00161194,0.00624402,0.0,0.0,0.0,0.0
15504000,-0.00386013,-0.00122468,-0.00970611,0.0,0.0,0.0,0.0
15532000,0.00242414,-0.00882613,-0.00565755,0.0,0.0,0.0,0.0
15564000,0.000137516,0.00468534,0.00591146,0.0,0.0,0.0,0.0
15596000,0.00130211,0.0100498,0.000579608,0.0,0.0,0.0,0.0
15624000,0.00170717,0.00349742,-0.000393343,0.0,0.0,0.0,0.0
15656000,-0.00460083,-0.00317919,-0.000264993,0.0,0.0,0.0,0.0
15688000,-0.00528993,-0.00471462,0.00552693,0.0,0.0,0.0,0.0
15720000,0.0121876,-0.0084661,-0.00715747,0.0,0.0,0.0,0.0
15748000,-0.00135645,-0.00142453,-0.00106925,0.0,0.0,0.0,0.0
15776000,0.0103341,0.00345948,3.64598e-05,0.0,0.0,0.0,0.0
15808000,-0.00121437,0.00406365,0.00192792,0.0,0.0,0.0,0.0
15840000,0.00588124,0.0126833,0.0109793,0.0,0.0,0.0,0.0
15868000,0.000375902,0.000583467,0.00497058,0.0,0.0,0.0,0.0
15900000,0.00167164,4.23349e-05,0.00589526,0.0,0.0,0.0,0.0
15928000,-0.0074692,-0.00157458,-0.00742128,0.0,0.0,0.0,0.0
15960000,-0.00383406,-0.00201858,0.00108431,0.0,0.0,0.0,0.0
15992000,-0.0052837,-0.00493139,-0.00628504,0.0,0.0,0.0,0.0
16024000,0.000613486,0.00288707,-0.00445654,0.0,0.0,0.0,0.0
16052000,-0.00352052,0.00427646,-0.00798211,0.0,0.0,0.0,0.0
16084000,0.00168133,-0.00242657,-0.00866761,0.0,0.0,0.0,0.0
16116000,-0.00646054,-0.00030161,-0.00296252,0.0,0.0,0.0,0.0
16148000,0.00815849,-0.0123693,0.00141369,0.0,0.0,0.0,0.0
16176000,0.00170162,0.00147903,0.00381963,0.0,0.0,0.0,0.0
16204000,-0.00491144,0.00190675,-0.000615303,0.0,0.0,0.0,0.0
16232000,-0.00325596,0.00128862,0.00171918,0.0,0.0,0.0,0.0
16264000,0.000274559,0.00613493,-0.00316499,0.0,0.0,0.0,0.0
16296000,-0.00403056,-0.0015455,-0.00962292,0.0,0.0,0.0,0.0
16324000,-0.00373758,0.00103554,-0.00385282,0.0,0.0,0.0,0.0
16352000,-0.00625867,0.00133469,-0.000255356,0.0,0.0,0.0,0.0
16384000,0.00214508,0.002343,0.00379233,0.0,0.0,0.0,0.0
16416000,0.00592389,0.0088243,0.0071269,0.0,0.0,0.0,0.0
16448000,0.00377418,-0.00112548,-0.001421,0.0,0.0,0.0,0.0
16476000,-0.00139578,0.00361818,-0.0053676,0.0,0.0,0.0,0.0
16508000,0.00337314,0.00351503,0.000965551,0.0,0.0,0.0,0.0
16540000,-0.000629494,0.00449614,-0.00500067,0.0,0.0,0.0,0.0
16572000,0.00510563,-0.0015302,0.00749751,0.0,0.0,0.0,0.0
16604000,-0.00289932,0.00706873,-3.9321e-05,0.0,0.0,0.0,0.0
16632000,-0.000219858,0.00449552,-0.00259134,0.0,0.0,0.0,0.0
16660000,0.000131791,0.000188414,-0.000349118,0.0,0.0,0.0,0.0
16692000,0.00390348,0.00434331,-0.0121566,0.0,0.0,0.0,0.0
16724000,0.00732835,0.00163513,0.00212739,0.0,0.0,0.0,0.0
16752000,0.00321569,-0.00657078,0.00439562,0.0,0.0,0.0,0.0
16784000,-0.000383211,-0.00679842,-0.00907401,0.0,0.0,0.0,0.0
16816000,-0.00259322,0.00191578,-0.000185809,0.0,0.0,0.0,0.0
16848000,-0.00614233,-0.000499906,0.00880435,0.0,0.0,0.0,0.0
16876000,-0.00262735,4.55121e-05,-0.0113642,0.0,0.0,0.0,0.0
16908000,-0.00634826,-0.001868,-0.00635636,0.0,0.0,0.0,0.0
16940000,0.000711963,0.0153562,0.000825081,0.0,0.0,0.0,0.0
16972000,-0.0022829,0.00526414,0.00272323,0.0,0.0,0.0,0.0
17004000,-0.00398268,-0.00271279,0.00460621,0.0,0.0,0.0,0.0
17036000,0.00227585,0.000630265,-0.00326975,0.0,0.0,0.0,0.0
17068000,0.0114883,-0.00203386,-0.00146951,0.0,0.0,0.0,0.0
17096000,-0.00862996,0.000746489,0.00380344,0.0,0.0,0.0,0.0
17128000,-0.00947986,0.0132788,0.0015087,0.0,0.0,0.0,0.0
17160000,0.00248449,0.000751345,0.00822878,0.0,0.0,0.0,0.0
17192000,0.00124444,0.00230289,0.000961854,0.0,0.0,0.0,0.0
17224000,-0.00559746,0.00294356,0.0030679,0.0,0.0,0.0,0.0
17252000,0.00222062,-0.0034672,0.00553339,0.0,0.0,0.0,0.0
17284000,-0.000990826,0.0121386,-0.00177113,0.0,0.0,0.0,0.0
17316000,-0.0019703,0.00279591,-0.00183265,0.0,0.0,0.0,0.0
17348000,-0.00291972,0.00516653,-2.07291e-05,0.0,0.0,0.0,0.0
17376000,-0.00500588,0.00790052,0.00587224,0.0,0.0,0.0,0.0
17408000,-0.0014348,0.000143851,-0.000477408,0.0,0.0,0.0,0.0
17436000,-0.00463464,0.00162745,-0.00133498,0.0,0.0,0.0,0.0
17468000,0.000574106,0.00171474,-0.0095252,0.0,0.0,0.0,0.0
17500000,0.00823988,0.00911951,0.0104057,0.0,0.0,0.0,0.0
17532000,-0.00384252,-0.00712505,0.0107275,0.0,0.0,0.0,0.0
17564000,0.00142256,0.00206717,0.00106604,0.0,0.0,0.0,0.0
17592000,-0.0108975,0.000425163,-0.00658379,0.0,0.0,0.0,0.0
17624000,-0.000464749,0.00810229,-0.00701962,0.0,0.0,0.0,0.0
17652000,0.00270361,0.00468037,0.00374078,0.0,0.0,0.0,0.0
17680000,-0.00193943,0.00167373,0.00385925,0.0,0.0,0.0,0.0
17708000,-0.0063099,0.000137325,0.00458731,0.0,0.0,0.0,0.0
17740000,-0.000323818,0.00354195,-0.00163279,0.0,0.0,0.0,0.0
17772000,-0.00297979,-0.0058876,-0.0019782,0.0,0.0,0.0,0.0
17804000,0.00105472,0.00156293,-0.00122247,0.0,0.0,0.0,0.0
17832000,-0.00397362,-0.00220572,0.00824939,0.0,0.0,0.0,0.0
17864000,0.00271114,0.00487701,-0.00326299,0.0,0.0,0.0,0.0
17896000,0.00595502,-0.000429576,0.0031926,0.0,0.0,0.0,0.0
17928000,-0.00371104,0.000542918,-0.000853935,0.0,0.0,0.0,0.0
17956000,0.0011735,0.00614506,-0.000627147,0.0,0.0,0.0,0.0
17984000,-0.00484521,0.00454747,-0.0100507,0.0,0.0,0.0,0.0
18012000,-0.00205413,0.00122272,-0.000633084,0.0,0.0,0.0,0.0
18040000,-0.00758454,-0.00489528,-0.00452455,0.0,0.0,0.0,0.0
18072000,0.00793965,0.00895838,0.00118864,0.0,0.0,0.0,0.0
18100000,0.00598293,0.0107761,0.00352123,0.0,0.0,0.0,0.0
18132000,0.000615479,-0.00182176,0.0069315,0.0,0.0,0.0,0.0
18164000,-0.00852415,-0.000308156,-0.00379153,0.0,0.0,0.0,0.0
18196000,-0.00384417,-0.00103213,0.00439154,0.0,0.0,0.0,0.0
18228000,-0.000804933,-0.00281989,-0.00549,0.0,0.0,0.0,0.0
18260000,0.00337576,-0.0049061,0.0014034,0.0,0.0,0.0,0.0
18292000,-0.00661479,0.00147919,0.00834754,0.0,0.0,0.0,0.0
18324000,-0.000850198,-0.00217841,0.00643905,0.0,0.0,0.0,0.0
18356000,-0.0122024,0.00834113,3.22999e-05,0.0,0.0,0.0,0.0
18388000,0.00319702,-0.0161334,0.000851624,0.0,0.0,0.0,0.0
18420000,0.00847362,-0.00399344,-0.00484085,0.0,0.0,0.0,0.0
18452000,-0.00010494,-0.00563169,0.00288881,0.0,0.0,0.0,0.0
18484000,-0.000476567,0.00157805,0.00186539,0.0,0.0,0.0,0.0
18516000,-0.0010609,-0.00913561,0.00495141,0.0,0.0,0.0,0.0
18548000,-0.00397202,-0.00041464,-0.00933522,0.0,0.0,0.0,0.0
18580000,0.00286992,0.00154816,-0.000501571,0.0,0.0,0.0,0.0
18612000,-0.00113017,0.000840388,-0.002183,0.0,0.0,0.0,0.0
18640000,0.00320589,0.00365015,-0.00664097,0.0,0.0,0.0,0.0
18668000,0.00725029,-0.00420144,0.000208884,0.0,0.0,0.0,0.0
18700000,0.00195102,-0.00622377,-0.00679826,0.0,0.0,0.0,0.0
18728000,-0.00318822,-0.00191824,-0.00333685,0.0,0.0,0.0,0.0
18760000,-0.00246533,-0.00223011,0.000267707,0.0,0.0,0.0,0.0
18788000,-0.00566485,0.00622474,0.00332,0.0,0.0,0.0,0.0
18820000,-0.000152921,0.00510371,-0.00239392,0.0,0.0,0.0,0.0
18852000,-0.00249913,0.000693179,0.00332069,0.0,0.0,0.0,0.0
18884000,-0.000355319,-0.000677525,-0.00828289,0.0,0.0,0.0,0.0
18912000,-0.00354092,-0.0138415,0.00452433,0.0,0.0,0.0,0.0
18944000,0.00455541,0.00712086,-0.00364011,0.0,0.0,0.0,0.0
18976000,-0.00531708,0.00549125,0.00541242,0.0,0.0,0.0,0.0
19008000,0.00424646,0.00161897,-0.00309738,0.0,0.0,0.0,0.0
19040000,0.00171114,-0.0029463,-0.00335211,0.0,0.0,0.0,0.0
19072000,0.0111506,-0.00169698,0.000651186,0.0,0.0,0.0,0.0
19100000,-0.00866005,0.00200047,-0.000562438,0.0,0.0,0.0,0.0
19132000,-0.00707519,-0.00338232,0.00330924,0.0,0.0,0.0,0.0
19160000,0.00449679,-8.47881e-05,0.0056658,0.0,0.0,0.0,0.0
19188000,-0.0111078,-0.0101409,-0.00544392,0.0,0.0,0.0,0.0
19220000,-0.000221966,0.00499209,0.000691591,0.0,0.0,0.0,0.0
19252000,0.00287499,0.00129138,-0.000170236,0.0,0.0,0.0,0.0
19284000,-0.000253865,0.00456855,0.00633762,0.0,0.0,0.0,0.0
19316000,0.000803637,0.00117529,0.00894376,0.0,0.0,0.0,0.0
19344000,-0.00772831,0.0069194,-0.00165621,0.0,0.0,0.0,0.0
19372000,-0.00789732,0.0066995,0.00149477,0.0,0.0,0.0,0.0
19400000,0.00423453,0.00261959,0.00640881,0.0,0.0,0.0,0.0
19432000,0.00250009,-0.00431226,-0.0111385,0.0,0.0,0.0,0.0
19464000,0.00651513,0.00630574,0.00352133,0.0,0.0,0.0,0.0
19492000,-0.00393431,0.00572264,-0.0076495,0.0,0.0,0.0,0.0
19520000,0.00309874,-0.00309056,-0.0035507,0.0,0.0,0.0,0.0
19552000,0.0033984,1.23057e-05,0.00926953,0.0,0.0,0.0,0.0
19584000,-0.0105842,0.0019676,-0.00161356,0.0,0.0,0.0,0.0
19612000,0.00305315,-0.00909651,-0.000746246,0.0,0.0,0.0,0.0
19640000,-0.00989026,0.00421152,-0.000989128,0.0,0.0,0.0,0.0
19672000,0.00586964,-0.00530201,-0.0053504,0.0,0.0,0.0,0.0
19704000,-0.00549007,0.0036855,0.00346414,0.0,0.0,0.0,0.0
19736000,0.009806,0.00373035,-0.000637221,0.0,0.0,0.0,0.0
19764000,0.00203131,-0.00165709,-0.00330923,0.0,0.0,0.0,0.0
19796000,-0.00341945,-0.00140337,0.00732643,0.0,0.0,0.0,0.0
19828000,0.00631318,0.000866311,-0.00169077,0.0,0.0,0.0,0.0
19860000,0.00594205,0.00833713,0.00180508,0.0,0.0,0.0,0.0
19892000,0.000584978,-0.00581249,-0.000780222,0.0,0.0,0.0,0.0
19924000,-0.00821855,0.000812993,-0.00421248,0.0,0.0,0.0,0.0
19956000,-0.00330531,-0.00406212,-0.0048474,0.0,0.0,0.0,0.0
19988000,0.00800351,0.000244912,0.00427387,0.0,0.0,0.0,0.0
20020000,0.00191721,-0.00343631,-0.00347463,0.0,0.0,0.0,0.0
20048000,0.00167678,-0.00459766,0.000853068,0.0,0.0,0.0,0.0
20080000,0.00128581,0.00353634,-0.00523857,0.0,0.0,0.0,0.0
20112000,-0.000247999,0.00221107,0.00686028,0.0,0.0,0.0,0.0
20140000,0.000879012,0.00449805,0.00935648,0.0,0.0,0.0,0.0
20172000,0.00206336,-0.00601928,0.00443682,0.0,0.0,0.0,0.0
20200000,-0.000542866,-0.0036469,-0.0024914,0.0,0.0,0.0,0.0
20232000,0.00579873,-0.00166064,7.62911e-05,0.0,0.0,0.0,0.0
20264000,0.00114625,0.00352435,0.000806224,0.0,0.0,0.0,0.0
20296000,-0.000129223,0.00300639,0.00425001,0.0,0.0,0.0,0.0
20328000,0.00336404,0.00582056,0.00365645,0.0,0.0,0.0,0.0
20360000,7.4765e-05,-0.00203739,0.00984978,0.0,0.0,0.0,0.0
20392000,-0.0114532,-0.00326032,0.00886599,0.0,0.0,0.0,0.0
20420000,0.00518338,-0.00505126,-0.00994214,0.0,0.0,0.0,0.0
20452000,0.00321081,0.000696056,-0.00408372,0.0,0.0,0.0,0.0
20484000,0.00473289,0.00116364,-0.00229817,0.0,0.0,0.0,0.0
20516000,-0.0106132,-0.003991,-0.00543984,0.0,0.0,0.0,0.0
20548000,0.00433877,-0.00312322,-0.000926558,0.0,0.0,0.0,0.0
20580000,0.000289214,-0.00544409,-0.0076967,0.0,0.0,0.0,0.0
20608000,-0.00546591,0.00405771,0.00241575,0.0,0.0,0.0,0.0
20640000,-0.000519992,-0.00354791,-0.00279461,0.0,0.0,0.0,0.0
20668000,-0.00225449,0.000138421,-0.00132819,0.0,0.0,0.0,0.0
20696000,-0.00668738,-0.00157557,-0.00573739,0.0,0.0,0.0,0.0
20728000,0.00165177,0.00300933,0.00195608,0.0,0.0,0.0,0.0
20760000,0.00186605,-0.00201007,0.000505917,0.0,0.0,0.0,0.0
20792000,0.00873651,0.00872997,0.00223139,0.0,0.0,0.0,0.0
20824000,0.00553475,0.00101819,0.000452216,0.0,0.0,0.0,0.0
20856000,0.00390718,0.000739065,-0.00103658,0.0,0.0,0.0,0.0
20888000,0.000104939,0.00455005,-0.00554298,0.0,0.0,0.0,0.0
20920000,-0.00596672,-0.00532053,-0.0041737,0.0,0.0,0.0,0.0
20952000,0.00334737,0.00859922,-0.00140669,0.0,0.0,0.0,0.0
20984000,0.00364727,-0.00236065,-0.00059544,0.0,0.0,0.0,0.0
21016000,0.00125544,-0.00328709,-0.00595093,0.0,0.0,0.0,0.0
21044000,-0.00412552,-0.00664458,-0.00663677,0.0,0.0,0.0,0.0
21076000,-0.00127406,-5.41677e-05,-0.00188944,0.0,0.0,0.0,0.0
21104000,-0.00408896,0.00801125,-0.00390584,0.0,0.0,0.0,0.0
21136000,0.0042667,0.000679106,0.000711569,0.0,0.0,0.0,0.0
21168000,-0.00538267,-0.000838683,0.00231795,0.0,0.0,0.0,0.0
21200000,0.00451421,0.000652043,0.004997,0.0,0.0,0.0,0.0
21232000,-0.000739906,0.00188544,0.00345743,0.0,0.0,0.0,0.0
21264000,0.00428991,0.0069669,-0.00647582,0.0,0.0,0.0,0.0
21296000,-0.00187205,0.0049313,0.00112833,0.0,0.0,0.0,0.0
21328000,0.00634937,0.00283667,-0.00742013,0.0,0.0,0.0,0.0
21360000,0.00361297,-0.0035504,-0.00873135,0.0,0.0,0.0,0.0
21388000,0.000898568,0.00496384,0.00109901,0.0,0.0,0.0,0.0
21416000,0.00279935,-0.00134572,-0.00302859,0.0,0.0,0.0,0.0
21448000,-0.00327138,-0.000659359,0.00879385,0.0,0.0,0.0,0.0
21480000,-0.00786373,0.00555594,-0.0013955,0.0,0.0,0.0,0.0
21512000,0.00605795,8.67397e-05,-0.0038137,0.0,0.0,0.0,0.0
21544000,-0.00910358,0.00132043,-0.00251937,0.0,0.0,0.0,0.0
21576000,-0.000878504,-0.00035729,-0.00311823,0.0,0.0,0.0,0.0
21604000,-0.01025,-0.00539014,-0.00685748,0.0,0.0,0.0,0.0
21632000,0.00385153,-0.000173216,-0.00237261,0.0,0.0,0.0,0.0
21664000,-0.00143345,-0.00112005,-0.0130257,0.0,0.0,0.0,0.0
21696000,0.00492137,0.00542419,-0.00404264,0.0,0.0,0.0,0.0
21728000,0.000350583,-0.00118532,0.00745717,0.0,0.0,0.0,0.0
21760000,0.00129558,-0.00436987,7.51423e-05,0.0,0.0,0.0,0.0
21788000,0.00255584,0.00439988,0.00236926,0.0,0.0,0.0,0.0
21820000,-0.00192513,0.00888105,-0.000295209,0.0,0.0,0.0,0.0
21852000,0.00502127,4.38146e-05,-0.00867526,0.0,0.0,0.0,0.0
21884000,-0.00419375,-0.00121268,0.00766235,0.0,0.0,0.0,0.0
21916000,0.00607991,-0.00461851,0.00200703,0.0,0.0,0.0,0.0
21948000,-0.00125231,-0.00611648,0.00797877,0.0,0.0,0.0,0.0
21980000,0.00114378,0.00173917,0.00735874,0.0,0.0,0.0,0.0
22012000,-0.00294319,0.00587055,-0.00377353,0.0,0.0,0.0,0.0
22044000,0.00517197,0.000430788,-0.00164063,0.0,0.0,0.0,0.0
22072000,-0.00498804,-0.00823343,0.00432391,0.0,0.0,0.0,0.0
22100000,0.00137716,-7.23477e-05,0.00275794,0.0,0.0,0.0,0.0
22132000,0.00670311,-0.00109274,-0.0036621,0.0,0.0,0.0,0.0
22164000,0.00157175,0.00710651,0.000100014,0.0,0.0,0.0,0.0
22196000,0.00309103,0.000361426,-0.00134673,0.0,0.0,0.0,0.0
22228000,0.00604506,-0.00297786,-0.00099658,0.0,0.0,0.0,0.0
22260000,-0.00145921,-3.86251e-05,0.000964501,0.0,0.0,0.0,0.0
22292000,-0.00152993,0.00246258,0.00142498,0.0,0.0,0.0,0.0
22324000,0.00790832,0.0011222,0.00289069,0.0,0.0,0.0,0.0
22356000,-0.00485982,-0.00271172,-0.00384241,0.0,0.0,0.0,0.0
22388000,6.61057e-08,-0.000398067,-0.00330636,0.0,0.0,0.0,0.0
22420000,-0.00399587,0.00488682,-0.0052621,0.0,0.0,0.0,0.0
22452000,0.00103423,0.0178235,0.000284033,0.0,0.0,0.0,0.0
22480000,0.00640416,-0.0115456,0.00400941,0.0,0.0,0.0,0.0
22512000,0.00518958,-0.000130779,-0.00441687,0.0,0.0,0.0,0.0
22544000,0.00704129,0.00759229,0.000683292,0.0,0.0,0.0,0.0
22572000,-0.00830868,-0.00382729,0.00133482,0.0,0.0,0.0,0.0
22604000,-0.00411132,-0.00244803,-0.00956242,0.0,0.0,0.0,0.0
22632000,-0.000397863,-0.00109977,-0.00699753,0.0,0.0,0.0,0.0
22664000,0.00927542,0.00793795,-0.00322644,0.0,0.0,0.0,0.0
22692000,0.00527671,0.00232396,0.00894945,0.0,0.0,0.0,0.0
22724000,0.000982247,0.00511678,-0.0092464,0.0,0.0,0.0,0.0
22752000,0.00347515,-0.00315218,-0.00212698,0.0,0.0,0.0,0.0
22780000,0.00668394,0.000973744,9.646e-05,0.0,0.0,0.0,0.0
22812000,0.00192388,-0.00365128,-0.00421645,0.0,0.0,0.0,0.0
22840000,-0.000827758,-0.00250767,0.00769479,0.0,0.0,0.0,0.0
22868000,0.00511389,0.00541335,-0.00679921,0.0,0.0,0.0,0.0
22900000,-0.000518113,0.00228711,-0.00774493,0.0,0.0,0.0,0.0
22932000,-0.00214836,0.0101334,0.00177573,0.0,0.0,0.0,0.0
22964000,-0.0027026,-0.00229421,-4.01154e-05,0.0,0.0,0.0,0.0
22996000,0.00340895,0.000187331,0.00127755,0.0,0.0,0.0,0.0
23028000,-0.00930703,-0.0015288,-0.00702389,0.0,0.0,0.0,0.0
23056000,0.00785732,-0.00244199,0.0073119,0.0,0.0,0.0,0.0
23084000,0.00344254,-0.00794872,0.00172842,0.0,0.0,0.0,0.0
23112000,0.0101534,-0.0039794,0.00253237,0.0,0.0,0.0,0.0
23140000,-0.00259264,0.000953189,0.000736174,0.0,0.0,0.0,0.0
23168000,-0.00249507,0.00823894,-0.00284144,0.0,0.0,0.0,0.0
23200000,0.000380358,0.00279347,-0.000602538,0.0,0.0,0.0,0.0
23232000,0.00330813,-0.00590343,0.00462333,0.0,0.0,0.0,0.0
23264000,0.00625166,-0.00219536,-0.0014833,0.0,0.0,0.0,0.0
23296000,-0.00413562,0.0103875,0.00519819,0.0,0.0,0.0,0.0
23328000,-0.00172058,0.000238856,0.000540757,0.0,0.0,0.0,0.0
23356000,-0.00341589,-0.00643782,-0.00204656,0.0,0.0,0.0,0.0
23388000,0.00483372,-0.00408232,0.00124269,0.0,0.0,0.0,0.0
23416000,-0.00449732,-0.000164369,0.000992271,0.0,0.0,0.0,0.0
23448000,-0.00881497,0.000901149,-0.000711581,0.0,0.0,0.0,0.0
23480000,-0.000104565,0.00563572,0.00802625,0.0,0.0,0.0,0.0
23508000,0.00194567,0.000233874,-0.001578,0.0,0.0,0.0,0.0
23540000,-0.000576225,0.00466218,-0.000660718,0.0,0.0,0.0,0.0
23572000,-0.00534967,-0.000416543,-0.00311297,0.0,0.0,0.0,0.0
23604000,-0.00168407,0.00147051,-0.00154204,0.0,0.0,0.0,0.0
23636000,-0.00120229,0.00706541,-0.00614532,0.0,0.0,0.0,0.0
23668000,0.00890283,0.000494193,-0.00786661,0.0,0.0,0.0,0.0
23700000,-0.000421055,0.00551674,-0.00247592,0.0,0.0,0.0,0.0
23732000,-0.00513445,-0.000828311,-0.00102339,0.0,0.0,0.0,0.0
23764000,-0.0039416,-0.00660278,0.00902831,0.0,0.0,0.0,0.0
23792000,-8.09853e-05,-0.00263074,-0.00341982,0.0,0.0,0.0,0.0
23824000,-0.0032565,-8.91993e-05,-0.00708475,0.0,0.0,0.0,0.0
23856000,0.000770716,-0.00567774,0.004102,0.0,0.0,0.0,0.0
23888000,0.00828971,0.00679431,-0.00436277,0.0,0.0,0.0,0.0
23920000,-0.00322257,0.00491771,-0.00427345,0.0,0.0,0.0,0.0
23952000,-0.00245848,-0.00408634,-0.00266621,0.0,0.0,0.0,0.0
23984000,-0.00689025,0.00402365,-0.00506987,0.0,0.0,0.0,0.0
24012000,0.00105346,-0.0019378,-0.00482691,0.0,0.0,0.0,0.0
24040000,0.00141244,-0.00349066,0.00330509,0.0,0.0,0.0,0.0
24068000,4.28224e-05,-0.00758724,-0.00559632,0.0,0.0,0.0,0.0
24096000,-0.00164128,-0.00298563,0.010355,0.0,0.0,0.0,0.0
24128000,-0.00620685,0.00540312,0.000854841,0.0,0.0,0.0,0.0
24156000,0.00778079,0.00415731,0.0059253,0.0,0.0,0.0,0.0
24188000,0.00195954,0.00548647,0.0021238,0.0,0.0,0.0,0.0
24216000,-0.000768117,-0.00287485,-0.00219096,0.0,0.0,0.0,0.0
24244000,0.0113195,-0.00884138,0.00661025,0.0,0.0,0.0,0.0
24276000,0.00831396,0.00530403,-0.0064319,0.0,0.0,0.0,0.0
24308000,-0.0037636,0.00645376,-0.00433295,0.0,0.0,0.0,0.0
24340000,-0.000138886,0.000343222,0.00214133,0.0,0.0,0.0,0.0
24372000,-0.0135239,0.00954596,0.00722818,0.0,0.0,0.0,0.0
24404000,-0.000780044,0.00632494,0.0065125,0.0,0.0,0.0,0.0
24436000,-0.00615989,-0.00535543,-0.00466328,0.0,0.0,0.0,0.0
24468000,0.00538945,0.000580169,-0.00491845,0.0,0.0,0.0,0.0
24500000,-0.0014454,0.00473084,-0.00226909,0.0,0.0,0.0,0.0
24532000,-0.01117,-0.00254925,-0.00251388,0.0,0.0,0.0,0.0
24564000,0.00862101,-0.00268099,-0.00179416,0.0,0.0,0.0,0.0
24592000,-0.00337822,0.000448732,-0.0140856,0.0,0.0,0.0,0.0
24620000,-0.00495857,-0.00261717,-0.00412721,0.0,0.0,0.0,0.0
24648000,0.00130409,0.0129679,-0.00887714,0.0,0.0,0.0,0.0
24676000,-0.00673042,0.00400708,0.000296888,0.0,0.0,0.0,0.0
24708000,0.000286278,0.00218614,0.00135862,0.0,0.0,0.0,0.0
24740000,0.0040535,-0.0006228,-0.00520692,0.0,0.0,0.0,0.0
24772000,-0.00325498,-0.00396133,-0.00178397,0.0,0.0,0.0,0.0
24800000,-0.0026196,-0.00419414,-0.000184196,0.0,0.0,0.0,0.0
24832000,-0.00484551,0.00388197,0.000299485,0.0,0.0,0.0,0.0
24860000,-0.0102798,0.00367041,-0.00527041,0.0,0.0,0.0,0.0
24892000,0.00527629,0.00116268,0.00684119,0.0,0.0,0.0,0.0
24924000,0.00808798,-0.00720328,0.000903773,0.0,0.0,0.0,0.0
24956000,-0.00463807,-0.0128744,-0.00622849,0.0,0.0,0.0,0.0
24988000,0.00445417,0.00215516,0.00377103,0.0,0.0,0.0,0.0
25016000,0.00163077,0.00467475,0.00170335,0.0,0.0,0.0,0.0
25044000,0.00493805,-0.00522578,-0.00802918,0.0,0.0,0.0,0.0
25072000,0.00740138,-0.0071697,0.00316693,0.0,0.0,0.0,0.0
25104000,-0.00159473,-0.00121469,-0.00702611,0.0,0.0,0.0,0.0
25132000,0.00854894,0.0062712,0.0062934,0.0,0.0,0.0,0.0
25160000,0.00184866,0.000795981,0.00267591,0.0,0.0,0.0,0.0
25188000,-0.00166832,0.000140684,-0.00646748,0.0,0.0,0.0,0.0
25220000,-0.000582873,-0.00351269,6.57608e-05,0.0,0.0,0.0,0.0
25248000,0.0102228,0.00652806,-0.00215378,0.0,0.0,0.0,0.0
25280000,0.0031126,-0.0018515,-0.00188588,0.0,0.0,0.0,0.0
25312000,-0.00593078,0.00295068,0.00139953,0.0,0.0,0.0,0.0
25344000,-2.69784e-05,0.00303895,0.000270515,0.0,0.0,0.0,0.0
25376000,0.00402732,-0.00834042,-0.00203498,0.0,0.0,0.0,0.0
25404000,-0.00266314,0.00190301,0.00644923,0.0,0.0,0.0,0.0
25436000,-0.00660705,0.0016723,0.00561808,0.0,0.0,0.0,0.0
25464000,0.00311242,0.00394445,0.0020666,0.0,0.0,0.0,0.0
25496000,-0.00762853,0.00574834,0.000276177,0.0,0.0,0.0,0.0
25528000,-0.00417878,0.00597976,-0.00413231,0.0,0.0,0.0,0.0
25560000,0.000708697,-0.00764901,-0.00791523,0.0,0.0,0.0,0.0
25592000,0.000313738,0.00470497,0.00192727,0.0,0.0,0.0,0.0
25620000,0.000585603,-9.28327e-05,0.000189307,0.0,0.0,0.0,0.0
25652000,0.00660103,0.0165044,0.00459858,0.0,0.0,0.0,0.0
25684000,-0.00607289,0.0039001,-0.000628739,0.0,0.0,0.0,0.0
25712000,-0.00239189,-0.00430871,-0.00255606,0.0,0.0,0.0,0.0
25740000,0.00490055,-0.00403127,0.0052473,0.0,0.0,0.0,0.0
25772000,-0.00354024,0.00271031,0.000774056,0.0,0.0,0.0,0.0
25804000,0.000681293,0.00181869,0.00118901,0.0,0.0,0.0,0.0
25836000,0.00138241,0.000324027,0.00188468,0.0,0.0,0.0,0.0
25864000,0.00218066,-0.00117715,-0.00658831,0.0,0.0,0.0,0.0
25896000,0.00435659,-0.000280016,0.00711145,0.0,0.0,0.0,0.0
25928000,-0.00271131,-0.00187049,0.00121106,0.0,0.0,0.0,0.0
25956000,0.000654148,0.000175689,0.00104165,0.0,0.0,0.0,0.0
25988000,-0.0051135,-0.00357494,0.000391083,0.0,0.0,0.0,0.0
26016000,0.00306123,-7.86668e-05,-0.00909002,0.0,0.0,0.0,0.0
26048000,-0.000978973,0.00456001,-0.00410071,0.0,0.0,0.0,0.0
26080000,-0.00154736,0.00180843,-0.00152057,0.0,0.0,0.0,0.0
26108000,-0.00315566,-0.00208328,0.00175309,0.0,0.0,0.0,0.0
26140000,0.000689011,-0.00339417,0.000249008,0.0,0.0,0.0,0.0
26168000,-0.00431092,-0.000753233,-0.000333971,0.0,0.0,0.0,0.0
26196000,-0.00254413,0.00779803,0.0027421,0.0,0.0,0.0,0.0
26228000,0.0086142,0.00944704,-0.00172386,0.0,0.0,0.0,0.0
26260000,0.000480433,0.00245158,0.00436375,0.0,0.0,0.0,0.0
26292000,-0.00293796,-0.0036268,0.000149209,0.0,0.0,0.0,0.0
26320000,0.00145131,-0.00510964,0.00532841,0.0,0.0,0.0,0.0
26348000,0.00549347,-0.00378505,0.00351938,0.0,0.0,0.0,0.0
26380000,-0.00549586,-0.000649236,0.00182726,0.0,0.0,0.0,0.0
26412000,-0.000788058,-0.0062762,-0.00415607,0.0,0.0,0.0,0.0
26444000,0.00629515,-0.00207693,-0.000199753,0.0,0.0,0.0,0.0
26472000,-0.0030538,0.00249349,0.00168786,0.0,0.0,0.0,0.0
26500000,-0.00568206,0.00497258,-0.00248046,0.0,0.0,0.0,0.0
26528000,0.00401305,0.00367031,0.000998417,0.0,0.0,0.0,0.0
26556000,-8.31565e-05,-0.000445434,-0.00341573,0.0,0.0,0.0,0.0
26588000,-0.00750454,0.00119577,0.000898794,0.0,0.0,0.0,0.0
26616000,-0.00938059,-0.00410619,0.00362357,0.0,0.0,0.0,0.0
26644000,-0.0044855,0.0135736,-0.00313564,0.0,0.0,0.0,0.0
26676000,0.00272642,0.00101246,0.00210941,0.0,0.0,0.0,0.0
26708000,0.00663319,0.00206367,0.00226032,0.0,0.0,0.0,0.0
26736000,-0.00464506,-0.0030687,-0.00633648,0.0,0.0,0.0,0.0
26768000,0.00844782,0.00776644,-0.00111109,0.0,0.0,0.0,0.0
26796000,-5.408e-05,-0.00298268,0.00522008,0.0,0.0,0.0,0.0
26824000,-0.00345904,-0.006198,0.0103971,0.0,0.0,0.0,0.0
26852000,0.00112884,-0.00825057,0.000843063,0.0,0.0,0.0,0.0
26884000,0.00198013,0.00371019,-0.00454219,0.0,0.0,0.0,0.0
26912000,-0.00223851,0.00394694,0.00935492,0.0,0.0,0.0,0.0
26944000,0.00122632,-0.000118581,0.00487686,0.0,0.0,0.0,0.0
26976000,-0.0010061,0.00882833,0.00110766,0.0,0.0,0.0,0.0
27008000,0.00591613,0.00478976,0.00774306,0.0,0.0,0.0,0.0
27036000,-0.0100178,-0.00454789,-0.00180784,0.0,0.0,0.0,0.0
27068000,-0.000853608,0.00737468,0.00812132,0.0,0.0,0.0,0.0
27100000,0.00126513,0.00835788,-0.00190176,0.0,0.0,0.0,0.0
27128000,0.000488143,0.00821568,0.00369533,0.0,0.0,0.0,0.0
27160000,0.00576964,0.00632038,-0.00437965,0.0,0.0,0.0,0.0
27192000,0.00264101,0.00402065,-0.00443059,0.0,0.0,0.0,0.0
27224000,-0.000903498,-0.014015,-0.00784044,0.0,0.0,0.0,0.0
27256000,0.00021622,0.000291367,0.00925854,0.0,0.0,0.0,0.0
27284000,-0.0018761,0.00620779,0.000627447,0.0,0.0,0.0,0.0
27316000,-0.00087083,-0.000638762,0.00486173,0.0,0.0,0.0,0.0
27344000,-0.00331852,0.00265082,0.0014195,0.0,0.0,0.0,0.0
27376000,0.00465684,0.00505113,-0.00258501,0.0,0.0,0.0,0.0
27408000,-0.00330876,0.000183151,-0.0053271,0.0,0.0,0.0,0.0
27436000,0.00418208,-0.00438571,0.000568156,0.0,0.0,0.0,0.0
27464000,0.00693971,-0.00735722,-0.00140811,0.0,0.0,0.0,0.0
27496000,-0.00637088,-0.00312437,-0.00164146,0.0,0.0,0.0,0.0
27528000,0.00194397,-0.00383319,0.00281916,0.0,0.0,0.0,0.0
27560000,-0.00290883,-0.00851873,0.00105606,0.0,0.0,0.0,0.0
27592000,0.00743574,0.00267693,0.00579098,0.0,0.0,0.0,0.0
27620000,0.00204149,-0.00355164,0.00274266,0.0,0.0,0.0,0.0
27652000,-0.000824588,-0.000491783,0.00389984,0.0,0.0,0.0,0.0
27680000,0.00234703,0.00716971,-0.00664068,0.0,0.0,0.0,0.0
27708000,0.00413221,0.00371193,0.0030061,0.0,0.0,0.0,0.0
27740000,0.0114618,-0.00779642,0.0123303,0.0,0.0,0.0,0.0
27772000,0.0061048,0.00570455,0.00109474,0.0,0.0,0.0,0.0
27800000,-0.00369537,0.00298766,-0.00209537,0.0,0.0,0.0,0.0
27828000,0.00360772,-0.00221522,0.00852087,0.0,0.0,0.0,0.0
27860000,-0.00168612,0.00515099,-0.00954758,0.0,0.0,0.0,0.0
27892000,0.00270764,0.00547868,0.00607186,0.0,0.0,0.0,0.0
27924000,-6.04862e-05,0.000731819,0.000333188,0.0,0.0,0.0,0.0
27956000,0.00780178,0.00155236,-0.00625702,0.0,0.0,0.0,0.0
27988000,0.0035954,0.00346544,0.00494216,0.0,0.0,0.0,0.0
28020000,0.00287849,-0.000568759,-0.00355275,0.0,0.0,0.0,0.0
28052000,-0.0066976,-0.0133516,-0.00559039,0.0,0.0,0.0,0.0
28084000,-0.00149477,0.00296314,0.00105476,0.0,0.0,0.0,0.0
28116000,-0.00147299,0.00815667,-0.00381868,0.0,0.0,0.0,0.0
28148000,-0.00424266,0.00953805,0.00454903,0.0,0.0,0.0,0.0
28180000,-0.0036809,0.00266777,0.00523331,0.0,0.0,0.0,0.0
28208000,0.00508003,0.00357572,0.000376461,0.0,0.0,0.0,0.0
28236000,-0.00264993,-0.00285689,0.00436585,0.0,0.0,0.0,0.0
28268000,0.0063246,0.0070764,-0.00515473,0.0,0.0,0.0,0.0
28300000,0.00415747,0.00490119,-0.00567391,0.0,0.0,0.0,0.0
28328000,-0.000481572,-0.000346122,0.00703762,0.0,0.0,0.0,0.0
28360000,0.00262779,0.00750821,-0.00689115,0.0,0.0,0.0,0.0
28392000,0.000467222,-0.000139268,0.00196224,0.0,0.0,0.0,0.0
28424000,-0.00246841,0.00330467,-0.00795556,0.0,0.0,0.0,0.0
28456000,-0.00531245,-0.00149916,-0.00153455,0.0,0.0,0.0,0.0
28488000,0.00601069,-0.000790635,-0.00557504,0.0,0.0,0.0,0.0
28520000,-0.00273363,-0.00559652,0.00470176,0.0,0.0,0.0,0.0
28552000,0.00191538,-0.00322101,0.00517154,0.0,0.0,0.0,0.0
28584000,0.00863037,-0.00197766,-0.00651136,0.0,0.0,0.0,0.0
28612000,-0.00787939,-0.00309706,-0.000588386,0.0,0.0,0.0,0.0
28644000,-0.00127274,-0.00394673,0.00235256,0.0,0.0,0.0,0.0
28676000,0.0013406,-0.00459481,0.00486869,0.0,0.0,0.0,0.0
28704000,0.00222006,-0.000722666,0.000597502,0.0,0.0,0.0,0.0
28732000,-0.00151742,-0.00759759,0.00312364,0.0,0.0,0.0,0.0
28760000,0.00194665,0.00350324,0.00075854,0.0,0.0,0.0,0.0
28792000,-0.0050638,0.000419458,0.00150359,0.0,0.0,0.0,0.0
28824000,-0.00108652,0.00228097,-0.00392017,0.0,0.0,0.0,0.0
28856000,-0.000580136,0.00158899,0.00369062,0.0,0.0,0.0,0.0
28888000,-0.00290064,-0.004582,-0.00892622,0.0,0.0,0.0,0.0
28916000,-0.00452561,-0.00339173,-0.00272713,0.0,0.0,0.0,0.0
28948000,-0.00165338,0.00306218,-0.000552466,0.0,0.0,0.0,0.0
28976000,-0.0101374,0.00351498,0.00755214,0.0,0.0,0.0,0.0
29008000,-0.00237001,-0.00432096,0.000733454,0.0,0.0,0.0,0.0
29040000,-0.00221125,-0.00161602,-0.00246185,0.0,0.0,0.0,0.0
29072000,0.0005998,0.00325796,0.00232307,0.0,0.0,0.0,0.0
29104000,-0.00759585,0.00160004,0.00355665,0.0,0.0,0.0,0.0
29136000,0.00717536,0.0113551,0.00231582,0.0,0.0,0.0,0.0
29164000,-0.000192951,-0.00879402,0.000149918,0.0,0.0,0.0,0.0
29196000,-0.00128178,-0.00516448,0.000366517,0.0,0.0,0.0,0.0
29224000,-0.00683091,-0.00206416,-0.00669444,0.0,0.0,0.0,0.0
29252000,-0.00597582,-0.00738987,-3.77956e-05,0.0,0.0,0.0,0.0
29280000,0.00135602,0.0045881,-0.00188838,0.0,0.0,0.0,0.0
29312000,0.000696672,0.00236666,-0.00139991,0.0,0.0,0.0,0.0
29344000,0.00424506,-0.000376515,0.000750406,0.0,0.0,0.0,0.0
29376000,0.000392261,0.01248,-0.00516921,0.0,0.0,0.0,0.0
29408000,0.00519349,-0.00405895,-0.00750211,0.0,0.0,0.0,0.0
29440000,-0.00313059,-5.51426e-05,-0.00797208,0.0,0.0,0.0,0.0
29472000,-0.00559534,0.00369153,0.0073246,0.0,0.0,0.0,0.0
29504000,-0.00651923,-0.000610164,-0.00198751,0.0,0.0,0.0,0.0
29532000,0.00166667,0.000281931,0.00439804,0.0,0.0,0.0,0.0
29560000,0.00161019,0.000592318,-0.000695316,0.0,0.0,0.0,0.0
29592000,0.000981707,-0.00781076,0.00269207,0.0,0.0,0.0,0.0
29624000,0.0023982,-3.96238e-05,-0.000167957,0.0,0.0,0.0,0.0
29656000,0.0088456,-0.000718034,0.00171646,0.0,0.0,0.0,0.0
29688000,-0.0082752,0.000621285,0.0114696,0.0,0.0,0.0,0.0
29720000,0.00197628,-0.00509832,-0.00336037,0.0,0.0,0.0,0.0
29752000,0.00534716,-0.00269642,0.00474587,0.0,0.0,0.0,0.0
29784000,-0.00250219,0.00696457,8.02483e-05,0.0,0.0,0.0,0.0
29812000,0.00606853,-0.000993836,0.0034819,0.0,0.0,0.0,0.0
29844000,0.00152454,0.000602198,0.00913008,0.0,0.0,0.0,0.0
29872000,-0.00146816,0.00425189,0.00332615,0.0,0.0,0.0,0.0
29900000,-0.00401065,-0.00188467,-0.00538639,0.0,0.0,0.0,0.0
29928000,0.0062845,-0.00591192,0.00265884,0.0,0.0,0.0,0.0
29960000,0.00116891,-0.00579405,0.00689794,0.0,0.0,0.0,0.0
29992000,0.00975014,0.0033821,0.000678418,0.0,0.0,0.0,0.0
30024000,0.00888993,-0.00779141,0.00473353,0.0,0.0,0.0,0.0
30052000,-0.00362741,-0.0018658,0.00876015,0.0,0.0,0.0,0.0
30084000,-0.000242856,0.00496239,-0.00182701,0.0,0.0,0.0,0.0
30116000,0.000837269,0.00597612,-0.00521768,0.0,0.0,0.0,0.0
30148000,0.00264278,-0.00900844,0.000579537,0.0,0.0,0.0,0.0
30180000,0.00637998,0.00153932,0.0029437,0.0,0.0,0.0,0.0
30208000,-0.0065674,-0.00491594,0.00326745,0.0,0.0,0.0,0.0
30240000,0.00647359,0.00899171,0.00184695,0.0,0.0,0.0,0.0
30272000,0.00724882,-0.0093187,-0.00123981,0.0,0.0,0.0,0.0
30300000,0.00324516,-0.00165994,-0.00303781,0.0,0.0,0.0,0.0
30332000,-0.00149369,-0.00375996,0.00847644,0.0,0.0,0.0,0.0
30364000,0.0024497,-0.000803958,0.00168777,0.0,0.0,0.0,0.0
30396000,-0.00469474,-1.19995e-05,0.00644661,0.0,0.0,0.0,0.0
30428000,-0.00666305,-0.00801313,0.000395166,0.0,0.0,0.0,0.0
30456000,3.81449e-05,0.0110016,0.006602,0.0,0.0,0.0,0.0
30488000,-0.00385217,-0.00990451,0.0007388,0.0,0.0,0.0,0.0
30520000,0.00513099,0.00672811,0.00629253,0.0,0.0,0.0,0.0
30552000,-0.00379281,-0.00396898,-0.00433546,0.0,0.0,0.0,0.0
30580000,-0.00198206,-0.00196571,-0.000291604,0.0,0.0,0.0,0.0
30612000,0.00640932,0.000443395,-0.00298619,0.0,0.0,0.0,0.0
30644000,0.00773392,-0.010314,0.00287853,0.0,0.0,0.0,0.0
30676000,0.00217616,-0.00362794,0.00484011,0.0,0.0,0.0,0.0
30708000,-0.00326703,-0.000299087,0.00346713,0.0,0.0,0.0,0.0
30740000,-0.00189761,0.00658992,-0.00412963,0.0,0.0,0.0,0.0
30772000,0.00284929,0.00332399,0.00659397,0.0,0.0,0.0,0.0
30804000,0.0120167,0.00367768,-0.00136979,0.0,0.0,0.0,0.0
30836000,0.00509135,-0.00827215,-0.00138183,0.0,0.0,0.0,0.0
30864000,0.0112761,-0.00473462,-0.00801138,0.0,0.0,0.0,0.0
30892000,0.00368477,0.00648717,-0.00654038,0.0,0.0,0.0,0.0
