timestamp,vel_pos_innov[0],vel_pos_innov[1],vel_pos_innov[2],vel_pos_innov[3],vel_pos_innov[4],vel_pos_innov[5],mag_innov[0],mag_innov[1],mag_innov[2],heading_innov,airspeed_innov,beta_innov,flow_innov[0],flow_innov[1],hagl_innov,vel_pos_innov_var[0],vel_pos_innov_var[1],vel_pos_innov_var[2],vel_pos_innov_var[3],vel_pos_innov_var[4],vel_pos_innov_var[5],mag_innov_var[0],mag_innov_var[1],mag_innov_var[2],heading_innov_var,airspeed_innov_var,beta_innov_var,flow_innov_var[0],flow_innov_var[1],hagl_innov_var,output_tracking_error[0],output_tracking_error[1],output_tracking_error[2],drag_innov[0],drag_innov[1],drag_innov_var[0],drag_innov_var[1],aux_vel_innov[0],aux_vel_innov[1]
1252000,0.0,0.0,0.0,4.13047e-05,-9.97589e-05,-0.015625,0.0,0.0,0.0,-0.000434288,0.0,0.0,0.0,0.0,0.0,0.0,0.0,0.0,0.302407,0.302407,4.22874,0.0,0.0,0.0,0.0932335,0.0,0.0,0.0,0.0,0.0,0.000503227,0.00883382,0.0231271,0.0,0.0,0.0,0.0,0.0,0.0
1444000,0.0,0.0,0.0,-1.34283e-05,4.51268e-05,-0.015564,0.0,0.0,0.0,0.00173008,0.0,0.0,0.0,0.0,0.0,0.0,0.0,0.0,0.286331,0.286331,4.19285,0.0,0.0,0.0,0.0924547,0.0,0.0,0.0,0.0,0.0,0.000156858,0.00515134,0.0157067,0.0,0.0,0.0,0.0,0.0,0.0
1636000,0.0,0.0,0.0,-0.000260311,0.000284623,0.0704041,0.0,0.0,0.0,-0.00486275,0.0,0.0,0.0,0.0,0.0,0.0,0.0,0.0,0.278365,0.278365,4.18638,0.0,0.0,0.0,0.0920286,0.0,0.0,0.0,0.0,0.0,0.00013709,0.0027193,0.00964548,0.0,0.0,0.0,0.0,0.0,0.0
1828000,0.0,0.0,0.0,-0.000713983,0.000375006,0.00485229,0.0,0.0,0.0,-0.000336199,0.0,0.0,0.0,0.0,0.0,0.0,0.0,0.0,0.272565,0.272565,4.18473,0.0,0.0,0.0,0.0917052,0.0,0.0,0.0,0.0,0.0,0.000449207,0.00756899,0.00489684,0.0,0.0,0.0,0.0,0.0,0.0
2020000,0.0,0.0,0.0,-0.0012786,0.0004872,-0.0136414,0.0,0.0,0.0,0.00186944,0.0,0.0,0.0,0.0,0.0,0.0,0.0,0.0,0.269527,0.269527,4.18605,0.0,0.0,0.0,0.0914784,0.0,0.0,0.0,0.0,0.0,0.000198069,0.00394877,0.00411596,0.0,0.0,0.0,0.0,0.0,0.0
2212000,0.0,0.0,0.0,-0.00178939,0.000709359,0.00897217,0.0,0.0,0.0,-0.0020292,0.0,0.0,0.0,0.0,0.0,0.0,0.0,0.0,0.267703,0.267703,4.18423,0.0,0.0,0.0,0.0913142,0.0,0.0,0.0,0.0,0.0,0.000218202,0.00421517,0.00513014,0.0,0.0,0.0,0.0,0.0,0.0
2404000,0.0,0.0,0.0,-0.00207874,0.00055311,-0.0335388,0.0,0.0,0.0,0.00117035,0.0,0.0,0.0,0.0,0.0,0.0,0.0,0.0,0.26646,0.26646,4.17714,0.0,0.0,0.0,0.0911902,0.0,0.0,0.0,0.0,0.0,5.55057e-05,0.00257866,0.00219099,0.0,0.0,0.0,0.0,0.0,0.0
2596000,0.0,0.0,0.0,-0.00254148,0.000154627,0.0599976,0.0,0.0,0.0,-0.00177141,0.0,0.0,0.0,0.0,0.0,0.0,0.0,0.0,0.266169,0.266169,4.17139,0.0,0.0,0.0,0.0911057,0.0,0.0,0.0,0.0,0.0,7.3768e-05,0.00396776,0.00468803,0.0,0.0,0.0,0.0,0.0,0.0
2788000,0.0,0.0,0.0,-0.00307038,-0.000355498,-0.0179138,0.0,0.0,0.0,-0.00464962,0.0,0.0,0.0,0.0,0.0,0.0,0.0,0.0,0.266344,0.266344,4.16496,0.0,0.0,0.0,0.091032,0.0,0.0,0.0,0.0,0.0,0.000107472,0.0029031,0.00260388,0.0,0.0,0.0,0.0,0.0,0.0
2980000,0.0,0.0,0.0,-0.00349489,-0.00100546,-0.0600891,0.0,0.0,0.0,0.00388012,0.0,0.0,0.0,0.0,0.0,0.0,0.0,0.0,0.266352,0.266352,4.15681,0.0,0.0,0.0,0.0909752,0.0,0.0,0.0,0.0,0.0,0.000173501,0.00356369,0.00405168,0.0,0.0,0.0,0.0,0.0,0.0
3172000,0.0,0.0,0.0,-0.00406216,-0.00177768,-0.103119,0.0,0.0,0.0,-0.00286529,0.0,0.0,0.0,0.0,0.0,0.0,0.0,0.0,0.266798,0.266798,4.15157,0.0,0.0,0.0,0.0909297,0.0,0.0,0.0,0.0,0.0,0.00022503,0.00443781,0.00494886,0.0,0.0,0.0,0.0,0.0,0.0
3372000,0.0,0.0,0.0,-0.00389907,-0.00195442,-0.0429077,0.0,0.0,0.0,0.00598578,0.0,0.0,0.0,0.0,0.0,0.0,0.0,0.0,0.267074,0.267074,4.1471,0.0,0.0,0.0,0.0908963,0.0,0.0,0.0,0.0,0.0,0.000288901,0.00519718,0.00537584,0.0,0.0,0.0,0.0,0.0,0.0
3564000,0.0,0.0,0.0,-0.00329389,-0.0019048,0.0122681,0.0,0.0,0.0,0.0014528,0.0,0.0,0.0,0.0,0.0,0.0,0.0,0.0,0.266738,0.266738,4.14181,0.0,0.0,0.0,0.090873,0.0,0.0,0.0,0.0,0.0,0.000458946,0.00413986,0.00396144,0.0,0.0,0.0,0.0,0.0,0.0
3756000,0.0,0.0,0.0,-0.00277895,-0.00193663,0.0322876,0.0,0.0,0.0,0.00769698,0.0,0.0,0.0,0.0,0.0,0.0,0.0,0.0,0.2666,0.2666,4.13907,0.0,0.0,0.0,0.0908536,0.0,0.0,0.0,0.0,0.0,0.000617151,0.00484638,0.00559327,0.0,0.0,0.0,0.0,0.0,0.0
3948000,0.0,0.0,0.0,-0.00213102,-0.00182776,-0.000518799,0.0,0.0,0.0,0.00224266,0.0,0.0,0.0,0.0,0.0,0.0,0.0,0.0,0.266093,0.266093,4.13562,0.0,0.0,0.0,0.0908395,0.0,0.0,0.0,0.0,0.0,0.000576009,0.0055566,0.00778992,0.0,0.0,0.0,0.0,0.0,0.0
4140000,0.0,0.0,0.0,-0.00139623,-0.00142562,0.00747681,0.0,0.0,0.0,0.00231882,0.0,0.0,0.0,0.0,0.0,0.0,0.0,0.0,0.265903,0.265903,4.13447,0.0,0.0,0.0,0.0908322,0.0,0.0,0.0,0.0,0.0,0.000361152,0.00487543,0.00755002,0.0,0.0,0.0,0.0,0.0,0.0
4332000,0.0,0.0,0.0,-0.000522402,-0.00119926,-0.0278625,0.0,0.0,0.0,-0.000505933,0.0,0.0,0.0,0.0,0.0,0.0,0.0,0.0,0.265665,0.265664,4.13377,0.0,0.0,0.0,0.0908227,0.0,0.0,0.0,0.0,0.0,0.000211179,0.00149551,0.00290908,0.0,0.0,0.0,0.0,0.0,0.0
4524000,0.0,0.0,0.0,0.000186333,-0.00112506,-0.0195007,0.0,0.0,0.0,-0.00929242,0.0,0.0,0.0,0.0,0.0,0.0,0.0,0.0,0.265409,0.265409,4.13315,0.0,0.0,0.0,0.0908205,0.0,0.0,0.0,0.0,0.0,0.000141111,0.00540646,0.00693335,0.0,0.0,0.0,0.0,0.0,0.0
4716000,0.0,0.0,0.0,0.00111501,-0.00141813,0.00701904,0.0,0.0,0.0,0.00473694,0.0,0.0,0.0,0.0,0.0,0.0,0.0,0.0,0.265173,0.265173,4.13288,0.0,0.0,0.0,0.0908176,0.0,0.0,0.0,0.0,0.0,0.00012663,0.00249581,0.00336388,0.0,0.0,0.0,0.0,0.0,0.0
4908000,0.0,0.0,0.0,0.00186963,-0.00181258,0.0223389,0.0,0.0,0.0,0.00140901,0.0,0.0,0.0,0.0,0.0,0.0,0.0,0.0,0.26467,0.26467,4.13112,0.0,0.0,0.0,0.0908136,0.0,0.0,0.0,0.0,0.0,0.000190726,0.00491451,0.00725892,0.0,0.0,0.0,0.0,0.0,0.0
5100000,0.0,0.0,0.0,0.0025896,-0.00252568,0.0177307,0.0,0.0,0.0,0.00159995,0.0,0.0,0.0,0.0,0.0,0.0,0.0,0.0,0.264524,0.264524,4.13086,0.0,0.0,0.0,0.0908132,0.0,0.0,0.0,0.0,0.0,0.000283463,0.00458524,0.00632567,0.0,0.0,0.0,0.0,0.0,0.0
5292000,0.0,0.0,0.0,0.00304835,-0.00293098,-0.026123,0.0,0.0,0.0,0.000483971,0.0,0.0,0.0,0.0,0.0,0.0,0.0,0.0,0.264353,0.264353,4.13016,0.0,0.0,0.0,0.0908128,0.0,0.0,0.0,0.0,0.0,0.000324159,0.00416755,0.00503682,0.0,0.0,0.0,0.0,0.0,0.0
5492000,0.0,0.0,0.0,0.00335173,-0.00326189,0.0205994,0.0,0.0,0.0,-0.00250485,0.0,0.0,0.0,0.0,0.0,0.0,0.0,0.0,0.264261,0.264261,4.12958,0.0,0.0,0.0,0.0908132,0.0,0.0,0.0,0.0,0.0,0.000402584,0.00533421,0.00620862,0.0,0.0,0.0,0.0,0.0,0.0
5684000,0.0,0.0,0.0,0.00353624,-0.00342918,-0.0156555,0.0,0.0,0.0,-0.000786409,0.0,0.0,0.0,0.0,0.0,0.0,0.0,0.0,0.264181,0.264181,4.12876,0.0,0.0,0.0,0.0908138,0.0,0.0,0.0,0.0,0.0,0.000500206,0.00430452,0.0044765,0.0,0.0,0.0,0.0,0.0,0.0
5876000,0.0,0.0,0.0,0.00376575,-0.00341276,-0.0146484,0.0,0.0,0.0,-0.00327503,0.0,0.0,0.0,0.0,0.0,0.0,0.0,0.0,0.263835,0.263835,4.12632,0.0,0.0,0.0,0.0908116,0.0,0.0,0.0,0.0,0.0,0.000494426,0.00432061,0.0044384,0.0,0.0,0.0,0.0,0.0,0.0
6068000,0.0,0.0,0.0,0.00420186,-0.00327649,0.022522,0.0,0.0,0.0,0.000647555,0.0,0.0,0.0,0.0,0.0,0.0,0.0,0.0,0.263773,0.263773,4.12511,0.0,0.0,0.0,0.0908117,0.0,0.0,0.0,0.0,0.0,0.000542408,0.00520525,0.00647724,0.0,0.0,0.0,0.0,0.0,0.0
6260000,0.0,0.0,0.0,0.00401358,-0.00305549,-0.0393982,0.0,0.0,0.0,-0.00301907,0.0,0.0,0.0,0.0,0.0,0.0,0.0,0.0,0.263649,0.263649,4.12357,0.0,0.0,0.0,0.0908109,0.0,0.0,0.0,0.0,0.0,0.000583319,0.00387314,0.00399986,0.0,0.0,0.0,0.0,0.0,0.0
6452000,0.0,0.0,0.0,0.00338644,-0.00257158,0.0347595,0.0,0.0,0.0,-0.00229329,0.0,0.0,0.0,0.0,0.0,0.0,0.0,0.0,0.263564,0.263564,4.12201,0.0,0.0,0.0,0.0908102,0.0,0.0,0.0,0.0,0.0,0.000650995,0.00345712,0.00382064,0.0,0.0,0.0,0.0,0.0,0.0
6644000,0.0,0.0,0.0,0.00317444,-0.00196441,-0.0122681,0.0,0.0,0.0,-0.00334151,0.0,0.0,0.0,0.0,0.0,0.0,0.0,0.0,0.263463,0.263463,4.1203,0.0,0.0,0.0,0.090809,0.0,0.0,0.0,0.0,0.0,0.000640138,0.00298569,0.00351074,0.0,0.0,0.0,0.0,0.0,0.0
6836000,0.0,0.0,0.0,0.00275364,-0.000829717,0.0132751,0.0,0.0,0.0,-0.00382194,0.0,0.0,0.0,0.0,0.0,0.0,0.0,0.0,0.263102,0.263102,4.11731,0.0,0.0,0.0,0.0908046,0.0,0.0,0.0,0.0,0.0,0.000558763,0.00225417,0.0023491,0.0,0.0,0.0,0.0,0.0,0.0
7028000,0.0,0.0,0.0,0.00258914,0.000301676,0.0167542,0.0,0.0,0.0,-0.00542485,0.0,0.0,0.0,0.0,0.0,0.0,0.0,0.0,0.262939,0.262939,4.11542,0.0,0.0,0.0,0.090802,0.0,0.0,0.0,0.0,0.0,0.000501177,0.00431135,0.00687323,0.0,0.0,0.0,0.0,0.0,0.0
7220000,0.0,0.0,0.0,0.00255097,0.00175654,0.00924683,0.0,0.0,0.0,-0.00521456,0.0,0.0,0.0,0.0,0.0,0.0,0.0,0.0,0.262807,0.262807,4.11353,0.0,0.0,0.0,0.0907991,0.0,0.0,0.0,0.0,0.0,0.000714304,0.00413585,0.0060057,0.0,0.0,0.0,0.0,0.0,0.0
7412000,0.0,0.0,0.0,0.00250457,0.00289259,-0.0129395,0.0,0.0,0.0,-0.0082932,0.0,0.0,0.0,0.0,0.0,0.0,0.0,0.0,0.262661,0.262661,4.11159,0.0,0.0,0.0,0.0907957,0.0,0.0,0.0,0.0,0.0,0.000782776,0.00347274,0.00477933,0.0,0.0,0.0,0.0,0.0,0.0
7604000,0.0,0.0,0.0,0.00232713,0.00365806,-0.00830078,0.0,0.0,0.0,-0.00390728,0.0,0.0,0.0,0.0,0.0,0.0,0.0,0.0,0.262475,0.262475,4.10963,0.0,0.0,0.0,0.0907916,0.0,0.0,0.0,0.0,0.0,0.000633316,0.00324163,0.00349574,0.0,0.0,0.0,0.0,0.0,0.0
7796000,0.0,0.0,0.0,0.00201592,0.00456385,0.0243835,0.0,0.0,0.0,-0.00388359,0.0,0.0,0.0,0.0,0.0,0.0,0.0,0.0,0.262314,0.262314,4.10767,0.0,0.0,0.0,0.0907871,0.0,0.0,0.0,0.0,0.0,0.000510435,0.00511688,0.00738806,0.0,0.0,0.0,0.0,0.0,0.0
7988000,0.0,0.0,0.0,0.00178923,0.00564031,0.0151978,0.0,0.0,0.0,0.000545588,0.0,0.0,0.0,0.0,0.0,0.0,0.0,0.0,0.261948,0.261948,4.10481,0.0,0.0,0.0,0.09078,0.0,0.0,0.0,0.0,0.0,0.000373715,0.00430453,0.00530298,0.0,0.0,0.0,0.0,0.0,0.0
8180000,0.0,0.0,0.0,0.00165678,0.00676462,0.0192871,0.0,0.0,0.0,-0.00325856,0.0,0.0,0.0,0.0,0.0,0.0,0.0,0.0,0.261791,0.261791,4.10292,0.0,0.0,0.0,0.0907746,0.0,0.0,0.0,0.0,0.0,0.000467173,0.00454111,0.00522357,0.0,0.0,0.0,0.0,0.0,0.0
8380000,0.0,0.0,0.0,0.00144798,0.00742763,-0.0340271,0.0,0.0,0.0,0.0108538,0.0,0.0,0.0,0.0,0.0,0.0,0.0,0.0,0.261463,0.261463,4.10027,0.0,0.0,0.0,0.0907689,0.0,0.0,0.0,0.0,0.0,0.00048358,0.00464241,0.00542215,0.0,0.0,0.0,0.0,0.0,0.0
8572000,0.0,0.0,0.0,0.00111503,0.00817791,-0.00897217,0.0,0.0,0.0,-0.0112905,0.0,0.0,0.0,0.0,0.0,0.0,0.0,0.0,0.261336,0.261336,4.09855,0.0,0.0,0.0,0.090763,0.0,0.0,0.0,0.0,0.0,0.000589547,0.00492755,0.00626351,0.0,0.0,0.0,0.0,0.0,0.0
8764000,0.0,0.0,0.0,0.0010519,0.00871333,0.0152893,0.0,0.0,0.0,-0.00694535,0.0,0.0,0.0,0.0,0.0,0.0,0.0,0.0,0.261176,0.261176,4.09686,0.0,0.0,0.0,0.0907567,0.0,0.0,0.0,0.0,0.0,0.000456789,0.00460962,0.00578842,0.0,0.0,0.0,0.0,0.0,0.0
8956000,0.0,0.0,0.0,0.00122535,0.00938531,-0.0348816,0.0,0.0,0.0,-0.00265638,0.0,0.0,0.0,0.0,0.0,0.0,0.0,0.0,0.261177,0.261177,4.09585,0.0,0.0,0.0,0.09075,0.0,0.0,0.0,0.0,0.0,0.000449111,0.0053652,0.00831486,0.0,0.0,0.0,0.0,0.0,0.0
9148000,0.0,0.0,0.0,0.00161437,0.00942762,-0.0132141,0.0,0.0,0.0,-0.000851753,0.0,0.0,0.0,0.0,0.0,0.0,0.0,0.0,0.260968,0.260968,4.09408,0.0,0.0,0.0,0.0907434,0.0,0.0,0.0,0.0,0.0,0.000439899,0.00399244,0.00485229,0.0,0.0,0.0,0.0,0.0,0.0
9340000,0.0,0.0,0.0,0.00155149,0.00948868,-0.0168762,0.0,0.0,0.0,0.00347818,0.0,0.0,0.0,0.0,0.0,0.0,0.0,0.0,0.260791,0.260791,4.09234,0.0,0.0,0.0,0.0907363,0.0,0.0,0.0,0.0,0.0,0.000435455,0.0037539,0.00467236,0.0,0.0,0.0,0.0,0.0,0.0
9532000,0.0,0.0,0.0,0.00113422,0.00943374,-0.0597839,0.0,0.0,0.0,-0.00249348,0.0,0.0,0.0,0.0,0.0,0.0,0.0,0.0,0.260476,0.260476,4.09,0.0,0.0,0.0,0.0907271,0.0,0.0,0.0,0.0,0.0,0.000685151,0.00353215,0.00458472,0.0,0.0,0.0,0.0,0.0,0.0
9732000,0.0,0.0,0.0,0.000343697,0.00892911,-0.0246887,0.0,0.0,0.0,0.00192544,0.0,0.0,0.0,0.0,0.0,0.0,0.0,0.0,0.260334,0.260334,4.08842,0.0,0.0,0.0,0.0907198,0.0,0.0,0.0,0.0,0.0,0.000493758,0.00342553,0.0053964,0.0,0.0,0.0,0.0,0.0,0.0
9924000,0.0,0.0,0.0,-0.000394667,0.00843019,-0.182617,0.0,0.0,0.0,0.00117954,0.0,0.0,0.0,0.0,0.0,0.0,0.0,0.0,0.2602,0.2602,4.08689,0.0,0.0,0.0,0.0907123,0.0,0.0,0.0,0.0,0.0,0.00037386,0.00328655,0.00582155,0.0,0.0,0.0,0.0,0.0,0.0
10116000,0.0,0.0,0.0,-0.000694063,0.00786077,0.194122,0.0,0.0,0.0,0.00230927,0.0,0.0,0.0,0.0,0.0,0.0,0.0,0.0,0.260058,0.260058,4.08544,0.0,0.0,0.0,0.0907052,0.0,0.0,0.0,0.0,0.0,0.000320133,0.00196804,0.0024707,0.0,0.0,0.0,0.0,0.0,0.0
10308000,0.0,0.0,0.0,-0.00105226,0.00711363,-0.0538635,0.0,0.0,0.0,-0.00192635,0.0,0.0,0.0,0.0,0.0,0.0,0.0,0.0,0.259915,0.259915,4.08402,0.0,0.0,0.0,0.0978866,0.0,0.0,0.0,0.0,0.0,0.000206983,0.00241497,0.00480734,0.0,0.0,0.0,0.0,0.0,0.0
10500000,0.0,0.0,0.0,-0.00157843,0.00613586,0.00540161,0.0,0.0,0.0,0.00302052,0.0,0.0,0.0,0.0,0.0,0.0,0.0,0.0,0.259436,0.259436,4.08209,0.0,0.0,0.0,0.0944102,0.0,0.0,0.0,0.0,0.0,0.000415064,0.00165504,0.00324413,0.0,0.0,0.0,0.0,0.0,0.0
10700000,0.0,0.0,0.0,-0.0018486,0.00513421,-0.00408936,0.0,0.0,0.0,-0.00362765,0.0,0.0,0.0,0.0,0.0,0.0,0.0,0.0,0.25905,0.25905,4.08079,0.0,0.0,0.0,0.0930624,0.0,0.0,0.0,0.0,0.0,0.00069025,0.00131067,0.00180146,0.0,0.0,0.0,0.0,0.0,0.0
10892000,0.0,0.0,0.0,-0.0020054,0.00440372,-0.0830078,0.0,0.0,0.0,0.000288201,0.0,0.0,0.0,0.0,0.0,0.0,0.0,0.0,0.258893,0.258893,4.07954,0.0,0.0,0.0,0.0923472,0.0,0.0,0.0,0.0,0.0,0.000543799,0.00161075,0.0024925,0.0,0.0,0.0,0.0,0.0,0.0
11084000,0.0,0.0,0.0,-0.00200278,0.00374839,-0.0935669,0.0,0.0,0.0,-0.00577898,0.0,0.0,0.0,0.0,0.0,0.0,0.0,0.0,0.259053,0.259053,4.07831,0.0,0.0,0.0,0.0919452,0.0,0.0,0.0,0.0,0.0,0.000291008,0.00159979,0.00218004,0.0,0.0,0.0,0.0,0.0,0.0
11276000,0.0,0.0,0.0,-0.00156463,0.00305644,-0.031189,0.0,0.0,0.0,0.00399674,0.0,0.0,0.0,0.0,0.0,0.0,0.0,0.0,0.259705,0.259705,4.07711,0.0,0.0,0.0,0.0916328,0.0,0.0,0.0,0.0,0.0,0.000106767,0.00170815,0.00308782,0.0,0.0,0.0,0.0,0.0,0.0
11476000,0.0,0.0,0.0,-0.0010019,0.00228644,-0.0310669,0.0,0.0,0.0,0.000521539,0.0,0.0,0.0,0.0,0.0,0.0,0.0,0.0,0.260727,0.260727,4.07596,0.0,0.0,0.0,0.0914089,0.0,0.0,0.0,0.0,0.0,0.000135892,0.00146259,0.0023187,0.0,0.0,0.0,0.0,0.0,0.0
11668000,0.0,0.0,0.0,-8.14255e-05,0.00144206,-0.00485229,0.0,0.0,0.0,0.00231714,0.0,0.0,0.0,0.0,0.0,0.0,0.0,0.0,0.261861,0.261861,4.07485,0.0,0.0,0.0,0.091241,0.0,0.0,0.0,0.0,0.0,0.000173938,0.00128235,0.00222516,0.0,0.0,0.0,0.0,0.0,0.0
11860000,0.0,0.0,0.0,0.000939228,0.000567108,0.0593567,0.0,0.0,0.0,0.00405473,0.0,0.0,0.0,0.0,0.0,0.0,0.0,0.0,0.262563,0.262563,4.07336,0.0,0.0,0.0,0.0911106,0.0,0.0,0.0,0.0,0.0,0.000453275,0.00128923,0.00246628,0.0,0.0,0.0,0.0,0.0,0.0
12052000,0.0,0.0,0.0,0.00180772,-0.000162458,-0.126862,0.0,0.0,0.0,0.000537719,0.0,0.0,0.0,0.0,0.0,0.0,0.0,0.0,0.263061,0.263061,4.07238,0.0,0.0,0.0,0.0910177,0.0,0.0,0.0,0.0,0.0,0.000185347,0.00169291,0.00263634,0.0,0.0,0.0,0.0,0.0,0.0
12244000,0.0,0.0,0.0,0.00262403,-0.000936242,0.0140686,0.0,0.0,0.0,-0.00304565,0.0,0.0,0.0,0.0,0.0,0.0,0.0,0.0,0.263345,0.263345,4.07143,0.0,0.0,0.0,0.0909321,0.0,0.0,0.0,0.0,0.0,0.000109924,0.00238375,0.00324347,0.0,0.0,0.0,0.0,0.0,0.0
12436000,0.0,0.0,0.0,0.0036543,-0.00142437,-0.1875,0.0,0.0,0.0,-3.20384e-05,0.0,0.0,0.0,0.0,0.0,0.0,0.0,0.0,0.263319,0.263319,4.07054,0.0,0.0,0.0,0.0908619,0.0,0.0,0.0,0.0,0.0,0.000103517,0.00325874,0.00483202,0.0,0.0,0.0,0.0,0.0,0.0
12628000,0.0,0.0,0.0,0.00415171,-0.00177037,0.068512,0.0,0.0,0.0,-0.00147854,0.0,0.0,0.0,0.0,0.0,0.0,0.0,0.0,0.263062,0.263062,4.0697,0.0,0.0,0.0,0.0908095,0.0,0.0,0.0,0.0,0.0,0.000146233,0.00328733,0.00422571,0.0,0.0,0.0,0.0,0.0,0.0
12820000,0.0,0.0,0.0,0.00447576,-0.00217391,-0.0299683,0.0,0.0,0.0,0.00117543,0.0,0.0,0.0,0.0,0.0,0.0,0.0,0.0,0.262708,0.262708,4.06891,0.0,0.0,0.0,0.0907597,0.0,0.0,0.0,0.0,0.0,0.000128175,0.00424627,0.00833623,0.0,0.0,0.0,0.0,0.0,0.0
13012000,0.0,0.0,0.0,0.00426326,-0.00229595,-0.0596313,0.0,0.0,0.0,-0.00927889,0.0,0.0,0.0,0.0,0.0,0.0,0.0,0.0,0.26209,0.26209,4.06778,0.0,0.0,0.0,0.0907172,0.0,0.0,0.0,0.0,0.0,0.000144439,0.00349955,0.00544823,0.0,0.0,0.0,0.0,0.0,0.0
13204000,0.0,0.0,0.0,0.00386041,-0.00242849,-0.0582886,0.0,0.0,0.0,0.00390333,0.0,0.0,0.0,0.0,0.0,0.0,0.0,0.0,0.26166,0.26166,4.06711,0.0,0.0,0.0,0.0906815,0.0,0.0,0.0,0.0,0.0,9.04901e-05,0.00312861,0.00470491,0.0,0.0,0.0,0.0,0.0,0.0
13396000,0.0,0.0,0.0,0.00368458,-0.00255133,-0.0229492,0.0,0.0,0.0,0.00186423,0.0,0.0,0.0,0.0,0.0,0.0,0.0,0.0,0.261238,0.261238,4.06647,0.0,0.0,0.0,0.0906542,0.0,0.0,0.0,0.0,0.0,0.000208027,0.00260913,0.00395374,0.0,0.0,0.0,0.0,0.0,0.0
13588000,0.0,0.0,0.0,0.00316059,-0.00250122,-0.0205994,0.0,0.0,0.0,0.000829002,0.0,0.0,0.0,0.0,0.0,0.0,0.0,0.0,0.26082,0.26082,4.0659,0.0,0.0,0.0,0.0906277,0.0,0.0,0.0,0.0,0.0,0.000184595,0.00225265,0.00351043,0.0,0.0,0.0,0.0,0.0,0.0
13780000,0.0,0.0,0.0,0.00290671,-0.00235627,0.0215759,0.0,0.0,0.0,-0.000244229,0.0,0.0,0.0,0.0,0.0,0.0,0.0,0.0,0.260423,0.260423,4.06538,0.0,0.0,0.0,0.0906051,0.0,0.0,0.0,0.0,0.0,0.000117269,0.00187919,0.00285667,0.0,0.0,0.0,0.0,0.0,0.0
13972000,0.0,0.0,0.0,0.00273796,-0.00227263,0.0235901,0.0,0.0,0.0,0.00283666,0.0,0.0,0.0,0.0,0.0,0.0,0.0,0.0,0.259926,0.259926,4.06456,0.0,0.0,0.0,0.0905852,0.0,0.0,0.0,0.0,0.0,8.61701e-05,0.00157509,0.00237129,0.0,0.0,0.0,0.0,0.0,0.0
14164000,0.0,0.0,0.0,0.00257894,-0.00217458,0.0120239,0.0,0.0,0.0,-0.00203282,0.0,0.0,0.0,0.0,0.0,0.0,0.0,0.0,0.259607,0.259607,4.06412,0.0,0.0,0.0,0.0905702,0.0,0.0,0.0,0.0,0.0,0.00023886,0.00138618,0.00246814,0.0,0.0,0.0,0.0,0.0,0.0
14356000,0.0,0.0,0.0,0.00243991,-0.00180058,0.00354004,0.0,0.0,0.0,0.000340035,0.0,0.0,0.0,0.0,0.0,0.0,0.0,0.0,0.25931,0.25931,4.06376,0.0,0.0,0.0,0.0905558,0.0,0.0,0.0,0.0,0.0,0.000216881,0.00109482,0.00155713,0.0,0.0,0.0,0.0,0.0,0.0
14548000,0.0,0.0,0.0,0.00287594,-0.00127226,-0.0195007,0.0,0.0,0.0,0.00903402,0.0,0.0,0.0,0.0,0.0,0.0,0.0,0.0,0.259035,0.259035,4.06345,0.0,0.0,0.0,0.0905435,0.0,0.0,0.0,0.0,0.0,0.000167242,0.00172327,0.00462346,0.0,0.0,0.0,0.0,0.0,0.0
14740000,0.0,0.0,0.0,0.0,0.0,0.136841,0.0,0.0,0.0,-0.00221022,0.0,0.0,0.0,0.0,0.0,0.3125,0.3125,0.625,0.72,0.72,4.06124,0.0,0.0,0.0,0.090534,0.0,0.0,0.0,0.0,0.0,0.000174987,0.000914288,0.000590507,0.0,0.0,0.0,0.0,0.0,0.0
14932000,0.000456351,0.000287121,-0.000808805,-0.0110812,-0.00754371,0.0614319,0.0,0.0,0.0,-0.0032352,0.0,0.0,0.0,0.0,0.0,0.291853,0.291853,0.613768,0.443324,0.443324,4.05633,0.0,0.0,0.0,0.0905251,0.0,0.0,0.0,0.0,0.0,0.000166113,0.0010305,0.00604161,0.0,0.0,0.0,0.0,0.0,0.0
15124000,-0.000625787,0.00120342,-0.000947768,0.00467452,0.018353,-0.0170593,0.0,0.0,0.0,0.00289588,0.0,0.0,0.0,0.0,0.0,0.281486,0.281486,0.605757,0.372474,0.372474,4.05447,0.0,0.0,0.0,0.0905175,0.0,0.0,0.0,0.0,0.0,0.000171466,0.00112592,0.00388554,0.0,0.0,0.0,0.0,0.0,0.0
15316000,-0.000522133,0.00114579,-0.00130109,0.00296592,0.0200183,-0.0224915,0.0,0.0,0.0,0.00274318,0.0,0.0,0.0,0.0,0.0,0.275237,0.275237,0.599616,0.330828,0.330828,4.05386,0.0,0.0,0.0,0.0905117,0.0,0.0,0.0,0.0,0.0,8.14291e-05,0.00162464,0.00631604,0.0,0.0,0.0,0.0,0.0,0.0
15508000,-0.000101553,0.00069264,-0.00294638,-0.00888044,-0.00580755,-0.00531006,0.0,0.0,0.0,0.00333528,0.0,0.0,0.0,0.0,0.0,0.271069,0.271069,0.5947,0.299301,0.299301,4.05406,0.0,0.0,0.0,0.0905064,0.0,0.0,0.0,0.0,0.0,3.68739e-05,0.0013731,0.00393363,0.0,0.0,0.0,0.0,0.0,0.0
15700000,0.000125372,0.000680333,-0.00107271,0.00161294,-0.0166374,-0.024353,0.0,0.0,0.0,-0.00280337,0.0,0.0,0.0,0.0,0.0,0.268109,0.268109,0.590663,0.282625,0.282625,4.05423,0.0,0.0,0.0,0.0905013,0.0,0.0,0.0,0.0,0.0,9.10587e-05,0.00118685,0.00305567,0.0,0.0,0.0,0.0,0.0,0.0
15892000,-3.92095e-05,0.00101946,-0.00412121,6.85665e-05,-0.0145877,-0.0157166,0.0,0.0,0.0,0.00229177,0.0,0.0,0.0,0.0,0.0,0.265955,0.265955,0.587159,0.278585,0.278585,4.05483,0.0,0.0,0.0,0.0904978,0.0,0.0,0.0,0.0,0.0,0.000170476,0.00109617,0.00317164,0.0,0.0,0.0,0.0,0.0,0.0
16084000,-0.000264421,0.000699992,-0.00514211,0.00111537,0.0107896,-0.031311,0.0,0.0,0.0,-0.00234793,0.0,0.0,0.0,0.0,0.0,0.264363,0.264363,0.584332,0.276026,0.276026,4.056,0.0,0.0,0.0,0.0904951,0.0,0.0,0.0,0.0,0.0,8.15831e-05,0.000901203,0.00156663,0.0,0.0,0.0,0.0,0.0,0.0
16276000,-0.00077714,2.69518e-05,-0.00724819,-0.00925093,0.00130915,-0.100525,0.0,0.0,0.0,-0.0036247,0.0,0.0,0.0,0.0,0.0,0.263185,0.263185,0.581949,0.274336,0.274336,4.05642,0.0,0.0,0.0,0.0904928,0.0,0.0,0.0,0.0,0.0,2.26478e-05,0.00138298,0.00248105,0.0,0.0,0.0,0.0,0.0,0.0
16468000,-0.0017643,0.00145393,-0.00634,0.01366,0.00881099,-0.069458,0.0,0.0,0.0,-0.00126936,0.0,0.0,0.0,0.0,0.0,0.262695,0.262695,0.580962,0.273627,0.273627,4.05632,0.0,0.0,0.0,0.0904903,0.0,0.0,0.0,0.0,0.0,2.28264e-05,0.0014055,0.00319608,0.0,0.0,0.0,0.0,0.0,0.0
16660000,-0.00339881,0.000530809,-0.00586101,-0.0102317,0.00870137,0.0233765,0.0,0.0,0.0,-0.000721703,0.0,0.0,0.0,0.0,0.0,0.261966,0.261966,0.579117,0.272675,0.272675,4.05644,0.0,0.0,0.0,0.0904891,0.0,0.0,0.0,0.0,0.0,8.40014e-05,0.00133996,0.00292761,0.0,0.0,0.0,0.0,0.0,0.0
16852000,-0.00628652,0.0029292,-0.00588796,0.0112734,0.000645414,-0.0184631,0.0,0.0,0.0,0.00227132,0.0,0.0,0.0,0.0,0.0,0.261463,0.261463,0.577563,0.272015,0.272015,4.05615,0.0,0.0,0.0,0.0904881,0.0,0.0,0.0,0.0,0.0,3.10957e-05,0.000631556,0.00116109,0.0,0.0,0.0,0.0,0.0,0.0
17044000,-0.00699857,0.00515557,-0.0062354,-0.012605,-0.0203039,-0.0264282,0.0,0.0,0.0,0.00100362,0.0,0.0,0.0,0.0,0.0,0.261142,0.261142,0.57626,0.271559,0.271559,4.056,0.0,0.0,0.0,0.0904875,0.0,0.0,0.0,0.0,0.0,6.06872e-05,0.00127646,0.00202856,0.0,0.0,0.0,0.0,0.0,0.0
17236000,-0.00603138,0.00476052,-0.00457177,-0.0215535,-0.0109116,0.00933838,0.0,0.0,0.0,-0.00526427,0.0,0.0,0.0,0.0,0.0,0.260969,0.260969,0.575071,0.271248,0.271248,4.05573,0.0,0.0,0.0,0.0904872,0.0,0.0,0.0,0.0,0.0,9.27248e-05,0.0021247,0.00394061,0.0,0.0,0.0,0.0,0.0,0.0
17428000,-0.00756605,0.00602242,-0.00576915,-0.00879912,-0.0023062,-0.0705261,0.0,0.0,0.0,-0.00229798,0.0,0.0,0.0,0.0,0.0,0.260914,0.260914,0.574181,0.271046,0.271046,4.05505,0.0,0.0,0.0,0.0904862,0.0,0.0,0.0,0.0,0.0,7.47136e-05,0.00202348,0.00381611,0.0,0.0,0.0,0.0,0.0,0.0
17620000,-0.0118468,0.00372743,-0.00705281,0.00251005,0.0118537,0.0256042,0.0,0.0,0.0,-0.000805296,0.0,0.0,0.0,0.0,0.0,0.260947,0.260947,0.573454,0.270927,0.270927,4.05447,0.0,0.0,0.0,0.090486,0.0,0.0,0.0,0.0,0.0,8.89661e-05,0.00205554,0.00343502,0.0,0.0,0.0,0.0,0.0,0.0
17812000,-0.0181688,0.00191634,-0.00764665,-0.0107944,0.0178149,0.0125427,0.0,0.0,0.0,0.0010558,0.0,0.0,0.0,0.0,0.0,0.261042,0.261042,0.572867,0.270874,0.270874,4.05401,0.0,0.0,0.0,0.0904861,0.0,0.0,0.0,0.0,0.0,0.000118449,0.00256077,0.00421706,0.0,0.0,0.0,0.0,0.0,0.0
18012000,-0.0191495,0.00197235,-0.0078543,-0.000155406,0.00155528,-0.0177307,0.0,0.0,0.0,0.00424196,0.0,0.0,0.0,0.0,0.0,0.261175,0.261175,0.572403,0.270872,0.270872,4.05351,0.0,0.0,0.0,0.0904863,0.0,0.0,0.0,0.0,0.0,0.00015569,0.00248226,0.00367116,0.0,0.0,0.0,0.0,0.0,0.0
18204000,-0.0219019,0.000809337,-0.00835148,-0.00166169,0.0228757,0.0216675,0.0,0.0,0.0,1.14562e-05,0.0,0.0,0.0,0.0,0.0,0.261327,0.261327,0.572046,0.270911,0.270911,4.05299,0.0,0.0,0.0,0.0904856,0.0,0.0,0.0,0.0,0.0,0.00018751,0.00305609,0.0047141,0.0,0.0,0.0,0.0,0.0,0.0
18396000,-0.0278833,-0.00373151,-0.00693659,0.00771336,-0.00981999,-0.0369568,0.0,0.0,0.0,0.0021585,0.0,0.0,0.0,0.0,0.0,0.261478,0.261478,0.571782,0.27098,0.27098,4.05222,0.0,0.0,0.0,0.0904859,0.0,0.0,0.0,0.0,0.0,0.000220275,0.00300226,0.0041287,0.0,0.0,0.0,0.0,0.0,0.0
18588000,-0.0313728,-0.00429468,-0.00677358,-0.0180996,0.0126467,0.00268555,0.0,0.0,0.0,0.00057396,0.0,0.0,0.0,0.0,0.0,0.261616,0.261616,0.571596,0.271071,0.271071,4.05208,0.0,0.0,0.0,0.0904859,0.0,0.0,0.0,0.0,0.0,0.000282643,0.00406084,0.00519064,0.0,0.0,0.0,0.0,0.0,0.0
18780000,-0.0322156,-0.00431107,-0.00410438,-0.0179403,-0.0046654,-0.000457764,0.0,0.0,0.0,-0.00458279,0.0,0.0,0.0,0.0,0.0,0.261726,0.261726,0.571478,0.271175,0.271175,4.05159,0.0,0.0,0.0,0.0904861,0.0,0.0,0.0,0.0,0.0,0.000367462,0.00537775,0.00743122,0.0,0.0,0.0,0.0,0.0,0.0
18972000,-0.0300876,-0.00637559,-0.00549678,-0.0295659,0.000716833,0.0164795,0.0,0.0,0.0,0.00129631,0.0,0.0,0.0,0.0,0.0,0.261809,0.261809,0.571416,0.271286,0.271286,4.05113,0.0,0.0,0.0,0.0904863,0.0,0.0,0.0,0.0,0.0,0.000407204,0.00604372,0.00871612,0.0,0.0,0.0,0.0,0.0,0.0
19164000,-0.0274581,-0.00753835,-0.00266561,-0.017733,-0.00734743,0.0143127,0.0,0.0,0.0,0.000589479,0.0,0.0,0.0,0.0,0.0,0.261878,0.261878,0.571389,0.271439,0.271439,4.05047,0.0,0.0,0.0,0.0904854,0.0,0.0,0.0,0.0,0.0,0.00031919,0.00360468,0.00554832,0.0,0.0,0.0,0.0,0.0,0.0
19356000,-0.0285256,-0.00598898,-0.000538494,-0.00681501,-0.00568459,0.0542603,0.0,0.0,0.0,0.00307923,0.0,0.0,0.0,0.0,0.0,0.261903,0.261903,0.571397,0.271549,0.271549,4.04999,0.0,0.0,0.0,0.0904852,0.0,0.0,0.0,0.0,0.0,0.000302423,0.00330883,0.00515175,0.0,0.0,0.0,0.0,0.0,0.0
19548000,-0.0308453,-0.00645456,0.000983108,-0.00967722,0.0153105,0.0384827,0.0,0.0,0.0,-0.000239554,0.0,0.0,0.0,0.0,0.0,0.261892,0.261892,0.571439,0.271652,0.271652,4.04967,0.0,0.0,0.0,0.0904851,0.0,0.0,0.0,0.0,0.0,0.000248009,0.00241841,0.00383872,0.0,0.0,0.0,0.0,0.0,0.0
19740000,-0.0278395,-0.00821776,0.00295769,3.09646e-05,0.0127417,0.075531,0.0,0.0,0.0,-0.00178334,0.0,0.0,0.0,0.0,0.0,0.261845,0.261845,0.571508,0.271745,0.271745,4.0494,0.0,0.0,0.0,0.0904849,0.0,0.0,0.0,0.0,0.0,0.000266489,0.00178303,0.00213426,0.0,0.0,0.0,0.0,0.0,0.0
19932000,-0.0277285,-0.00846807,0.00310259,-0.0139378,0.00302368,0.0444946,0.0,0.0,0.0,0.00165371,0.0,0.0,0.0,0.0,0.0,0.26177,0.26177,0.571542,0.271824,0.271824,4.04906,0.0,0.0,0.0,0.0904837,0.0,0.0,0.0,0.0,0.0,0.000342921,0.00180221,0.00213385,0.0,0.0,0.0,0.0,0.0,0.0
20124000,-0.0256565,-0.0104865,0.00389949,-0.0255095,0.0166158,-0.046814,0.0,0.0,0.0,0.00179426,0.0,0.0,0.0,0.0,0.0,0.261667,0.261667,0.571647,0.271888,0.271888,4.04889,0.0,0.0,0.0,0.0904831,0.0,0.0,0.0,0.0,0.0,0.000394988,0.00225092,0.00310565,0.0,0.0,0.0,0.0,0.0,0.0
20316000,-0.0225095,-0.00959743,0.00620472,-0.00342482,-0.000694268,0.134125,0.0,0.0,0.0,0.00246515,0.0,0.0,0.0,0.0,0.0,0.261541,0.261541,0.571761,0.271937,0.271937,4.04853,0.0,0.0,0.0,0.0904825,0.0,0.0,0.0,0.0,0.0,0.000344629,0.00164276,0.00228163,0.0,0.0,0.0,0.0,0.0,0.0
20508000,-0.0204558,-0.00841087,0.00796656,-0.0365734,-0.00844781,0.0550842,0.0,0.0,0.0,0.00234767,0.0,0.0,0.0,0.0,0.0,0.261397,0.261397,0.571881,0.27197,0.27197,4.04846,0.0,0.0,0.0,0.0904819,0.0,0.0,0.0,0.0,0.0,0.000381976,0.00298314,0.00497173,0.0,0.0,0.0,0.0,0.0,0.0
20700000,-0.015568,-0.00537146,0.00765277,-0.0325607,-0.00775997,0.0382385,0.0,0.0,0.0,-0.00127837,0.0,0.0,0.0,0.0,0.0,0.261242,0.261242,0.572001,0.271989,0.271989,4.04829,0.0,0.0,0.0,0.090481,0.0,0.0,0.0,0.0,0.0,0.000370976,0.0033285,0.00623281,0.0,0.0,0.0,0.0,0.0,0.0
20892000,-0.0129078,-0.00538696,0.00666576,0.0148039,-0.0139605,-0.0236206,0.0,0.0,0.0,0.00218625,0.0,0.0,0.0,0.0,0.0,0.26108,0.26108,0.57212,0.271993,0.271993,4.0483,0.0,0.0,0.0,0.0904801,0.0,0.0,0.0,0.0,0.0,0.000258626,0.00208708,0.00394429,0.0,0.0,0.0,0.0,0.0,0.0
21084000,-0.0106803,-0.00459304,0.00632439,-0.00919846,-0.0140529,-0.0261841,0.0,0.0,0.0,-0.000556825,0.0,0.0,0.0,0.0,0.0,0.260911,0.260911,0.572233,0.271984,0.271984,4.04835,0.0,0.0,0.0,0.0904782,0.0,0.0,0.0,0.0,0.0,0.000171537,0.00166465,0.00351364,0.0,0.0,0.0,0.0,0.0,0.0
21276000,-0.00796614,-0.00390004,0.00607052,-0.0197942,-0.0122785,0.013031,0.0,0.0,0.0,0.00145303,0.0,0.0,0.0,0.0,0.0,0.26074,0.26074,0.572339,0.271964,0.271964,4.04861,0.0,0.0,0.0,0.090477,0.0,0.0,0.0,0.0,0.0,0.000161812,0.00207651,0.00482895,0.0,0.0,0.0,0.0,0.0,0.0
21468000,-0.00922136,-0.00422725,0.00633481,-0.0186028,-0.00401298,0.00717163,0.0,0.0,0.0,0.00869602,0.0,0.0,0.0,0.0,0.0,0.260619,0.260618,0.57234,0.271853,0.271853,4.04857,0.0,0.0,0.0,0.0904757,0.0,0.0,0.0,0.0,0.0,0.000132644,0.00163181,0.00355738,0.0,0.0,0.0,0.0,0.0,0.0
21660000,-0.00815351,-0.00438517,0.00721475,-0.0174913,-0.0194292,0.0403137,0.0,0.0,0.0,-0.0037793,0.0,0.0,0.0,0.0,0.0,0.26045,0.26045,0.572432,0.271819,0.271819,4.04871,0.0,0.0,0.0,0.0904744,0.0,0.0,0.0,0.0,0.0,0.000142376,0.00157789,0.00305534,0.0,0.0,0.0,0.0,0.0,0.0
21852000,-0.00670095,-0.00148958,0.0068984,-0.0164448,0.00476899,0.0120544,0.0,0.0,0.0,0.00235621,0.0,0.0,0.0,0.0,0.0,0.260287,0.260287,0.572514,0.271777,0.271777,4.04887,0.0,0.0,0.0,0.0904729,0.0,0.0,0.0,0.0,0.0,0.000127946,0.0013464,0.00200074,0.0,0.0,0.0,0.0,0.0,0.0
22052000,-0.00778804,-0.0025481,0.00832521,-0.00435004,-0.0112345,0.0193481,0.0,0.0,0.0,-0.00166113,0.0,0.0,0.0,0.0,0.0,0.260128,0.260128,0.572585,0.271729,0.271729,4.04879,0.0,0.0,0.0,0.0904705,0.0,0.0,0.0,0.0,0.0,8.99687e-05,0.0017973,0.00290794,0.0,0.0,0.0,0.0,0.0,0.0
22244000,-0.00668777,-0.000962794,0.00884748,-0.00526338,-0.000867752,0.0427246,0.0,0.0,0.0,-0.0055323,0.0,0.0,0.0,0.0,0.0,0.259975,0.259975,0.572646,0.271675,0.271675,4.04897,0.0,0.0,0.0,0.0904688,0.0,0.0,0.0,0.0,0.0,0.000105039,0.00237525,0.00470221,0.0,0.0,0.0,0.0,0.0,0.0
22436000,-0.00850175,-0.000998589,0.00758705,-0.00698671,-0.0014726,0.0476379,0.0,0.0,0.0,0.00346241,0.0,0.0,0.0,0.0,0.0,0.259832,0.259832,0.572695,0.271618,0.271617,4.04898,0.0,0.0,0.0,0.0904671,0.0,0.0,0.0,0.0,0.0,5.17573e-05,0.00250098,0.00494599,0.0,0.0,0.0,0.0,0.0,0.0
22628000,-0.00746821,0.000768361,0.00308256,-0.0169006,-0.00115127,0.0144653,0.0,0.0,0.0,-0.00168681,0.0,0.0,0.0,0.0,0.0,0.2597,0.259699,0.572734,0.271557,0.271557,4.04916,0.0,0.0,0.0,0.0904652,0.0,0.0,0.0,0.0,0.0,9.86331e-05,0.0015006,0.00308192,0.0,0.0,0.0,0.0,0.0,0.0
22820000,-0.00839664,0.00198365,0.00369589,-0.0151664,0.00730814,-0.0201416,0.0,0.0,0.0,-0.00154897,0.0,0.0,0.0,0.0,0.0,0.25957,0.25957,0.572763,0.271495,0.271495,4.04935,0.0,0.0,0.0,0.0904633,0.0,0.0,0.0,0.0,0.0,0.000160121,0.00107314,0.00211357,0.0,0.0,0.0,0.0,0.0,0.0
23012000,-0.00737006,0.00410826,0.00480616,-0.0136755,-0.0222919,0.074707,0.0,0.0,0.0,-0.00586629,0.0,0.0,0.0,0.0,0.0,0.25945,0.25945,0.572784,0.271432,0.271432,4.04927,0.0,0.0,0.0,0.0904605,0.0,0.0,0.0,0.0,0.0,0.000291926,0.00104935,0.00288567,0.0,0.0,0.0,0.0,0.0,0.0
23204000,-0.00756753,0.00736803,0.00378669,-0.00124565,-0.00432973,0.0210876,0.0,0.0,0.0,-0.00111667,0.0,0.0,0.0,0.0,0.0,0.259338,0.259338,0.572797,0.271369,0.271369,4.04926,0.0,0.0,0.0,0.0904585,0.0,0.0,0.0,0.0,0.0,0.000293307,0.00119477,0.00266961,0.0,0.0,0.0,0.0,0.0,0.0
23396000,-0.00576825,0.0102239,0.00319804,-0.0119595,-0.00326695,-0.0528564,0.0,0.0,0.0,-0.00956947,0.0,0.0,0.0,0.0,0.0,0.259235,0.259235,0.572733,0.271306,0.271306,4.04943,0.0,0.0,0.0,0.0904563,0.0,0.0,0.0,0.0,0.0,0.000258976,0.00115424,0.00140572,0.0,0.0,0.0,0.0,0.0,0.0
23588000,-0.0040981,0.00977233,0.00205696,-0.0106658,-0.00922935,0.0196228,0.0,0.0,0.0,0.000156536,0.0,0.0,0.0,0.0,0.0,0.259139,0.259139,0.572733,0.271244,0.271244,4.04959,0.0,0.0,0.0,0.0904534,0.0,0.0,0.0,0.0,0.0,0.000144658,0.00122539,0.00190201,0.0,0.0,0.0,0.0,0.0,0.0
23780000,-0.00278173,0.010036,0.000256911,0.00161613,-0.00730153,0.0259705,0.0,0.0,0.0,0.000554056,0.0,0.0,0.0,0.0,0.0,0.259052,0.259052,0.572727,0.271184,0.271184,4.05005,0.0,0.0,0.0,0.0904511,0.0,0.0,0.0,0.0,0.0,9.05967e-05,0.00153147,0.00203512,0.0,0.0,0.0,0.0,0.0,0.0
23972000,-0.0047685,0.0109933,-0.000978358,-0.00924933,-0.00557804,-0.0125732,0.0,0.0,0.0,0.00386534,0.0,0.0,0.0,0.0,0.0,0.258971,0.25897,0.572718,0.271126,0.271126,4.0502,0.0,0.0,0.0,0.0904489,0.0,0.0,0.0,0.0,0.0,8.00659e-05,0.00159568,0.00255827,0.0,0.0,0.0,0.0,0.0,0.0
24164000,-0.00483804,0.0127877,0.000485502,-0.0199715,-0.00433248,-0.01474,0.0,0.0,0.0,4.28525e-05,0.0,0.0,0.0,0.0,0.0,0.25896,0.25896,0.572697,0.271185,0.271185,4.05006,0.0,0.0,0.0,0.0904466,0.0,0.0,0.0,0.0,0.0,6.37861e-05,0.00142086,0.00241886,0.0,0.0,0.0,0.0,0.0,0.0
24356000,-0.00107273,0.0126675,0.000326507,-0.00686552,-0.018439,-0.0514832,0.0,0.0,0.0,0.00262534,0.0,0.0,0.0,0.0,0.0,0.258886,0.258886,0.572684,0.27113,0.27113,4.05018,0.0,0.0,0.0,0.0904442,0.0,0.0,0.0,0.0,0.0,7.9622e-05,0.00150136,0.00244123,0.0,0.0,0.0,0.0,0.0,0.0
24548000,0.00231976,0.0137095,-0.000286564,-0.00570275,-0.00732999,-0.0296021,0.0,0.0,0.0,0.0165883,0.0,0.0,0.0,0.0,0.0,0.258819,0.258819,0.572669,0.271076,0.271076,4.05011,0.0,0.0,0.0,0.0904418,0.0,0.0,0.0,0.0,0.0,0.000133394,0.00156518,0.00219089,0.0,0.0,0.0,0.0,0.0,0.0
24740000,0.00105476,0.0134323,0.00102343,0.00559257,0.00285672,-0.0679321,0.0,0.0,0.0,0.00338431,0.0,0.0,0.0,0.0,0.0,0.258756,0.258756,0.572653,0.271025,0.271025,4.05022,0.0,0.0,0.0,0.0904394,0.0,0.0,0.0,0.0,0.0,0.000113922,0.00243655,0.00459031,0.0,0.0,0.0,0.0,0.0,0.0
24940000,0.000858451,0.0136823,8.45343e-05,-0.016466,0.01149,-0.0351868,0.0,0.0,0.0,0.0011565,0.0,0.0,0.0,0.0,0.0,0.258699,0.258699,0.572637,0.270977,0.270977,4.05031,0.0,0.0,0.0,0.0904362,0.0,0.0,0.0,0.0,0.0,0.000158378,0.00223746,0.00447477,0.0,0.0,0.0,0.0,0.0,0.0
25132000,0.000849096,0.0132042,-0.000809439,0.00744892,0.0112297,0.0270386,0.0,0.0,0.0,-0.00228174,0.0,0.0,0.0,0.0,0.0,0.258645,0.258645,0.57262,0.270931,0.270931,4.05013,0.0,0.0,0.0,0.0904336,0.0,0.0,0.0,0.0,0.0,0.000108861,0.00250843,0.00437488,0.0,0.0,0.0,0.0,0.0,0.0
25324000,-0.00191985,0.00945106,0.0017344,0.0164728,0.00255153,-0.0107422,0.0,0.0,0.0,0.000406857,0.0,0.0,0.0,0.0,0.0,0.258594,0.258594,0.572605,0.270888,0.270888,4.05021,0.0,0.0,0.0,0.0904311,0.0,0.0,0.0,0.0,0.0,0.000107746,0.00297813,0.00565316,0.0,0.0,0.0,0.0,0.0,0.0
25516000,-0.00219712,0.0108022,0.00115684,-0.00759935,0.0109786,-0.0114441,0.0,0.0,0.0,-0.000500808,0.0,0.0,0.0,0.0,0.0,0.258547,0.258547,0.572589,0.270847,0.270847,4.0501,0.0,0.0,0.0,0.0904286,0.0,0.0,0.0,0.0,0.0,6.6863e-05,0.00228795,0.0043887,0.0,0.0,0.0,0.0,0.0,0.0
25708000,-0.0028853,0.0112875,0.000820637,0.014627,0.0106173,-0.0238647,0.0,0.0,0.0,0.00317284,0.0,0.0,0.0,0.0,0.0,0.258504,0.258504,0.572576,0.270809,0.270809,4.05017,0.0,0.0,0.0,0.090426,0.0,0.0,0.0,0.0,0.0,7.1803e-05,0.00246359,0.00479774,0.0,0.0,0.0,0.0,0.0,0.0
25900000,-0.00371656,0.010007,0.00160676,0.00175305,0.0172607,0.0604553,0.0,0.0,0.0,0.00447905,0.0,0.0,0.0,0.0,0.0,0.258462,0.258462,0.572564,0.270772,0.270772,4.05023,0.0,0.0,0.0,0.0904228,0.0,0.0,0.0,0.0,0.0,9.46058e-05,0.00240379,0.00478524,0.0,0.0,0.0,0.0,0.0,0.0
26092000,-0.00534143,0.00964825,-0.00146704,0.000974995,0.0170029,0.0423584,0.0,0.0,0.0,-6.59898e-05,0.0,0.0,0.0,0.0,0.0,0.258426,0.258426,0.572553,0.270738,0.270738,4.05002,0.0,0.0,0.0,0.0904209,0.0,0.0,0.0,0.0,0.0,9.65946e-05,0.00199162,0.0040822,0.0,0.0,0.0,0.0,0.0,0.0
26284000,-0.0047863,0.00713576,-0.000513215,0.0114474,0.0153424,-0.026825,0.0,0.0,0.0,0.0033164,0.0,0.0,0.0,0.0,0.0,0.258388,0.258388,0.572473,0.270706,0.270706,4.05039,0.0,0.0,0.0,0.0904182,0.0,0.0,0.0,0.0,0.0,9.25742e-05,0.00203783,0.00418637,0.0,0.0,0.0,0.0,0.0,0.0
26476000,-0.00461543,0.00337365,-0.00374949,-0.00107782,0.0286619,0.225098,0.0,0.0,0.0,0.000623069,0.0,0.0,0.0,0.0,0.0,0.258354,0.258354,0.572465,0.270676,0.270676,4.05044,0.0,0.0,0.0,0.090415,0.0,0.0,0.0,0.0,0.0,0.000132208,0.00264853,0.006877,0.0,0.0,0.0,0.0,0.0,0.0
26668000,-0.00514209,0.00245508,-0.00356082,-0.00129022,0.0266468,0.00262451,0.0,0.0,0.0,0.00166677,0.0,0.0,0.0,0.0,0.0,0.258311,0.258311,0.572477,0.270578,0.270578,4.05049,0.0,0.0,0.0,0.0904123,0.0,0.0,0.0,0.0,0.0,7.58406e-05,0.00127613,0.0031567,0.0,0.0,0.0,0.0,0.0,0.0
26860000,-0.00702923,0.000525623,-0.00591598,0.00928196,-0.00718157,-0.0526428,0.0,0.0,0.0,0.000238836,0.0,0.0,0.0,0.0,0.0,0.258279,0.258279,0.572472,0.27055,0.27055,4.05036,0.0,0.0,0.0,0.0904098,0.0,0.0,0.0,0.0,0.0,4.71697e-05,0.000830722,0.00242833,0.0,0.0,0.0,0.0,0.0,0.0
27052000,-0.00686992,-0.000921343,-0.00534968,-0.00147624,-0.006875,-0.0308228,0.0,0.0,0.0,0.00722076,0.0,0.0,0.0,0.0,0.0,0.258247,0.258247,0.572468,0.270524,0.270524,4.0504,0.0,0.0,0.0,0.0904071,0.0,0.0,0.0,0.0,0.0,6.09225e-05,0.000849912,0.0014629,0.0,0.0,0.0,0.0,0.0,0.0
27244000,-0.00598415,-0.00151921,-0.00448339,-0.0011635,0.00146305,-0.00604248,0.0,0.0,0.0,0.00336586,0.0,0.0,0.0,0.0,0.0,0.258217,0.258217,0.572466,0.270499,0.270499,4.05018,0.0,0.0,0.0,0.0904045,0.0,0.0,0.0,0.0,0.0,0.000183463,0.00114951,0.0021789,0.0,0.0,0.0,0.0,0.0,0.0
27436000,-0.00631623,-0.00345459,-0.00188252,-0.0119902,-0.0077676,0.0162659,0.0,0.0,0.0,0.00108333,0.0,0.0,0.0,0.0,0.0,0.258186,0.258186,0.572464,0.270475,0.270475,4.05021,0.0,0.0,0.0,0.090402,0.0,0.0,0.0,0.0,0.0,0.000203781,0.00129501,0.00268031,0.0,0.0,0.0,0.0,0.0,0.0
27628000,-0.00821445,-0.0042042,-0.00271531,5.68712e-05,-0.00182226,-0.0258484,0.0,0.0,0.0,0.00751341,0.0,0.0,0.0,0.0,0.0,0.258158,0.258158,0.572462,0.270452,0.270452,4.05034,0.0,0.0,0.0,0.0903993,0.0,0.0,0.0,0.0,0.0,0.000180425,0.000971481,0.00199253,0.0,0.0,0.0,0.0,0.0,0.0
27820000,-0.00949124,-0.00646175,-0.00138472,-0.0121967,0.0117244,0.00534058,0.0,0.0,0.0,0.000104933,0.0,0.0,0.0,0.0,0.0,0.25813,0.25813,0.57246,0.27043,0.27043,4.05036,0.0,0.0,0.0,0.0903966,0.0,0.0,0.0,0.0,0.0,0.000271928,0.000944241,0.00225554,0.0,0.0,0.0,0.0,0.0,0.0
28012000,-0.00892632,-0.00664621,-0.0020137,-0.000311847,0.00969913,0.177429,0.0,0.0,0.0,-0.000269271,0.0,0.0,0.0,0.0,0.0,0.258103,0.258104,0.572459,0.270408,0.270408,4.05012,0.0,0.0,0.0,0.0903942,0.0,0.0,0.0,0.0,0.0,0.000195463,0.000875665,0.00166242,0.0,0.0,0.0,0.0,0.0,0.0
28204000,-0.00916852,-0.00730179,-0.00377772,-0.0021243,-0.0140343,-0.194794,0.0,0.0,0.0,-0.00457441,0.0,0.0,0.0,0.0,0.0,0.258079,0.258079,0.57246,0.270388,0.270388,4.04998,0.0,0.0,0.0,0.0903915,0.0,0.0,0.0,0.0,0.0,0.000185204,0.00207078,0.00461947,0.0,0.0,0.0,0.0,0.0,0.0
28396000,-0.0105691,-0.00555934,0.000866823,-0.012457,-0.0120787,-0.0124512,0.0,0.0,0.0,-0.00014843,0.0,0.0,0.0,0.0,0.0,0.258052,0.258053,0.572393,0.270368,0.270368,4.05001,0.0,0.0,0.0,0.0903889,0.0,0.0,0.0,0.0,0.0,0.000122789,0.00286487,0.00658228,0.0,0.0,0.0,0.0,0.0,0.0
28588000,-0.0094141,-0.00638543,0.00151736,-0.0109401,0.00233563,-0.0222168,0.0,0.0,0.0,0.00581346,0.0,0.0,0.0,0.0,0.0,0.258028,0.258028,0.572396,0.270349,0.270349,4.05004,0.0,0.0,0.0,0.0903857,0.0,0.0,0.0,0.0,0.0,0.00011979,0.00213264,0.00496827,0.0,0.0,0.0,0.0,0.0,0.0
28780000,-0.00950663,-0.00686502,0.00164887,-0.0113735,0.0161767,0.110077,0.0,0.0,0.0,-0.000233507,0.0,0.0,0.0,0.0,0.0,0.258004,0.258004,0.5724,0.27033,0.27033,4.0504,0.0,0.0,0.0,0.0903833,0.0,0.0,0.0,0.0,0.0,0.000110188,0.00121001,0.00237973,0.0,0.0,0.0,0.0,0.0,0.0
28972000,-0.00495174,-0.00720991,-6.62506e-05,-0.0104336,-0.00894647,0.0322876,0.0,0.0,0.0,0.000807988,0.0,0.0,0.0,0.0,0.0,0.257982,0.257982,0.572404,0.270312,0.270312,4.05043,0.0,0.0,0.0,0.0903807,0.0,0.0,0.0,0.0,0.0,0.000154747,0.00141424,0.00291059,0.0,0.0,0.0,0.0,0.0,0.0
29164000,-0.00422151,-0.00560652,0.00170473,0.00111541,-0.0011719,0.0179749,0.0,0.0,0.0,0.00468373,0.0,0.0,0.0,0.0,0.0,0.257995,0.257995,0.572459,0.270384,0.270384,4.05045,0.0,0.0,0.0,0.0903782,0.0,0.0,0.0,0.0,0.0,0.000127391,0.000884754,0.00178337,0.0,0.0,0.0,0.0,0.0,0.0
29356000,-0.00588623,-0.0066585,0.00292876,0.00112994,0.00582088,0.00875854,0.0,0.0,0.0,0.00233923,0.0,0.0,0.0,0.0,0.0,0.257972,0.257972,0.572463,0.270366,0.270366,4.05021,0.0,0.0,0.0,0.0903751,0.0,0.0,0.0,0.0,0.0,0.000141384,0.000746347,0.00127077,0.0,0.0,0.0,0.0,0.0,0.0
29548000,-0.00521677,-0.00715991,0.00313402,-0.0211184,0.00473903,0.00991821,0.0,0.0,0.0,0.00171451,0.0,0.0,0.0,0.0,0.0,0.257951,0.257951,0.572399,0.270349,0.270349,4.05008,0.0,0.0,0.0,0.0903728,0.0,0.0,0.0,0.0,0.0,0.000191058,0.000669636,0.00137254,0.0,0.0,0.0,0.0,0.0,0.0
29740000,-0.0056137,-0.0080516,0.00487451,0.0027536,-0.00325633,-0.00799561,0.0,0.0,0.0,0.00228684,0.0,0.0,0.0,0.0,0.0,0.257929,0.257929,0.572405,0.270332,0.270332,4.05013,0.0,0.0,0.0,0.0903703,0.0,0.0,0.0,0.0,0.0,0.000159555,0.0015413,0.00387806,0.0,0.0,0.0,0.0,0.0,0.0
29932000,-0.00429645,-0.00947306,0.00783408,-0.0195799,-0.0177311,0.0491638,0.0,0.0,0.0,9.65986e-05,0.0,0.0,0.0,0.0,0.0,0.257907,0.257907,0.572411,0.270316,0.270316,4.05016,0.0,0.0,0.0,0.0903678,0.0,0.0,0.0,0.0,0.0,0.000156327,0.00175107,0.00352837,0.0,0.0,0.0,0.0,0.0,0.0
30124000,-0.00464757,-0.00938678,0.00999719,-0.00698583,-0.0313974,-0.0090332,0.0,0.0,0.0,0.00163475,0.0,0.0,0.0,0.0,0.0,0.257888,0.257888,0.572416,0.2703,0.2703,4.05003,0.0,0.0,0.0,0.0903655,0.0,0.0,0.0,0.0,0.0,0.000196522,0.00244116,0.00510331,0.0,0.0,0.0,0.0,0.0,0.0
30316000,-0.00481533,-0.00582237,0.00756049,0.00465924,-0.0130906,0.0253601,0.0,0.0,0.0,0.000703487,0.0,0.0,0.0,0.0,0.0,0.257869,0.257869,0.572422,0.270284,0.270284,4.05007,0.0,0.0,0.0,0.090363,0.0,0.0,0.0,0.0,0.0,0.000181063,0.00246524,0.00555938,0.0,0.0,0.0,0.0,0.0,0.0
30508000,-0.00650742,-0.00373719,0.00525135,-0.0078077,0.00331247,-0.00915527,0.0,0.0,0.0,0.00127832,0.0,0.0,0.0,0.0,0.0,0.257853,0.257853,0.572429,0.270269,0.270269,4.05012,0.0,0.0,0.0,0.0903606,0.0,0.0,0.0,0.0,0.0,8.42423e-05,0.00157044,0.00395039,0.0,0.0,0.0,0.0,0.0,0.0
30700000,-0.00541552,-0.000638186,0.00382178,-0.0193798,-0.011375,0.0838928,0.0,0.0,0.0,0.00384949,0.0,0.0,0.0,0.0,0.0,0.257835,0.257835,0.572435,0.270254,0.270254,4.0499,0.0,0.0,0.0,0.0903578,0.0,0.0,0.0,0.0,0.0,7.18835e-05,0.00174605,0.00501097,0.0,0.0,0.0,0.0,0.0,0.0
30892000,-0.00260092,0.00209282,0.00449332,-0.00672419,0.0280491,0.0139465,0.0,0.0,0.0,-0.00148257,0.0,0.0,0.0,0.0,0.0,0.257818,0.257818,0.572441,0.27024,0.27024,4.05026,0.0,0.0,0.0,0.0903556,0.0,0.0,0.0,0.0,0.0,0.000114064,0.000904088,0.00235986,0.0,0.0,0.0,0.0,0.0,0.0
31084000,-0.000461282,0.00465216,0.00369513,-0.0161083,0.0110423,0.0473022,0.0,0.0,0.0,-0.00366047,0.0,0.0,0.0,0.0,0.0,0.257802,0.257802,0.572448,0.270226,0.270226,4.05031,0.0,0.0,0.0,0.0903532,0.0,0.0,0.0,0.0,0.0,0.000121894,0.00179181,0.00462987,0.0,0.0,0.0,0.0,0.0,0.0
31276000,0.00206094,0.00645341,0.00395323,-0.00327197,0.00320145,0.0584717,0.0,0.0,0.0,-0.00790962,0.0,0.0,0.0,0.0,0.0,0.257786,0.257786,0.572455,0.270212,0.270212,4.05036,0.0,0.0,0.0,0.0903508,0.0,0.0,0.0,0.0,0.0,0.000186827,0.00167251,0.00384061,0.0,0.0,0.0,0.0,0.0,0.0
31468000,0.000688739,0.00951016,0.00211884,-0.00297106,0.0185558,0.0178528,0.0,0.0,0.0,-0.0121718,0.0,0.0,0.0,0.0,0.0,0.257756,0.257756,0.572404,0.270126,0.270126,4.05024,0.0,0.0,0.0,0.0903487,0.0,0.0,0.0,0.0,0.0,0.000233506,0.00188013,0.0043424,0.0,0.0,0.0,0.0,0.0,0.0
31660000,0.00374869,0.0121655,0.0037415,-0.00306076,0.00259754,0.0687561,0.0,0.0,0.0,-0.00465338,0.0,0.0,0.0,0.0,0.0,0.25774,0.25774,0.57241,0.270114,0.270114,4.05029,0.0,0.0,0.0,0.0903464,0.0,0.0,0.0,0.0,0.0,0.000284252,0.00210732,0.00478214,0.0,0.0,0.0,0.0,0.0,0.0
31852000,0.00633865,0.014957,0.00377949,0.00824447,0.00390356,-0.116241,0.0,0.0,0.0,0.00067377,0.0,0.0,0.0,0.0,0.0,0.257726,0.257726,0.572417,0.270101,0.270101,4.05008,0.0,0.0,0.0,0.0903437,0.0,0.0,0.0,0.0,0.0,0.000232659,0.00232736,0.00470382,0.0,0.0,0.0,0.0,0.0,0.0
32044000,0.00612367,0.0193616,0.00458346,-0.00327331,-0.00850122,0.0325928,0.0,0.0,0.0,-0.00211536,0.0,0.0,0.0,0.0,0.0,0.257713,0.257713,0.572424,0.270089,0.270089,4.05013,0.0,0.0,0.0,0.0903414,0.0,0.0,0.0,0.0,0.0,0.000119767,0.00194752,0.00389929,0.0,0.0,0.0,0.0,0.0,0.0
32236000,0.00526054,0.0210159,0.00540799,0.00720288,0.000381454,0.0704651,0.0,0.0,0.0,-0.000438864,0.0,0.0,0.0,0.0,0.0,0.257699,0.257699,0.57243,0.270077,0.270077,4.05001,0.0,0.0,0.0,0.0903394,0.0,0.0,0.0,0.0,0.0,0.000101619,0.00255163,0.00482482,0.0,0.0,0.0,0.0,0.0,0.0
32428000,0.00572562,0.022602,0.00256196,0.00772615,0.00297824,0.16925,0.0,0.0,0.0,0.00572248,0.0,0.0,0.0,0.0,0.0,0.257688,0.257688,0.572436,0.270066,0.270066,4.05007,0.0,0.0,0.0,0.0903372,0.0,0.0,0.0,0.0,0.0,8.38069e-05,0.00263316,0.0054757,0.0,0.0,0.0,0.0,0.0,0.0
32620000,0.00597853,0.0234176,0.000806134,0.00814759,-0.0166543,0.0378723,0.0,0.0,0.0,0.000846736,0.0,0.0,0.0,0.0,0.0,0.257677,0.257677,0.572443,0.270055,0.270055,4.05013,0.0,0.0,0.0,0.090335,0.0,0.0,0.0,0.0,0.0,0.000114712,0.00181703,0.00309858,0.0,0.0,0.0,0.0,0.0,0.0
32812000,0.0025985,0.0234397,-0.000683047,-0.00285809,0.0019622,-0.0167236,0.0,0.0,0.0,-0.0087948,0.0,0.0,0.0,0.0,0.0,0.257666,0.257666,0.572449,0.270044,0.270044,4.04992,0.0,0.0,0.0,0.0903324,0.0,0.0,0.0,0.0,0.0,7.60604e-05,0.00193261,0.00348722,0.0,0.0,0.0,0.0,0.0,0.0
33004000,-0.00169693,0.0227439,-0.000734792,-0.0152314,-0.00264415,-0.0513,0.0,0.0,0.0,-0.00153339,0.0,0.0,0.0,0.0,0.0,0.257655,0.257655,0.572456,0.270034,0.270034,4.0498,0.0,0.0,0.0,0.0903305,0.0,0.0,0.0,0.0,0.0,9.409e-05,0.0014593,0.00237646,0.0,0.0,0.0,0.0,0.0,0.0
33196000,-0.000264663,0.0214385,-0.000196099,-0.0139461,0.0352097,0.0368042,0.0,0.0,0.0,0.00124735,0.0,0.0,0.0,0.0,0.0,0.257645,0.257645,0.572393,0.270024,0.270024,4.04986,0.0,0.0,0.0,0.0903284,0.0,0.0,0.0,0.0,0.0,0.000129332,0.00349458,0.00743797,0.0,0.0,0.0,0.0,0.0,0.0
33388000,-0.000488624,0.0182297,-0.00190158,-0.000820661,0.01755,-0.0535583,0.0,0.0,0.0,0.00334924,0.0,0.0,0.0,0.0,0.0,0.257636,0.257636,0.572466,0.270015,0.270015,4.0499,0.0,0.0,0.0,0.0903262,0.0,0.0,0.0,0.0,0.0,0.000174909,0.0036081,0.00786063,0.0,0.0,0.0,0.0,0.0,0.0
33580000,-0.00138746,0.0172337,-0.00357438,0.0110356,0.0241474,-0.00772095,0.0,0.0,0.0,0.00772858,0.0,0.0,0.0,0.0,0.0,0.257626,0.257626,0.5724,0.270006,0.270006,4.05026,0.0,0.0,0.0,0.0903243,0.0,0.0,0.0,0.0,0.0,0.000197206,0.00330928,0.00683649,0.0,0.0,0.0,0.0,0.0,0.0
33772000,-0.00157409,0.0168517,-0.00419146,0.00850116,0.0162399,0.0730896,0.0,0.0,0.0,-0.00103253,0.0,0.0,0.0,0.0,0.0,0.257616,0.257616,0.572405,0.269997,0.269997,4.05031,0.0,0.0,0.0,0.0903223,0.0,0.0,0.0,0.0,0.0,0.000187796,0.00264078,0.00547658,0.0,0.0,0.0,0.0,0.0,0.0
33964000,-0.0020231,0.0157941,-0.00358565,0.0077102,0.00850674,-0.20874,0.0,0.0,0.0,-0.00238346,0.0,0.0,0.0,0.0,0.0,0.257634,0.257634,0.572461,0.270071,0.270071,4.05035,0.0,0.0,0.0,0.0903202,0.0,0.0,0.0,0.0,0.0,0.000116802,0.00148182,0.00362515,0.0,0.0,0.0,0.0,0.0,0.0
34156000,-0.0027215,0.0154481,-0.00496414,-0.00562985,0.0312642,0.0595398,0.0,0.0,0.0,0.00179867,0.0,0.0,0.0,0.0,0.0,0.257626,0.257626,0.572465,0.270062,0.270062,4.05023,0.0,0.0,0.0,0.0903184,0.0,0.0,0.0,0.0,0.0,0.000108567,0.00135673,0.00304163,0.0,0.0,0.0,0.0,0.0,0.0
34348000,-0.00477901,0.0152571,-0.00615211,-0.00538362,0.0147458,-0.0198669,0.0,0.0,0.0,0.00117614,0.0,0.0,0.0,0.0,0.0,0.257618,0.257618,0.572401,0.270054,0.270054,4.05027,0.0,0.0,0.0,0.0903164,0.0,0.0,0.0,0.0,0.0,0.000131793,0.00111543,0.00258008,0.0,0.0,0.0,0.0,0.0,0.0
34540000,-0.00346904,0.0140566,-0.00668401,-0.00505998,0.00798132,0.151733,0.0,0.0,0.0,0.00579032,0.0,0.0,0.0,0.0,0.0,0.257609,0.257609,0.572406,0.270046,0.270046,4.05032,0.0,0.0,0.0,0.0903144,0.0,0.0,0.0,0.0,0.0,0.000149131,0.00050221,0.00122321,0.0,0.0,0.0,0.0,0.0,0.0
34732000,-0.00243241,0.0150457,-0.00601783,0.0167781,0.0160185,-0.0865479,0.0,0.0,0.0,-0.00188069,0.0,0.0,0.0,0.0,0.0,0.2576,0.2576,0.572409,0.270039,0.270039,4.05018,0.0,0.0,0.0,0.0903126,0.0,0.0,0.0,0.0,0.0,0.000164718,0.000545344,0.00105992,0.0,0.0,0.0,0.0,0.0,0.0
34924000,-0.00122831,0.0143098,-0.00542206,-0.00722131,-0.00657704,0.0652161,0.0,0.0,0.0,0.00360168,0.0,0.0,0.0,0.0,0.0,0.257592,0.257593,0.572412,0.270031,0.270031,4.05022,0.0,0.0,0.0,0.0903106,0.0,0.0,0.0,0.0,0.0,0.000206059,0.000432521,0.00113761,0.0,0.0,0.0,0.0,0.0,0.0
35116000,0.0010118,0.0153734,-0.00632979,0.00409827,0.0106947,-0.156921,0.0,0.0,0.0,-0.00598338,0.0,0.0,0.0,0.0,0.0,0.257586,0.257586,0.572416,0.270024,0.270024,4.05,0.0,0.0,0.0,0.0903084,0.0,0.0,0.0,0.0,0.0,0.000156531,0.00169656,0.00495071,0.0,0.0,0.0,0.0,0.0,0.0
35308000,0.000246358,0.0132267,-0.00725216,0.00441338,0.0182967,0.00531006,0.0,0.0,0.0,0.00273778,0.0,0.0,0.0,0.0,0.0,0.257579,0.257579,0.57242,0.270017,0.270017,4.05004,0.0,0.0,0.0,0.0903065,0.0,0.0,0.0,0.0,0.0,0.000179105,0.000726785,0.00182626,0.0,0.0,0.0,0.0,0.0,0.0
35500000,0.000387385,0.0112914,-0.0060375,-0.0176559,-0.00390322,0.13855,0.0,0.0,0.0,-0.00224512,0.0,0.0,0.0,0.0,0.0,0.257571,0.257571,0.572426,0.270011,0.270011,4.04982,0.0,0.0,0.0,0.0903044,0.0,0.0,0.0,0.0,0.0,0.000129379,0.000741929,0.00194454,0.0,0.0,0.0,0.0,0.0,0.0
35692000,0.00168201,0.0100643,-0.00684433,-0.00550255,0.0199552,-0.0554504,0.0,0.0,0.0,0.00307098,0.0,0.0,0.0,0.0,0.0,0.257565,0.257565,0.572433,0.270004,0.270004,4.05019,0.0,0.0,0.0,0.0903027,0.0,0.0,0.0,0.0,0.0,0.000120174,0.000582412,0.00159562,0.0,0.0,0.0,0.0,0.0,0.0
35884000,0.00115062,0.00661511,-0.00916361,0.00653527,0.0169351,-0.0339661,0.0,0.0,0.0,0.00178434,0.0,0.0,0.0,0.0,0.0,0.257559,0.257559,0.572441,0.269998,0.269998,4.05025,0.0,0.0,0.0,0.0903009,0.0,0.0,0.0,0.0,0.0,0.00019444,0.00109036,0.00263796,0.0,0.0,0.0,0.0,0.0,0.0
36076000,-0.00151788,0.00866317,-0.0109763,0.0165575,-0.00661545,-0.0323486,0.0,0.0,0.0,0.000267973,0.0,0.0,0.0,0.0,0.0,0.257554,0.257554,0.572448,0.269992,0.269992,4.05031,0.0,0.0,0.0,0.0902991,0.0,0.0,0.0,0.0,0.0,0.0001686,0.00107724,0.00241085,0.0,0.0,0.0,0.0,0.0,0.0
36268000,-0.00283513,0.00657898,-0.00982433,0.00402026,0.0168239,0.102539,0.0,0.0,0.0,0.000144433,0.0,0.0,0.0,0.0,0.0,0.257527,0.257527,0.572398,0.269912,0.269912,4.0502,0.0,0.0,0.0,0.0902974,0.0,0.0,0.0,0.0,0.0,0.000149634,0.000702472,0.00144825,0.0,0.0,0.0,0.0,0.0,0.0
36460000,-0.00244052,0.00566855,-0.0113517,0.0142704,0.0145165,-0.00408936,0.0,0.0,0.0,0.00205098,0.0,0.0,0.0,0.0,0.0,0.257522,0.257522,0.572405,0.269906,0.269906,4.05026,0.0,0.0,0.0,0.0902957,0.0,0.0,0.0,0.0,0.0,0.000171167,0.000732199,0.00199694,0.0,0.0,0.0,0.0,0.0,0.0
36652000,-0.00200204,0.00499017,-0.010842,-0.00941304,0.0136706,0.160095,0.0,0.0,0.0,0.00231964,0.0,0.0,0.0,0.0,0.0,0.257515,0.257515,0.572412,0.269901,0.269901,4.05005,0.0,0.0,0.0,0.0902936,0.0,0.0,0.0,0.0,0.0,0.000260633,0.0015051,0.00481718,0.0,0.0,0.0,0.0,0.0,0.0
36844000,-0.00341452,0.00135286,-0.0308082,0.0130419,-0.00242335,-0.0687561,0.0,0.0,0.0,0.00543894,0.0,0.0,0.0,0.0,0.0,0.257519,0.257519,0.572419,0.269896,0.269896,4.05011,0.0,0.0,0.0,0.0902919,0.0,0.0,0.0,0.0,0.0,0.00021815,0.00102196,0.00241426,0.0,0.0,0.0,0.0,0.0,0.0
37036000,-0.000826072,0.00203171,-0.174239,-0.0113076,-0.00406926,0.00332642,0.0,0.0,0.0,0.00584517,0.0,0.0,0.0,0.0,0.0,0.257629,0.257629,0.572425,0.269899,0.269899,4.04999,0.0,0.0,0.0,0.0902904,0.0,0.0,0.0,0.0,0.0,0.000257431,0.00319289,0.00457647,0.0,0.0,0.0,0.0,0.0,0.0
37228000,0.00151408,0.00559182,-0.158422,-0.000185363,-0.00891295,0.248535,0.0,0.0,0.0,-0.00181668,0.0,0.0,0.0,0.0,0.0,0.25775,0.25775,0.572432,0.269916,0.269916,4.05005,0.0,0.0,0.0,0.0902887,0.0,0.0,0.0,0.0,0.0,0.000170888,0.00456707,0.0073217,0.0,0.0,0.0,0.0,0.0,0.0
37420000,-0.00705115,-0.000919542,-0.148076,0.00138061,-0.000913003,0.00274658,0.0,0.0,0.0,0.00354062,0.0,0.0,0.0,0.0,0.0,0.257869,0.25787,0.572439,0.269943,0.269943,4.05011,0.0,0.0,0.0,0.090287,0.0,0.0,0.0,0.0,0.0,0.000220962,0.00659895,0.0134973,0.0,0.0,0.0,0.0,0.0,0.0
37612000,-0.00577447,-0.00955569,-0.134636,-0.0198306,0.00102994,0.061676,0.0,0.0,0.0,0.00382548,0.0,0.0,0.0,0.0,0.0,0.257984,0.257985,0.572443,0.269978,0.269979,4.04998,0.0,0.0,0.0,0.0902855,0.0,0.0,0.0,0.0,0.0,0.000223164,0.00586297,0.0118175,0.0,0.0,0.0,0.0,0.0,0.0
37812000,-0.0113072,-0.00852182,-0.183552,-0.0150154,0.00369534,-0.00445557,0.0,0.0,0.0,0.0034078,0.0,0.0,0.0,0.0,0.0,0.258091,0.258091,0.572447,0.27002,0.27002,4.05003,0.0,0.0,0.0,0.0902839,0.0,0.0,0.0,0.0,0.0,0.000243803,0.00643063,0.0122762,0.0,0.0,0.0,0.0,0.0,0.0
38004000,-0.0136615,-0.00754662,-0.169591,-0.0112704,-0.00895259,0.0397034,0.0,0.0,0.0,0.00325608,0.0,0.0,0.0,0.0,0.0,0.258183,0.258183,0.572452,0.270066,0.270066,4.05007,0.0,0.0,0.0,0.0902823,0.0,0.0,0.0,0.0,0.0,0.000213944,0.00630545,0.0118358,0.0,0.0,0.0,0.0,0.0,0.0
38196000,-0.0141554,-0.0111601,-0.147482,-0.0288273,-0.00377223,0.161346,0.0,0.0,0.0,0.00686456,0.0,0.0,0.0,0.0,0.0,0.258262,0.258262,0.572455,0.270114,0.270114,4.05011,0.0,0.0,0.0,0.0902807,0.0,0.0,0.0,0.0,0.0,0.000248204,0.004419,0.00724951,0.0,0.0,0.0,0.0,0.0,0.0
38388000,-0.0149079,-0.0142171,-0.132348,-0.0225685,-0.00740198,0.102966,0.0,0.0,0.0,-0.00115459,0.0,0.0,0.0,0.0,0.0,0.257908,0.257908,0.572458,0.270151,0.270151,4.05047,0.0,0.0,0.0,0.0976564,0.0,0.0,0.0,0.0,0.0,0.00031664,0.00472681,0.00837637,0.0,0.0,0.0,0.0,0.0,0.0
38580000,-0.0132041,-0.0111544,-0.113202,-0.0171162,-0.0038252,0.0227356,0.0,0.0,0.0,-2.40677e-06,0.0,0.0,0.0,0.0,0.0,0.257565,0.257565,0.572461,0.270073,0.270073,4.0505,0.0,0.0,0.0,0.0943366,0.0,0.0,0.0,0.0,0.0,0.00154784,0.0038096,0.00868009,0.0,0.0,0.0,0.0,0.0,0.0
38772000,-0.016159,-0.0139523,0.0362194,-0.0229301,-0.0161069,0.0555115,0.0,0.0,0.0,0.00600434,0.0,0.0,0.0,0.0,0.0,0.258304,0.258304,0.572464,0.269923,0.269923,4.05054,0.0,0.0,0.0,0.0930252,0.0,0.0,0.0,0.0,0.0,0.000895962,0.00474074,0.0115639,0.0,0.0,0.0,0.0,0.0,0.0
38964000,-0.0188886,-0.0126165,0.129905,-0.0204269,0.00888292,-0.00512695,0.0,0.0,0.0,-0.00329635,0.0,0.0,0.0,0.0,0.0,0.258931,0.258931,0.57245,0.269919,0.269919,4.0504,0.0,0.0,0.0,0.0923845,0.0,0.0,0.0,0.0,0.0,0.000172703,0.00629453,0.0147975,0.0,0.0,0.0,0.0,0.0,0.0
39156000,-0.0133711,-0.0161458,0.159126,-0.00456123,-0.0113012,0.0629578,0.0,0.0,0.0,0.000249383,0.0,0.0,0.0,0.0,0.0,0.26052,0.26052,0.572452,0.269817,0.269817,4.05043,0.0,0.0,0.0,0.0919259,0.0,0.0,0.0,0.0,0.0,0.00022763,0.00986576,0.0221584,0.0,0.0,0.0,0.0,0.0,0.0
39348000,-0.00680877,-0.00883214,0.128852,0.00893097,-0.0156357,-0.0891724,0.0,0.0,0.0,-0.000428925,0.0,0.0,0.0,0.0,0.0,0.262452,0.262453,0.572455,0.269835,0.269835,4.05019,0.0,0.0,0.0,0.0916154,0.0,0.0,0.0,0.0,0.0,0.000155248,0.00809006,0.0165684,0.0,0.0,0.0,0.0,0.0,0.0
39540000,-0.0112422,-0.0109304,0.0978631,-0.026007,-0.0201837,0.0656738,0.0,0.0,0.0,-0.0036348,0.0,0.0,0.0,0.0,0.0,0.264445,0.264446,0.572459,0.270011,0.270011,4.05023,0.0,0.0,0.0,0.0913913,0.0,0.0,0.0,0.0,0.0,0.000603834,0.00804801,0.0168665,0.0,0.0,0.0,0.0,0.0,0.0
39732000,-0.0125898,-0.012782,0.074291,-0.0133255,-0.0107814,0.0335999,0.0,0.0,0.0,0.000114481,0.0,0.0,0.0,0.0,0.0,0.266257,0.266258,0.572464,0.270344,0.270345,4.05009,0.0,0.0,0.0,0.0912387,0.0,0.0,0.0,0.0,0.0,0.000561446,0.00717564,0.0152934,0.0,0.0,0.0,0.0,0.0,0.0
39932000,-0.00350747,-0.00321205,0.054206,-0.0127894,-0.022049,-0.021637,0.0,0.0,0.0,-0.00278624,0.0,0.0,0.0,0.0,0.0,0.267678,0.267679,0.5724,0.270799,0.2708,4.05013,0.0,0.0,0.0,0.0911029,0.0,0.0,0.0,0.0,0.0,0.000198447,0.00526276,0.00994577,0.0,0.0,0.0,0.0,0.0,0.0
40132000,-0.00536643,-0.00407983,0.0418901,0.00892673,0.00347968,-0.168091,0.0,0.0,0.0,0.00407286,0.0,0.0,0.0,0.0,0.0,0.268623,0.268623,0.572405,0.271321,0.271321,4.05008,0.0,0.0,0.0,0.0909833,0.0,0.0,0.0,0.0,0.0,0.00012441,0.00235253,0.00341391,0.0,0.0,0.0,0.0,0.0,0.0
40324000,-0.000333946,-0.0120676,0.0435029,-0.00603485,0.0233833,-0.0690002,0.0,0.0,0.0,0.000377289,0.0,0.0,0.0,0.0,0.0,0.269078,0.269078,0.572411,0.271853,0.271853,4.04995,0.0,0.0,0.0,0.0909049,0.0,0.0,0.0,0.0,0.0,0.000130249,0.00257678,0.00510431,0.0,0.0,0.0,0.0,0.0,0.0
40524000,-0.00137571,-0.0138688,0.0189496,-0.00900555,-0.0154243,0.00280762,0.0,0.0,0.0,0.000632239,0.0,0.0,0.0,0.0,0.0,0.269114,0.269114,0.572417,0.272347,0.272347,4.05,0.0,0.0,0.0,0.0908307,0.0,0.0,0.0,0.0,0.0,0.000420644,0.00305034,0.00509329,0.0,0.0,0.0,0.0,0.0,0.0
40724000,0.00897277,-0.0138902,0.0088495,0.0194475,-0.0146659,-0.0392151,0.0,0.0,0.0,-0.00196007,0.0,0.0,0.0,0.0,0.0,0.268801,0.268801,0.572423,0.272772,0.272772,4.05005,0.0,0.0,0.0,0.0907678,0.0,0.0,0.0,0.0,0.0,0.000260018,0.00434603,0.00617461,0.0,0.0,0.0,0.0,0.0,0.0
40916000,0.00224651,-0.0121213,0.00782979,0.000549335,-0.0127026,-0.0119324,0.0,0.0,0.0,0.00383758,0.0,0.0,0.0,0.0,0.0,0.268237,0.268237,0.57243,0.273111,0.273112,4.0501,0.0,0.0,0.0,0.090714,0.0,0.0,0.0,0.0,0.0,0.000266932,0.0042225,0.00624158,0.0,0.0,0.0,0.0,0.0,0.0
41108000,0.0156039,-0.0133034,0.00583732,-0.00650837,0.00203079,-0.0911255,0.0,0.0,0.0,-0.00641891,0.0,0.0,0.0,0.0,0.0,0.267511,0.267511,0.572436,0.273361,0.273361,4.04988,0.0,0.0,0.0,0.0906674,0.0,0.0,0.0,0.0,0.0,0.000164785,0.004171,0.00752127,0.0,0.0,0.0,0.0,0.0,0.0
41300000,0.00773289,-0.0142777,0.00256503,0.00920875,-0.000565797,-0.00222778,0.0,0.0,0.0,0.00456714,0.0,0.0,0.0,0.0,0.0,0.266701,0.266701,0.572443,0.273525,0.273525,4.04993,0.0,0.0,0.0,0.0906266,0.0,0.0,0.0,0.0,0.0,0.000169355,0.00392052,0.00637089,0.0,0.0,0.0,0.0,0.0,0.0
41492000,0.0102221,-0.0140486,-0.00737333,0.0249963,-0.0216906,0.0166931,0.0,0.0,0.0,0.00342528,0.0,0.0,0.0,0.0,0.0,0.265858,0.265858,0.572449,0.273611,0.273611,4.0503,0.0,0.0,0.0,0.0905945,0.0,0.0,0.0,0.0,0.0,0.00029141,0.00539279,0.00845381,0.0,0.0,0.0,0.0,0.0,0.0
41684000,0.0126827,-0.0121743,-0.00221348,0.0060328,-0.0196878,0.0883789,0.0,0.0,0.0,-0.0051307,0.0,0.0,0.0,0.0,0.0,0.265011,0.265011,0.572456,0.27363,0.27363,4.05036,0.0,0.0,0.0,0.0905623,0.0,0.0,0.0,0.0,0.0,0.000391052,0.00510154,0.00825767,0.0,0.0,0.0,0.0,0.0,0.0
41884000,0.00937053,-0.0154666,0.00232375,0.0124643,-0.0114783,-0.0350647,0.0,0.0,0.0,0.00515908,0.0,0.0,0.0,0.0,0.0,0.26419,0.26419,0.572394,0.273592,0.273592,4.05015,0.0,0.0,0.0,0.0905334,0.0,0.0,0.0,0.0,0.0,0.00045384,0.00404117,0.00686502,0.0,0.0,0.0,0.0,0.0,0.0
42076000,0.00649082,-0.0167954,-0.00113499,0.00940672,-0.00408869,0.123688,0.0,0.0,0.0,-0.000724079,0.0,0.0,0.0,0.0,0.0,0.263411,0.263412,0.572402,0.273507,0.273507,4.0502,0.0,0.0,0.0,0.0905076,0.0,0.0,0.0,0.0,0.0,0.000228153,0.00333083,0.00739134,0.0,0.0,0.0,0.0,0.0,0.0
42268000,0.00713365,-0.0185333,-7.41482e-05,0.00792878,-0.0195483,-0.000610352,0.0,0.0,0.0,1.0496e-06,0.0,0.0,0.0,0.0,0.0,0.262999,0.262999,0.57242,0.273335,0.273335,4.05026,0.0,0.0,0.0,0.0904844,0.0,0.0,0.0,0.0,0.0,0.000246187,0.00185631,0.00430253,0.0,0.0,0.0,0.0,0.0,0.0
42460000,0.0023715,-0.0162316,-0.00465441,0.00625037,-0.00278988,0.0466003,0.0,0.0,0.0,0.00111751,0.0,0.0,0.0,0.0,0.0,0.262306,0.262307,0.572426,0.273201,0.273201,4.0504,0.0,0.0,0.0,0.0904656,0.0,0.0,0.0,0.0,0.0,0.000234311,0.00140345,0.00385903,0.0,0.0,0.0,0.0,0.0,0.0
42652000,0.00869818,-0.0186061,0.00125396,-0.0042315,0.0110562,-0.0269165,0.0,0.0,0.0,0.00385537,0.0,0.0,0.0,0.0,0.0,0.261665,0.261665,0.57243,0.27304,0.27304,4.05018,0.0,0.0,0.0,0.0904462,0.0,0.0,0.0,0.0,0.0,0.00017879,0.00163743,0.0053086,0.0,0.0,0.0,0.0,0.0,0.0
42844000,0.00928293,-0.020235,-0.00885499,-0.00359426,-0.00711099,-0.0536194,0.0,0.0,0.0,0.00423835,0.0,0.0,0.0,0.0,0.0,0.261082,0.261082,0.572434,0.27286,0.27286,4.05022,0.0,0.0,0.0,0.0904285,0.0,0.0,0.0,0.0,0.0,0.000259886,0.00106567,0.00318477,0.0,0.0,0.0,0.0,0.0,0.0
43036000,0.0134758,-0.0202912,-0.0117959,-0.00098023,0.000271942,-0.0266418,0.0,0.0,0.0,0.00221163,0.0,0.0,0.0,0.0,0.0,0.260556,0.260556,0.572438,0.272667,0.272667,4.05009,0.0,0.0,0.0,0.090414,0.0,0.0,0.0,0.0,0.0,0.000280416,0.00124291,0.00368596,0.0,0.0,0.0,0.0,0.0,0.0
43228000,0.0134222,-0.0189988,-0.00284088,0.000502272,-0.0249306,-0.0711365,0.0,0.0,0.0,0.00404285,0.0,0.0,0.0,0.0,0.0,0.260079,0.26008,0.572442,0.272465,0.272465,4.05014,0.0,0.0,0.0,0.0903991,0.0,0.0,0.0,0.0,0.0,0.000223896,0.00157981,0.00457072,0.0,0.0,0.0,0.0,0.0,0.0
43420000,0.0135945,-0.0173468,-0.037993,-0.00837215,-0.0152475,0.0480347,0.0,0.0,0.0,0.00603894,0.0,0.0,0.0,0.0,0.0,0.259668,0.259669,0.572447,0.272257,0.272258,4.05019,0.0,0.0,0.0,0.0903852,0.0,0.0,0.0,0.0,0.0,0.000228916,0.00220119,0.00608359,0.0,0.0,0.0,0.0,0.0,0.0
43612000,0.0102864,-0.0158328,-0.225849,0.00430687,-0.00704413,-0.0690918,0.0,0.0,0.0,0.0060718,0.0,0.0,0.0,0.0,0.0,0.259401,0.259402,0.572453,0.272055,0.272055,4.04997,0.0,0.0,0.0,0.0903725,0.0,0.0,0.0,0.0,0.0,0.000229617,0.00578597,0.0114846,0.0,0.0,0.0,0.0,0.0,0.0
43804000,0.0120694,-0.0257914,-0.361546,0.0065726,-0.00715204,0.164948,0.0,0.0,0.0,0.0050756,0.0,0.0,0.0,0.0,0.0,0.259294,0.259294,0.572458,0.271869,0.271869,4.04984,0.0,0.0,0.0,0.090362,0.0,0.0,0.0,0.0,0.0,0.000260011,0.0098342,0.0163538,0.0,0.0,0.0,0.0,0.0,0.0
43996000,0.0127452,-0.032185,-0.203677,-0.0042672,-0.0281966,0.0799866,0.0,0.0,0.0,0.00549797,0.0,0.0,0.0,0.0,0.0,0.259183,0.259183,0.572395,0.271701,0.271701,4.04989,0.0,0.0,0.0,0.090351,0.0,0.0,0.0,0.0,0.0,0.000348362,0.00905244,0.0145013,0.0,0.0,0.0,0.0,0.0,0.0
44188000,0.0137106,-0.0346634,-0.0200701,-0.0346436,-0.0074125,0.248596,0.0,0.0,0.0,0.00765324,0.0,0.0,0.0,0.0,0.0,0.258916,0.258916,0.5724,0.271539,0.271539,4.04994,0.0,0.0,0.0,0.0903408,0.0,0.0,0.0,0.0,0.0,0.000327784,0.00336945,0.00513975,0.0,0.0,0.0,0.0,0.0,0.0
44380000,0.0130738,-0.0369192,0.00842261,0.00366122,-0.0196407,0.146057,0.0,0.0,0.0,0.00137015,0.0,0.0,0.0,0.0,0.0,0.258643,0.258643,0.572406,0.271376,0.271376,4.05031,0.0,0.0,0.0,0.0903313,0.0,0.0,0.0,0.0,0.0,0.00034242,0.00325145,0.00757572,0.0,0.0,0.0,0.0,0.0,0.0
44572000,0.0102673,-0.0412657,0.0162003,0.0266038,-0.0221731,0.0534668,0.0,0.0,0.0,0.00148455,0.0,0.0,0.0,0.0,0.0,0.2584,0.2584,0.572412,0.271214,0.271214,4.05036,0.0,0.0,0.0,0.0903234,0.0,0.0,0.0,0.0,0.0,0.000261479,0.00516867,0.0114516,0.0,0.0,0.0,0.0,0.0,0.0
44764000,0.00769941,-0.0457385,0.0183115,0.0249986,-0.0276804,0.0814819,0.0,0.0,0.0,0.00274279,0.0,0.0,0.0,0.0,0.0,0.258313,0.258313,0.5724,0.271218,0.271218,4.05015,0.0,0.0,0.0,0.0903151,0.0,0.0,0.0,0.0,0.0,0.00025611,0.00481283,0.0120987,0.0,0.0,0.0,0.0,0.0,0.0
44956000,0.00109834,-0.0488203,0.0185809,0.0225091,-0.0452926,0.0417786,0.0,0.0,0.0,0.00262939,0.0,0.0,0.0,0.0,0.0,0.258112,0.258112,0.572406,0.27106,0.27106,4.0502,0.0,0.0,0.0,0.0903074,0.0,0.0,0.0,0.0,0.0,0.000247882,0.0049616,0.0120854,0.0,0.0,0.0,0.0,0.0,0.0
