timestamp,x,y,z,yaw,yawspeed,vx,vy,vz,acc_x,acc_y,acc_z,jerk_x,jerk_y,jerk_z,thrust[0],thrust[1],thrust[2]
18280000,-0.00317246,0.0186809,-0.0662903,0.00823861,nan,-0.00152116,-0.00521787,-0.506109,8.2463e-05,-9.72152e-05,-2.84766,0.0,0.0,-8.0,nan,nan,nan
18468000,-0.00343836,0.0177263,-0.216846,0.00823861,nan,-0.00073822,-0.00386917,-1.08242,0.0160771,0.0358899,-2.55988,0.0,0.0,8.0,nan,nan,nan
18652000,-0.00340507,0.0172333,-0.45089,0.00823861,nan,0.00028228,-0.00306261,-1.4179,-2.52295e-06,-9.17353e-05,-1.08873,0.0,0.0,8.0,nan,nan,nan
18840000,-0.00335209,0.0167113,-0.728107,0.00823861,nan,0.000281806,-0.00274391,-1.49846,-2.52295e-06,1.22283e-05,-0.129514,0.0,0.0,-6.4,nan,nan,nan
19028000,-0.00329917,0.0161958,-1.01002,0.00823861,nan,0.000281332,-0.00274161,-1.49978,-2.52295e-06,1.22283e-05,-0.000150919,0.0,0.0,0.0,nan,nan,nan
19212000,-0.00324744,0.0156915,-1.28598,0.00823861,nan,0.000280868,-0.00273936,-1.49981,-2.52295e-06,1.22283e-05,-0.000150919,0.0,0.0,0.0,nan,nan,nan
19400000,-0.00319469,0.0151767,-1.56795,0.00823861,nan,0.000280393,-0.00273706,-1.49983,-2.52295e-06,1.22283e-05,-0.000150919,0.0,0.0,0.0,nan,nan,nan
19588000,-0.00314202,0.0146624,-1.84992,0.00823861,nan,0.000279919,-0.00273476,-1.49986,-2.52295e-06,1.22283e-05,-0.000150919,0.0,0.0,0.0,nan,nan,nan
19772000,-0.00309055,0.0141594,-2.1259,0.00823861,nan,0.000279455,-0.00273252,-1.49989,-2.52295e-06,1.22283e-05,-0.000150919,0.0,0.0,0.0,nan,nan,nan
19960000,-0.00303806,0.0136459,-2.40788,0.00823861,nan,0.00027898,-0.00273022,-1.49992,-2.52295e-06,1.22283e-05,-0.000150919,0.0,0.0,0.0,nan,nan,nan
20148000,-0.00298566,0.0131328,-2.68986,0.00823861,nan,0.000278506,-0.00272792,-1.49995,-2.52295e-06,1.22283e-05,-0.000150919,0.0,0.0,0.0,nan,nan,nan
20332000,-0.00293445,0.0126311,-2.96586,0.00823861,nan,0.000278042,-0.00272567,-1.49997,-2.52295e-06,1.22283e-05,-0.000150919,0.0,0.0,0.0,nan,nan,nan
20520000,-0.00288223,0.01212,-3.24785,0.00823861,nan,0.000277567,-0.00256337,-1.5,-2.52295e-06,0.0160122,-3.01838e-05,0.0,0.8,0.0,nan,nan,nan
20708000,-0.00283009,0.0116671,-3.52985,0.00823861,nan,0.000277093,-0.00240325,-1.5,-2.52295e-06,0.0,0.0,0.0,0.0,0.0,nan,nan,nan
20892000,-0.00277915,0.0112722,-3.80585,0.00823861,nan,0.000276629,-0.00208325,-1.5,-2.52295e-06,0.0,0.0,0.0,0.0,0.0,nan,nan,nan
21080000,-0.00272718,0.0108806,-4.08785,0.00823861,nan,0.000276154,-0.00208325,-1.5,-2.52295e-06,0.0,0.0,0.0,0.0,0.0,nan,nan,nan
21268000,-0.00267531,0.0104889,-4.36986,0.00823861,nan,0.00027568,-0.00208325,-1.5,-2.52295e-06,0.0,0.0,0.0,0.0,0.0,nan,nan,nan
21452000,-0.00262463,0.0101056,-4.64586,0.00823861,nan,0.000275216,-0.00208325,-1.5,-2.52295e-06,0.0,0.0,0.0,0.0,0.0,nan,nan,nan
21640000,-0.00257293,0.00971399,-4.92786,0.00823861,nan,0.000274741,-0.00208325,-1.5,-2.52295e-06,0.0,0.0,0.0,0.0,0.0,nan,nan,nan
21828000,-0.00252133,0.00932234,-5.20986,0.00823861,nan,0.000274267,-0.00208325,-1.5,-2.52295e-06,0.0,0.0,0.0,0.0,0.0,nan,nan,nan
22012000,-0.0024709,0.00893902,-5.48586,0.00823861,nan,0.000273803,-0.00208325,-1.5,-2.52295e-06,0.0,0.0,0.0,0.0,0.0,nan,nan,nan
22200000,-0.00241947,0.00854737,-5.76787,0.00823861,nan,0.000273329,-0.00208325,-1.5,-2.52295e-06,0.0,0.0,0.0,0.0,0.0,nan,nan,nan
22388000,-0.00236825,0.00834833,-6.0492,0.00823861,nan,0.000272855,0.000161115,-1.5,-2.52295e-06,0.00022194,0.0,0.0,0.0,0.0,nan,nan,nan
22572000,-0.0023661,0.00835143,-6.32337,0.00823861,nan,-6.40497e-05,-0.000143492,-1.5,-0.000173176,-0.000169975,0.0,0.0,0.0,0.0,nan,nan,nan
22760000,-0.00238121,0.00832145,-6.60537,0.00823861,nan,-9.66068e-05,-0.000175447,-1.5,-0.000173176,-0.000169975,0.0,0.0,0.0,0.0,nan,nan,nan
22948000,-0.00240243,0.00828547,-6.88737,0.00823861,nan,-0.000129164,-0.000207403,-1.5,-0.000173176,-0.000169975,0.0,0.0,0.0,0.0,nan,nan,nan
23132000,-0.00242913,0.00824443,-7.16337,0.00823861,nan,-0.000161028,-0.000238678,-1.5,-0.000173176,-0.000169975,0.0,0.0,0.0,0.0,nan,nan,nan
23320000,-0.00246246,0.00819655,-7.44537,0.00823861,nan,-0.000193585,-0.000270633,-1.5,-0.000173176,-0.000169975,0.0,0.0,0.0,0.0,nan,nan,nan
23508000,-0.00250191,0.00818618,-7.72738,0.00823861,nan,-0.000226142,3.81482e-05,-1.5,-0.000173176,0.0,0.0,0.0,0.0,0.0,nan,nan,nan
23692000,-0.00249622,0.00819313,-8.00091,0.00823861,nan,0.000107485,3.81482e-05,-1.5,0.000170745,0.0,0.0,0.0,0.0,0.0,nan,nan,nan
23880000,-0.0024733,0.00820022,-8.27966,0.00823861,nan,0.000139214,3.81482e-05,-1.5,0.000170745,0.0,0.0,0.0,0.0,0.0,nan,nan,nan
24068000,-0.00244448,0.00820731,-8.55841,0.00823861,nan,0.000170944,3.81482e-05,-1.5,0.000170745,0.0,0.0,0.0,0.0,0.0,nan,nan,nan
24252000,-0.00241052,0.00821426,-8.83152,0.00823861,nan,0.000202033,3.81482e-05,-1.5,0.000170745,0.0,0.0,0.0,0.0,0.0,nan,nan,nan
24440000,-0.0023699,0.00822137,-9.11112,0.00823861,nan,0.00023386,3.81482e-05,-1.5,0.000170745,0.0,0.0,0.0,0.0,0.0,nan,nan,nan
24628000,-0.00236668,0.0082285,-9.3913,0.00823861,nan,-8.33746e-05,3.81482e-05,-1.5,-0.000105339,0.0,0.0,0.0,0.0,0.0,nan,nan,nan
24812000,-0.00238371,0.00823548,-9.66599,0.00823861,nan,-0.000102665,3.81482e-05,-1.5,-0.000105339,0.0,0.0,0.0,0.0,0.0,nan,nan,nan
25000000,-0.00240481,0.00824263,-9.94717,0.00823861,nan,-0.000122411,3.81482e-05,-1.5,-0.000105339,0.0,0.0,0.0,0.0,0.0,nan,nan,nan
25188000,-0.00242961,0.00824978,-10.2315,0.00823861,nan,-0.000142162,3.81482e-05,-1.56931,-0.000105339,0.0,-1.05305,0.0,0.0,-8.0,nan,nan,nan
25372000,-0.00245743,0.00825677,-10.5449,0.00823861,nan,-0.000161464,3.81482e-05,-1.89655,-0.000105339,0.0,-2.51889,0.0,0.0,-8.0,nan,nan,nan
25560000,-0.00248946,0.00826391,-10.9511,0.00823861,nan,-0.000181159,3.81482e-05,-2.46168,-0.000105339,0.0,-2.80583,0.0,0.0,8.0,nan,nan,nan
25748000,-0.00252511,0.00827103,-11.4524,0.00823861,nan,-0.000200824,3.81482e-05,-2.86848,-0.000105339,0.0,-1.47134,0.0,0.0,8.0,nan,nan,nan
25932000,-0.00251601,0.00827803,-11.996,0.00823861,nan,0.000110497,3.81482e-05,-3.00378,0.0,0.0,-0.00163706,0.0,0.0,8.0,nan,nan,nan
26120000,-0.00249524,0.0082852,-12.5601,0.00823861,nan,0.000110497,3.81482e-05,-3.00063,0.0,0.0,0.0,0.0,0.0,0.0,nan,nan,nan
26308000,-0.00247446,0.00829237,-13.1243,0.00823861,nan,0.000110497,3.81482e-05,-3.00063,0.0,0.0,0.0,0.0,0.0,0.0,nan,nan,nan
26492000,-0.00245413,0.00829939,-13.6764,0.00823861,nan,0.000110497,3.81482e-05,-3.00063,0.0,0.0,0.0,0.0,0.0,0.0,nan,nan,nan
26680000,-0.00243336,0.00830656,-14.2405,0.00823861,nan,0.000110497,3.81482e-05,-3.00063,0.0,0.0,0.0,0.0,0.0,0.0,nan,nan,nan
26868000,-0.00241258,0.00831373,-14.8046,0.00823861,nan,0.000110497,3.81482e-05,-3.00063,0.0,0.0,0.0,0.0,0.0,0.0,nan,nan,nan
27052000,-0.00239225,0.00832074,-15.3567,0.00823861,nan,0.000110497,3.81482e-05,-3.00063,0.0,0.0,0.0,0.0,0.0,0.0,nan,nan,nan
27240000,-0.00237148,0.00832791,-15.9209,0.00823861,nan,0.000110497,3.81482e-05,-3.00063,0.0,0.0,0.0,0.0,0.0,0.0,nan,nan,nan
27428000,-0.0023507,0.00833508,-16.485,0.00823861,nan,0.000110497,3.81482e-05,-3.00063,0.0,0.0,0.0,0.0,0.0,0.0,nan,nan,nan
27612000,-0.00233037,0.0083421,-17.0371,0.00823861,nan,0.000110497,3.81482e-05,-3.00063,0.0,0.0,0.0,0.0,0.0,0.0,nan,nan,nan
27800000,-0.0023096,0.00834927,-17.6012,0.00823861,nan,0.000110497,3.81482e-05,-3.00063,0.0,0.0,0.0,0.0,0.0,0.0,nan,nan,nan
27988000,-0.00228882,0.00835644,-18.1653,0.00823861,nan,0.000110497,3.81482e-05,-3.00063,0.0,0.0,0.0,0.0,0.0,0.0,nan,nan,nan
28172000,-0.00226849,0.00836345,-18.7174,0.00823861,nan,0.000110497,3.81482e-05,-3.00063,0.0,0.0,0.0,0.0,0.0,0.0,nan,nan,nan
28360000,-0.00224772,0.00837062,-19.2816,0.00823861,nan,0.000110497,3.81482e-05,-3.00063,0.0,0.0,0.0,0.0,0.0,0.0,nan,nan,nan
28548000,-0.00222694,0.00837779,-19.8457,0.00823861,nan,0.000110497,3.81482e-05,-3.00063,0.0,0.0,0.0,0.0,0.0,0.0,nan,nan,nan
28732000,-0.00220661,0.00838481,-20.3978,0.00823861,nan,0.000110497,3.81482e-05,-3.00063,0.0,0.0,0.0,0.0,0.0,0.0,nan,nan,nan
28924000,-0.0021854,0.00839213,-20.9739,0.00823861,nan,0.000110497,3.81482e-05,-3.00063,0.0,0.0,0.0,0.0,0.0,0.0,nan,nan,nan
29108000,-0.00221417,0.00839905,-21.5183,0.00823861,nan,-0.000245963,3.81482e-05,-3.00063,-0.000290303,0.0,0.0,0.0,0.0,0.0,nan,nan,nan
29296000,-0.00226464,0.00840611,-22.0733,0.00823861,nan,-0.000299663,3.81482e-05,-3.00063,-0.000290303,0.0,0.0,0.0,0.0,0.0,nan,nan,nan
29484000,-0.00231896,0.00841318,-22.6291,0.00823861,nan,-3.7522e-05,3.81482e-05,-3.00063,0.000221295,0.0,0.0,-0.773961,0.0,0.0,nan,nan,nan
29668000,-0.00232212,0.00842013,-23.1765,0.00823861,nan,2.85325e-06,3.81482e-05,-3.00063,0.000221295,0.0,0.0,0.0,0.0,0.0,nan,nan,nan
29856000,-0.00231767,0.0084273,-23.7406,0.00823861,nan,4.44568e-05,3.81482e-05,-3.00063,0.000221295,0.0,0.0,0.0,0.0,0.0,nan,nan,nan
30044000,-0.0023054,0.00843447,-24.3048,0.00823861,nan,8.60603e-05,3.81482e-05,-3.00063,0.000221295,0.0,0.0,0.0,0.0,0.0,nan,nan,nan
30228000,-0.00228582,0.00844149,-24.8569,0.00823861,nan,0.000126779,3.81482e-05,-3.00063,0.000221295,0.0,0.0,0.0,0.0,0.0,nan,nan,nan
30416000,-0.00227618,0.00844865,-25.42,0.00823861,nan,-0.000161797,3.81482e-05,-3.00063,0.0,0.0,0.0,0.0,0.0,0.0,nan,nan,nan
30604000,-0.00230635,0.00845576,-25.9796,0.00823861,nan,-0.000161797,3.81482e-05,-3.00063,0.0,0.0,0.0,0.0,0.0,0.0,nan,nan,nan
30788000,-0.00233593,0.00846273,-26.5281,0.00823861,nan,-0.000161797,3.81482e-05,-3.00063,0.0,0.0,0.0,0.0,0.0,0.0,nan,nan,nan
30980000,-0.00236682,0.00847002,-27.101,0.00823861,nan,-0.000161797,3.81482e-05,-3.00063,0.0,0.0,0.0,0.0,0.0,0.0,nan,nan,nan
31164000,-0.00239645,0.008477,-27.6505,0.00823861,nan,-0.000161797,3.81482e-05,-3.00063,0.0,0.0,0.0,0.0,0.0,0.0,nan,nan,nan
31352000,-0.00242675,0.00848415,-28.2124,0.00823861,nan,-0.000161797,3.81482e-05,-3.00063,0.0,0.0,0.0,0.0,0.0,0.0,nan,nan,nan
31540000,-0.00245707,0.00849129,-28.7747,0.00823861,nan,-0.000161797,3.81482e-05,-3.00063,0.0,0.0,0.0,0.0,0.0,0.0,nan,nan,nan
31724000,-0.00248676,0.00849829,-29.3252,0.00823861,nan,-0.000161797,3.81482e-05,-3.00063,0.0,0.0,0.0,0.0,0.0,0.0,nan,nan,nan
31912000,-0.00251709,0.00850545,-29.8879,0.00823861,nan,-0.000161797,3.81482e-05,-3.00063,0.0,0.0,0.0,0.0,0.0,0.0,nan,nan,nan
32100000,-0.00254745,0.0085126,-30.4508,0.00823861,nan,-0.000161797,3.81482e-05,-3.00063,0.0,0.0,0.0,0.0,0.0,0.0,nan,nan,nan
32284000,-0.00257716,0.00851961,-31.0019,0.00823861,nan,-0.000161797,3.81482e-05,-3.00063,0.0,0.0,0.0,0.0,0.0,0.0,nan,nan,nan
32472000,-0.00260752,0.00852677,-31.5649,0.00823861,nan,-0.000161797,3.81482e-05,-3.00063,0.0,0.0,0.0,0.0,0.0,0.0,nan,nan,nan
32660000,-0.00263786,0.00852757,-32.1276,0.00823861,nan,-0.000161797,-0.000280595,-3.00063,0.0,-4.21368e-05,0.0,0.0,0.797905,0.0,nan,nan,nan
32844000,-0.00266755,0.00847537,-32.6782,0.00823861,nan,-0.000161797,-0.000288327,-3.00063,0.0,-4.21368e-05,0.0,0.0,0.0,0.0,nan,nan,nan
33032000,-0.00269789,0.00842056,-33.2408,0.00823861,nan,-0.000161797,-0.000296228,-3.00063,0.0,-4.21368e-05,0.0,0.0,0.0,0.0,nan,nan,nan
33220000,-0.00272186,0.00836428,-33.8034,0.00823861,nan,0.000156573,-0.000304129,-3.00063,0.0,-4.21368e-05,0.0,-0.797281,0.0,0.0,nan,nan,nan
33404000,-0.00269305,0.00830761,-34.3555,0.00823861,nan,0.000156573,-0.000311882,-3.00063,0.0,-4.21368e-05,0.0,0.0,0.0,0.0,nan,nan,nan
33592000,-0.00266362,0.0082493,-34.9197,0.00823861,nan,0.000156573,-0.000159803,-3.00063,0.0,0.0159579,0.0,0.0,0.8,0.0,nan,nan,nan
33780000,-0.00263418,0.00824819,-35.4838,0.00823861,nan,0.000156573,-2.24769e-07,-3.00063,0.0,0.0,0.0,0.0,0.0,0.0,nan,nan,nan
33964000,-0.00260537,0.00824815,-36.0359,0.00823861,nan,0.000156573,-2.24769e-07,-3.00063,0.0,0.0,0.0,0.0,0.0,0.0,nan,nan,nan
34152000,-0.00257593,0.0082481,-36.6,0.00823861,nan,0.000156573,-2.24769e-07,-3.00063,0.0,0.0,0.0,0.0,0.0,0.0,nan,nan,nan
34340000,-0.0025465,0.00824806,-37.1642,0.00823861,nan,0.000156573,-2.24769e-07,-3.00063,0.0,0.0,0.0,0.0,0.0,0.0,nan,nan,nan
34524000,-0.00251769,0.00824802,-37.7163,0.00823861,nan,0.000156573,-2.24769e-07,-3.00063,0.0,0.0,0.0,0.0,0.0,0.0,nan,nan,nan
34712000,-0.00248825,0.00824797,-38.2804,0.00823861,nan,0.000156573,-2.24769e-07,-3.00063,0.0,0.0,0.0,0.0,0.0,0.0,nan,nan,nan
34900000,-0.00245881,0.00824793,-38.8445,0.00823861,nan,0.000156573,-2.24769e-07,-3.00063,0.0,0.0,0.0,0.0,0.0,0.0,nan,nan,nan
35084000,-0.00243,0.00824789,-39.3967,0.00823861,nan,0.000156573,-2.24769e-07,-3.00063,0.0,0.0,0.0,0.0,0.0,0.0,nan,nan,nan
35272000,-0.00240056,0.00824784,-39.9608,0.00823861,nan,0.000156573,-2.24769e-07,-3.00063,0.0,0.0,0.0,0.0,0.0,0.0,nan,nan,nan
35460000,-0.00237113,0.0082478,-40.5249,0.00823861,nan,0.000156573,-2.24769e-07,-3.00063,0.0,0.0,0.0,0.0,0.0,0.0,nan,nan,nan
35644000,-0.00234232,0.00824776,-41.077,0.00823861,nan,0.000156573,-2.24769e-07,-3.00063,0.0,0.0,0.0,0.0,0.0,0.0,nan,nan,nan
35832000,-0.00231288,0.00824771,-41.6412,0.00823861,nan,0.000156573,-2.24769e-07,-3.00063,0.0,0.0,0.0,0.0,0.0,0.0,nan,nan,nan
36020000,-0.00228344,0.00824767,-42.2053,0.00823861,nan,0.000156573,-2.24769e-07,-3.00063,0.0,0.0,0.0,0.0,0.0,0.0,nan,nan,nan
36204000,-0.00225463,0.00824763,-42.7574,0.00823861,nan,0.000156573,-2.24769e-07,-3.00063,0.0,0.0,0.0,0.0,0.0,0.0,nan,nan,nan
36392000,-0.00228112,0.00824758,-43.3139,0.00823861,nan,-0.000198885,-2.24769e-07,-3.00063,-0.000243509,0.0,0.0,0.0,0.0,0.0,nan,nan,nan
36580000,-0.00232213,0.00824754,-43.8696,0.00823861,nan,-0.000243979,-2.24769e-07,-3.00063,-0.000243509,0.0,0.0,0.0,0.0,0.0,nan,nan,nan
36764000,-0.00237035,0.0082475,-44.4135,0.00823861,nan,-0.000288116,-2.24769e-07,-3.00063,-0.000243509,0.0,0.0,0.0,0.0,0.0,nan,nan,nan
36952000,-0.00237062,0.00824745,-44.9758,0.00823861,nan,5.17796e-05,-2.24769e-07,-3.00063,0.000231659,0.0,0.0,0.0,0.0,0.0,nan,nan,nan
37140000,-0.00235679,0.00824741,-45.5399,0.00823861,nan,9.53316e-05,-2.24769e-07,-3.00063,0.000231659,0.0,0.0,0.0,0.0,0.0,nan,nan,nan
37324000,-0.00233533,0.00824737,-46.092,0.00823861,nan,0.000137957,-2.24769e-07,-3.00063,0.000231659,0.0,0.0,0.0,0.0,0.0,nan,nan,nan
37512000,-0.0023053,0.00824732,-46.6562,0.00823861,nan,0.000181509,-2.24769e-07,-3.00063,0.000231659,0.0,0.0,0.0,0.0,0.0,nan,nan,nan
37700000,-0.00231084,0.00824728,-47.2153,0.00823861,nan,-0.000123202,-2.24769e-07,-3.00063,0.0,0.0,0.0,0.0,0.0,0.0,nan,nan,nan
37884000,-0.00233317,0.00824723,-47.759,0.00823861,nan,-0.000123202,-2.24769e-07,-3.00063,0.0,0.0,0.0,0.0,0.0,0.0,nan,nan,nan
38072000,-0.00235595,0.00824719,-48.314,0.00823861,nan,-0.000123202,-2.24769e-07,-3.00063,0.0,0.0,0.0,0.0,0.0,0.0,nan,nan,nan
38260000,-0.00237872,0.00824715,-48.8685,0.00823861,nan,-0.000123202,-2.24769e-07,-3.00063,0.0,0.0,0.0,0.0,0.0,0.0,nan,nan,nan
38444000,-0.002401,0.0082471,-49.411,0.00823861,nan,-0.000123202,-2.24769e-07,-3.00063,0.0,0.0,0.0,0.0,0.0,0.0,nan,nan,nan
38632000,-0.00242373,0.00824706,-49.9648,0.00823861,nan,-0.000123202,-2.24769e-07,-3.00063,0.0,0.0,0.0,0.0,0.0,0.0,nan,nan,nan
38820000,-0.00244645,0.00824702,-50.5179,0.00823861,nan,-0.000123202,-2.24769e-07,-3.00063,0.0,0.0,0.0,0.0,0.0,0.0,nan,nan,nan
39004000,-0.00246865,0.00824697,-51.0588,0.00823861,nan,-0.000123202,-2.24769e-07,-3.00063,0.0,0.0,0.0,0.0,0.0,0.0,nan,nan,nan
39192000,-0.00249133,0.00824693,-51.6111,0.00823861,nan,-0.000123202,-2.24769e-07,-3.00063,0.0,0.0,0.0,0.0,0.0,0.0,nan,nan,nan
39380000,-0.002514,0.00824689,-52.1632,0.00823861,nan,-0.000123202,-2.24769e-07,-3.00063,0.0,0.0,0.0,0.0,0.0,0.0,nan,nan,nan
39564000,-0.00253618,0.00824684,-52.7035,0.00823861,nan,-0.000123202,-2.24769e-07,-3.00063,0.0,0.0,0.0,0.0,0.0,0.0,nan,nan,nan
39752000,-0.00255886,0.0082468,-53.2557,0.00823861,nan,-0.000123202,-2.24769e-07,-3.00063,0.0,0.0,0.0,0.0,0.0,0.0,nan,nan,nan
39940000,-0.00258152,0.00824676,-53.8078,0.00823861,nan,-0.000123202,-2.24769e-07,-3.00063,0.0,0.0,0.0,0.0,0.0,0.0,nan,nan,nan
40124000,-0.00260369,0.00824671,-54.3477,0.00823861,nan,-0.000123202,-2.24769e-07,-3.00063,0.0,0.0,0.0,0.0,0.0,0.0,nan,nan,nan
40312000,-0.00262632,0.00824667,-54.8988,0.00823861,nan,-0.000123202,-2.24769e-07,-3.00063,0.0,0.0,0.0,0.0,0.0,0.0,nan,nan,nan
40500000,-0.00264894,0.00824663,-55.4498,0.00823861,nan,-0.000123202,-2.24769e-07,-3.00063,0.0,0.0,0.0,0.0,0.0,0.0,nan,nan,nan
40684000,-0.00267108,0.00824658,-55.989,0.00823861,nan,-0.000123202,-2.24769e-07,-3.00063,0.0,0.0,0.0,0.0,0.0,0.0,nan,nan,nan
40872000,-0.00269369,0.00824654,-56.5398,0.00823861,nan,-0.000123202,-2.24769e-07,-3.00063,0.0,0.0,0.0,0.0,0.0,0.0,nan,nan,nan
41060000,-0.00271632,0.0082465,-57.0909,0.00823861,nan,-0.000123202,-2.24769e-07,-3.00063,0.0,0.0,0.0,0.0,0.0,0.0,nan,nan,nan
41244000,-0.00273849,0.00824645,-57.6309,0.00823861,nan,-0.000123202,-2.24769e-07,-3.00063,0.0,0.0,0.0,0.0,0.0,0.0,nan,nan,nan
41432000,-0.00276117,0.00824641,-58.1831,0.00823861,nan,-0.000123202,-2.24769e-07,-3.00063,0.0,0.0,0.0,0.0,0.0,0.0,nan,nan,nan
41620000,-0.00278386,0.00824637,-58.7357,0.00823861,nan,-0.000123202,-2.24769e-07,-3.00063,0.0,0.0,0.0,0.0,0.0,0.0,nan,nan,nan
41804000,-0.00280609,0.00824632,-59.2771,0.00823861,nan,-0.000123202,-2.24769e-07,-3.00063,0.0,0.0,0.0,0.0,0.0,0.0,nan,nan,nan
41992000,-0.00282883,0.00824628,-59.831,0.00823861,nan,-0.000123202,-2.24769e-07,-3.00063,0.0,0.0,0.0,0.0,0.0,0.0,nan,nan,nan
42180000,-0.0028516,0.00824623,-60.3846,0.00823861,nan,-0.000123202,-2.24769e-07,-2.96495,0.0,0.0,0.755571,0.0,0.0,8.0,nan,nan,nan
42364000,-0.00284535,0.00824619,-60.912,0.00823861,nan,0.000189677,-2.24769e-07,-2.81219,0.0,0.0,0.753592,0.0,0.0,0.0,nan,nan,nan
42552000,-0.00280969,0.00824615,-61.4257,0.00823861,nan,0.000189677,-2.24769e-07,-2.65317,0.0,0.0,0.849592,0.0,0.0,0.0,nan,nan,nan
42740000,-0.00277403,0.0082461,-61.91,0.00823861,nan,0.000189677,-2.24769e-07,-2.49966,0.0,0.0,0.817593,0.0,0.0,0.0,nan,nan,nan
42924000,-0.00273913,0.00824606,-62.3572,0.00823861,nan,0.000189677,-2.24769e-07,-2.36362,0.0,0.0,0.657593,0.0,0.0,0.0,nan,nan,nan
43112000,-0.00270347,0.00824602,-62.7888,0.00823861,nan,0.000189677,-2.24769e-07,-2.22911,0.0,0.0,0.785593,0.0,0.0,6.4,nan,nan,nan
43300000,-0.00266781,0.00824597,-63.1959,0.00823861,nan,0.000189677,-2.24769e-07,-2.10126,0.0,0.0,0.593593,0.0,0.0,-8.0,nan,nan,nan
43484000,-0.00263291,0.00824593,-63.5716,0.00823861,nan,0.000189677,-2.24769e-07,-1.98391,0.0,0.0,0.561593,0.0,0.0,0.0,nan,nan,nan
43672000,-0.00259737,0.00824589,-63.9327,0.00823861,nan,0.000189677,-2.24769e-07,-1.87132,0.0,0.0,0.689587,0.0,0.0,8.0,nan,nan,nan
43860000,-0.0025621,0.00824584,-64.2707,0.00823861,nan,0.000189677,-2.24769e-07,-1.76604,0.0,0.0,0.499688,0.0,0.0,-8.0,nan,nan,nan
44044000,-0.00252764,0.0082458,-64.5827,0.00823861,nan,0.000189677,-2.24769e-07,-1.66905,0.0,0.0,0.468151,0.0,0.0,0.0,nan,nan,nan
44232000,-0.00249247,0.00824576,-64.8832,0.00823861,nan,0.000189677,-2.24769e-07,-1.57516,0.0,0.0,0.594353,0.0,0.0,8.0,nan,nan,nan
44420000,-0.00245734,0.00824571,-65.1666,0.00823861,nan,0.000189677,-2.24769e-07,-1.48609,0.0,0.0,0.40518,0.0,0.0,-8.0,nan,nan,nan
44604000,-0.00242299,0.00824567,-65.4284,0.00823861,nan,0.000189677,-2.24769e-07,-1.40656,0.0,0.0,0.373697,0.0,0.0,0.0,nan,nan,nan
44792000,-0.00238788,0.00824563,-65.6814,0.00823861,nan,0.000189677,-2.24769e-07,-1.32684,0.0,0.0,0.499746,0.0,0.0,6.4,nan,nan,nan
44980000,-0.00235274,0.00824558,-65.9203,0.00823861,nan,0.000189677,-2.24769e-07,-1.25259,0.0,0.0,0.342105,0.0,0.0,-8.0,nan,nan,nan
45164000,-0.00231833,0.00824554,-66.1415,0.00823861,nan,0.000189677,-2.24769e-07,-1.1861,0.0,0.0,0.310542,0.0,0.0,0.0,nan,nan,nan
45352000,-0.00228316,0.0082455,-66.3551,0.00823861,nan,0.000189677,-2.24769e-07,-1.11969,0.0,0.0,0.436772,0.0,0.0,8.0,nan,nan,nan
45540000,-0.00224799,0.00824545,-66.5565,0.00823861,nan,0.000189677,-2.24769e-07,-1.05409,0.0,0.0,0.215867,0.0,0.0,-8.0,nan,nan,nan
45724000,-0.00221358,0.00824541,-66.7426,0.00823861,nan,0.000189677,-2.24769e-07,-0.997798,0.0,0.0,0.310544,0.0,0.0,0.0,nan,nan,nan
45912000,-0.00219589,0.00824537,-66.9227,0.00823861,nan,-0.000131527,-2.24769e-07,-0.940062,-0.000216294,0.0,0.310544,0.0,0.0,0.0,nan,nan,nan
46100000,-0.00222404,0.00824532,-67.0928,0.00823861,nan,-0.000171683,-2.24769e-07,-0.890599,-0.000216294,0.0,0.276774,0.0,0.0,0.0,nan,nan,nan
46284000,-0.00225872,0.00824528,-67.2498,0.00823861,nan,-0.000210903,-2.24769e-07,-0.840412,-0.000216294,0.0,0.276774,0.0,0.0,0.0,nan,nan,nan
46472000,-0.00230148,0.00824524,-67.4013,0.00823861,nan,-0.000250951,-2.24769e-07,-0.796308,-0.000216294,0.0,0.245245,0.0,0.0,0.0,nan,nan,nan
46660000,-0.00234549,0.00824519,-67.5445,0.00823861,nan,2.3433e-05,-2.24769e-07,-0.750928,0.000249409,0.0,0.245245,-0.776373,0.0,0.0,nan,nan,nan
46844000,-0.00233696,0.00824515,-67.6788,0.00823861,nan,6.93243e-05,-2.24769e-07,-0.710731,0.000249409,0.0,0.213245,0.0,0.0,0.0,nan,nan,nan
47032000,-0.00231952,0.0082451,-67.8086,0.00823861,nan,0.000116213,-2.24769e-07,-0.670641,0.000249409,0.0,0.213245,0.0,0.0,0.0,nan,nan,nan
47220000,-0.00229326,0.00824506,-67.931,0.00823861,nan,0.000163102,-2.24769e-07,-0.632151,0.000249409,0.0,0.0532446,0.0,0.0,-8.0,nan,nan,nan
47404000,-0.00225903,0.00824502,-68.0442,0.00823861,nan,0.000208993,-2.24769e-07,-0.598162,0.000249409,0.0,0.117245,0.0,0.0,0.0,nan,nan,nan
47592000,-0.00227192,0.00824497,-68.1519,0.00823861,nan,-0.000103524,-2.24769e-07,-0.565544,0.0,0.0,0.274211,0.0,0.0,8.0,nan,nan,nan
47780000,-0.002291,0.00824493,-68.2533,0.00823861,nan,-0.000103524,-2.24769e-07,-0.534503,0.0,0.0,0.0545314,0.0,0.0,-8.0,nan,nan,nan
47964000,-0.00230968,0.00824489,-68.347,0.00823861,nan,-0.000103524,-2.24769e-07,-0.506019,0.0,0.0,0.148668,0.0,0.0,8.0,nan,nan,nan
48152000,-0.00232878,0.00824484,-68.4378,0.00823861,nan,-0.000103524,-2.24769e-07,-0.4786,0.0,0.0,0.148668,0.0,0.0,0.0,nan,nan,nan
48340000,-0.00234788,0.0082448,-68.5236,0.00823861,nan,-0.000103524,-2.24769e-07,-0.451172,0.0,0.0,0.148668,0.0,0.0,0.0,nan,nan,nan
48524000,-0.00236657,0.00824476,-68.6027,0.00823861,nan,-0.000103524,-2.24769e-07,-0.427592,0.0,0.0,0.157573,0.0,0.0,8.0,nan,nan,nan
48712000,-0.00238568,0.00824471,-68.6793,0.00823861,nan,-0.000103524,-2.24769e-07,-0.403631,0.0,0.0,0.128558,0.0,0.0,0.0,nan,nan,nan
48900000,-0.00240481,0.00824467,-68.7517,0.00823861,nan,-0.000103524,-2.24769e-07,-0.381114,0.0,0.0,0.00208172,0.0,0.0,-6.42792,nan,nan,nan
49084000,-0.00242357,0.00824463,-68.8189,0.00823861,nan,-0.000103524,-2.24769e-07,-0.361144,0.0,0.0,0.128022,0.0,0.0,8.0,nan,nan,nan
49272000,-0.00244276,0.00824458,-68.8838,0.00823861,nan,-0.000103524,-2.24769e-07,-0.339653,0.0,0.0,0.128015,0.0,0.0,0.0,nan,nan,nan
49460000,-0.00246198,0.00824454,-68.9453,0.00823861,nan,-0.000103524,-2.24769e-07,-0.321624,0.0,0.0,0.00149716,0.0,0.0,-6.40147,nan,nan,nan
49644000,-0.00248083,0.0082445,-69.0023,0.00823861,nan,-0.000103524,-2.24769e-07,-0.305129,0.0,0.0,0.128287,0.0,0.0,8.0,nan,nan,nan
49832000,-0.00250013,0.00824445,-69.0576,0.00823861,nan,-0.000103524,-2.24769e-07,-0.288049,0.0,0.0,0.128051,0.0,0.0,0.0,nan,nan,nan
50020000,-0.00251948,0.00824441,-69.1099,0.00823861,nan,-0.000103524,-2.24769e-07,-0.272891,0.0,0.0,0.00073418,0.0,0.0,-7.99546,nan,nan,nan
50204000,-0.00253846,0.00824437,-69.1584,0.00823861,nan,-0.000103524,-2.24769e-07,-0.257294,0.0,0.0,0.127996,0.0,0.0,8.0,nan,nan,nan
50392000,-0.00255784,0.00824432,-69.2053,0.00823861,nan,-0.000103524,-2.24769e-07,-0.243797,0.0,0.0,0.159824,0.0,0.0,8.0,nan,nan,nan
50580000,-0.00257725,0.00824428,-69.2496,0.00824173,nan,-0.000103524,-2.24769e-07,-0.229274,0.0,0.0,0.0,0.0,0.0,-6.4,nan,nan,nan
50764000,-0.0025963,0.00824424,-69.2907,0.00824173,nan,-0.000103524,-2.24769e-07,-0.21801,0.0,0.0,0.0,0.0,0.0,0.0,nan,nan,nan
50952000,-0.00261576,0.00824419,-69.3304,0.00824173,nan,-0.000103524,-2.24769e-07,-0.205146,0.0,0.0,0.16,0.0,0.0,8.0,nan,nan,nan
51140000,-0.00263522,0.00824415,-69.3679,0.00824173,nan,-0.000103524,-2.24769e-07,-0.192282,0.0,0.0,0.0,0.0,0.0,-6.4,nan,nan,nan
51324000,-0.00265427,0.00824411,-69.4025,0.00824173,nan,-0.000103524,-2.24769e-07,-0.183322,0.0,0.0,0.0,0.0,0.0,0.0,nan,nan,nan
51512000,-0.00267373,0.00824406,-69.4359,0.00824173,nan,-0.000103524,-2.24769e-07,-0.172762,0.0,0.0,0.16,0.0,0.0,8.0,nan,nan,nan
51700000,-0.00268686,0.00824402,-69.4674,0.00824173,nan,0.000216444,-2.24769e-07,-0.162843,0.000224449,0.0,0.00179559,-0.8,0.0,-6.4,nan,nan,nan
51884000,-0.00264391,0.00824398,-69.4961,0.00824173,nan,0.000257148,-2.24769e-07,-0.154403,0.000224449,0.0,0.001857,0.0,0.0,0.0,nan,nan,nan
52072000,-0.00259241,0.00824393,-69.5239,0.00824173,nan,0.00029874,-2.24769e-07,-0.145357,0.000224449,0.0,0.128006,0.0,0.0,6.4,nan,nan,nan
52260000,-0.00253936,0.00824389,-69.5501,0.00824173,nan,2.51297e-05,-2.24769e-07,-0.136563,-0.000226456,0.0,0.00186464,0.777142,0.0,-6.39896,nan,nan,nan
52444000,-0.00253853,0.00824384,-69.5745,0.00824173,nan,-1.61141e-05,-2.24769e-07,-0.130579,-0.000226456,0.0,0.0,0.0,0.0,0.0,nan,nan,nan
52632000,-0.00254557,0.0082438,-69.5984,0.00824173,nan,-5.86878e-05,-2.24769e-07,-0.123859,-0.000226456,0.0,0.16,0.0,0.0,8.0,nan,nan,nan
52820000,-0.0025606,0.00824376,-69.6208,0.00824173,nan,-0.000101261,-2.24769e-07,-0.117139,-0.000226456,0.0,0.0,0.0,0.0,0.0,nan,nan,nan
53004000,-0.034017,0.0129027,-39.633,0.0,nan,nan,nan,nan,nan,nan,nan,nan,nan,nan,nan,nan,nan
53192000,-0.034017,0.0129027,-39.633,0.0,nan,nan,nan,nan,nan,nan,nan,nan,nan,nan,nan,nan,nan
53380000,-0.034017,0.0129027,-39.633,0.0,nan,nan,nan,nan,nan,nan,nan,nan,nan,nan,nan,nan,nan
53568000,-0.034017,0.0129027,-39.633,0.0,nan,nan,nan,nan,nan,nan,nan,nan,nan,nan,nan,nan,nan
53756000,-0.034017,0.0129027,-39.633,0.0,nan,nan,nan,nan,nan,nan,nan,nan,nan,nan,nan,nan,nan
53940000,-0.034017,0.0129027,-39.633,0.0,nan,nan,nan,nan,nan,nan,nan,nan,nan,nan,nan,nan,nan
54128000,-0.034017,0.0129027,-39.633,0.0,nan,nan,nan,nan,nan,nan,nan,nan,nan,nan,nan,nan,nan
54316000,-0.034017,0.0129027,-39.633,0.0,nan,nan,nan,nan,nan,nan,nan,nan,nan,nan,nan,nan,nan
54500000,-0.034017,0.0129027,-39.633,0.0,nan,nan,nan,nan,nan,nan,nan,nan,nan,nan,nan,nan,nan
54688000,-0.034017,0.0129027,-39.633,0.0,nan,nan,nan,nan,nan,nan,nan,nan,nan,nan,nan,nan,nan
54876000,-0.034017,0.0129027,-39.633,0.0,nan,nan,nan,nan,nan,nan,nan,nan,nan,nan,nan,nan,nan
55060000,-0.034017,0.0129027,-39.633,0.0,nan,nan,nan,nan,nan,nan,nan,nan,nan,nan,nan,nan,nan
55248000,-0.034017,0.0129027,-39.633,0.0,nan,nan,nan,nan,nan,nan,nan,nan,nan,nan,nan,nan,nan
55436000,-0.034017,0.0129027,-39.633,0.0,nan,nan,nan,nan,nan,nan,nan,nan,nan,nan,nan,nan,nan
55620000,-0.034017,0.0129027,-39.633,0.0,nan,nan,nan,nan,nan,nan,nan,nan,nan,nan,nan,nan,nan
55808000,-0.034017,0.0129027,-39.633,0.0,nan,nan,nan,nan,nan,nan,nan,nan,nan,nan,nan,nan,nan
55996000,-0.034017,0.0129027,-39.633,0.0,nan,nan,nan,nan,nan,nan,nan,nan,nan,nan,nan,nan,nan
56180000,-0.034017,0.0129027,-39.633,0.0,nan,nan,nan,nan,nan,nan,nan,nan,nan,nan,nan,nan,nan
56368000,-0.034017,0.0129027,-39.633,0.0,nan,nan,nan,nan,nan,nan,nan,nan,nan,nan,nan,nan,nan
56556000,-0.034017,0.0129027,-39.633,0.0,nan,nan,nan,nan,nan,nan,nan,nan,nan,nan,nan,nan,nan
56744000,-0.034017,0.0129027,-39.633,0.0,nan,nan,nan,nan,nan,nan,nan,nan,nan,nan,nan,nan,nan
56932000,-0.034017,0.0129027,-39.633,0.0,nan,nan,nan,nan,nan,nan,nan,nan,nan,nan,nan,nan,nan
57116000,-0.034017,0.0129027,-39.633,0.0,nan,nan,nan,nan,nan,nan,nan,nan,nan,nan,nan,nan,nan
57304000,-0.034017,0.0129027,-39.633,0.0,nan,nan,nan,nan,nan,nan,nan,nan,nan,nan,nan,nan,nan
57492000,-0.034017,0.0129027,-39.633,0.0,nan,nan,nan,nan,nan,nan,nan,nan,nan,nan,nan,nan,nan
57676000,-0.034017,0.0129027,-39.633,0.0,nan,nan,nan,nan,nan,nan,nan,nan,nan,nan,nan,nan,nan
57864000,-0.034017,0.0129027,-39.633,0.0,nan,nan,nan,nan,nan,nan,nan,nan,nan,nan,nan,nan,nan
58052000,-0.034017,0.0129027,-39.633,0.0,nan,nan,nan,nan,nan,nan,nan,nan,nan,nan,nan,nan,nan
58236000,-0.034017,0.0129027,-39.633,0.0,nan,nan,nan,nan,nan,nan,nan,nan,nan,nan,nan,nan,nan
58424000,-0.034017,0.0129027,-39.633,0.0,nan,nan,nan,nan,nan,nan,nan,nan,nan,nan,nan,nan,nan
58612000,-0.034017,0.0129027,-39.633,0.0,nan,nan,nan,nan,nan,nan,nan,nan,nan,nan,nan,nan,nan
58796000,-0.034017,0.0129027,-39.633,0.0,nan,nan,nan,nan,nan,nan,nan,nan,nan,nan,nan,nan,nan
58984000,-0.034017,0.0129027,-39.633,0.0,nan,nan,nan,nan,nan,nan,nan,nan,nan,nan,nan,nan,nan
59172000,-0.034017,0.0129027,-39.633,0.0,nan,nan,nan,nan,nan,nan,nan,nan,nan,nan,nan,nan,nan
59356000,-0.034017,0.0129027,-39.633,0.0,nan,nan,nan,nan,nan,nan,nan,nan,nan,nan,nan,nan,nan
59544000,-0.034017,0.0129027,-39.633,0.0,nan,nan,nan,nan,nan,nan,nan,nan,nan,nan,nan,nan,nan
59732000,-0.034017,0.0129027,-39.633,0.0,nan,nan,nan,nan,nan,nan,nan,nan,nan,nan,nan,nan,nan
59916000,-0.034017,0.0129027,-39.633,0.0,nan,nan,nan,nan,nan,nan,nan,nan,nan,nan,nan,nan,nan
60104000,-0.034017,0.0129027,-39.633,0.0,nan,nan,nan,nan,nan,nan,nan,nan,nan,nan,nan,nan,nan
60292000,-0.034017,0.0129027,-39.633,0.0,nan,nan,nan,nan,nan,nan,nan,nan,nan,nan,nan,nan,nan
60476000,-0.034017,0.0129027,-39.633,0.0,nan,nan,nan,nan,nan,nan,nan,nan,nan,nan,nan,nan,nan
60664000,-0.034017,0.0129027,-39.633,0.0,nan,nan,nan,nan,nan,nan,nan,nan,nan,nan,nan,nan,nan
60852000,-0.034017,0.0129027,-39.633,0.0,nan,nan,nan,nan,nan,nan,nan,nan,nan,nan,nan,nan,nan
61036000,-0.034017,0.0129027,-39.633,0.0,nan,nan,nan,nan,nan,nan,nan,nan,nan,nan,nan,nan,nan
61224000,-0.034017,0.0129027,-39.633,0.0,nan,nan,nan,nan,nan,nan,nan,nan,nan,nan,nan,nan,nan
61412000,-0.034017,0.0129027,-39.633,0.0,nan,nan,nan,nan,nan,nan,nan,nan,nan,nan,nan,nan,nan
61596000,-0.034017,0.0129027,-39.633,0.0,nan,nan,nan,nan,nan,nan,nan,nan,nan,nan,nan,nan,nan
61784000,-0.034017,0.0129027,-39.633,0.0,nan,nan,nan,nan,nan,nan,nan,nan,nan,nan,nan,nan,nan
61972000,-0.034017,0.0129027,-39.633,0.0,nan,nan,nan,nan,nan,nan,nan,nan,nan,nan,nan,nan,nan
62156000,-0.034017,0.0129027,-39.633,0.0,nan,nan,nan,nan,nan,nan,nan,nan,nan,nan,nan,nan,nan
62344000,-0.034017,0.0129027,-39.633,0.0,nan,nan,nan,nan,nan,nan,nan,nan,nan,nan,nan,nan,nan
62532000,-0.034017,0.0129027,-39.633,0.0,nan,nan,nan,nan,nan,nan,nan,nan,nan,nan,nan,nan,nan
62716000,-0.034017,0.0129027,-39.633,0.0,nan,nan,nan,nan,nan,nan,nan,nan,nan,nan,nan,nan,nan
62908000,-0.034017,0.0129027,-39.633,0.0,nan,nan,nan,nan,nan,nan,nan,nan,nan,nan,nan,nan,nan
63092000,-0.034017,0.0129027,-39.633,0.0,nan,nan,nan,nan,nan,nan,nan,nan,nan,nan,nan,nan,nan
63280000,-0.034017,0.0129027,-39.633,0.0,nan,nan,nan,nan,nan,nan,nan,nan,nan,nan,nan,nan,nan
63468000,-0.034017,0.0129027,-39.633,0.0,nan,nan,nan,nan,nan,nan,nan,nan,nan,nan,nan,nan,nan
63652000,-0.034017,0.0129027,-39.633,0.0,nan,nan,nan,nan,nan,nan,nan,nan,nan,nan,nan,nan,nan
63840000,-0.034017,0.0129027,-39.633,0.0,nan,nan,nan,nan,nan,nan,nan,nan,nan,nan,nan,nan,nan
64028000,-0.034017,0.0129027,-39.633,0.0,nan,nan,nan,nan,nan,nan,nan,nan,nan,nan,nan,nan,nan
64212000,-0.034017,0.0129027,-39.633,0.0,nan,nan,nan,nan,nan,nan,nan,nan,nan,nan,nan,nan,nan
64400000,-0.034017,0.0129027,-39.633,0.0,nan,nan,nan,nan,nan,nan,nan,nan,nan,nan,nan,nan,nan
64588000,-0.034017,0.0129027,-39.633,0.0,nan,nan,nan,nan,nan,nan,nan,nan,nan,nan,nan,nan,nan
64776000,-0.034017,0.0129027,-39.633,0.0,nan,nan,nan,nan,nan,nan,nan,nan,nan,nan,nan,nan,nan
64964000,-0.034017,0.0129027,-39.633,0.0,nan,nan,nan,nan,nan,nan,nan,nan,nan,nan,nan,nan,nan
65148000,-0.034017,0.0129027,-39.633,0.0,nan,nan,nan,nan,nan,nan,nan,nan,nan,nan,nan,nan,nan
65336000,-0.034017,0.0129027,-39.633,0.0,nan,nan,nan,nan,nan,nan,nan,nan,nan,nan,nan,nan,nan
65524000,-0.034017,0.0129027,-39.633,0.0,nan,nan,nan,nan,nan,nan,nan,nan,nan,nan,nan,nan,nan
65708000,-0.034017,0.0129027,-39.633,0.0,nan,nan,nan,nan,nan,nan,nan,nan,nan,nan,nan,nan,nan
65896000,-0.034017,0.0129027,-39.633,0.0,nan,nan,nan,nan,nan,nan,nan,nan,nan,nan,nan,nan,nan
66084000,-0.034017,0.0129027,-39.633,0.0,nan,nan,nan,nan,nan,nan,nan,nan,nan,nan,nan,nan,nan
66268000,-0.034017,0.0129027,-39.633,0.0,nan,nan,nan,nan,nan,nan,nan,nan,nan,nan,nan,nan,nan
66456000,-0.034017,0.0129027,-39.633,0.0,nan,nan,nan,nan,nan,nan,nan,nan,nan,nan,nan,nan,nan
66644000,-0.034017,0.0129027,-39.633,0.0,nan,nan,nan,nan,nan,nan,nan,nan,nan,nan,nan,nan,nan
66828000,-0.034017,0.0129027,-39.633,0.0,nan,nan,nan,nan,nan,nan,nan,nan,nan,nan,nan,nan,nan
67016000,-0.034017,0.0129027,-39.633,0.0,nan,nan,nan,nan,nan,nan,nan,nan,nan,nan,nan,nan,nan
67204000,-0.034017,0.0129027,-39.633,0.0,nan,nan,nan,nan,nan,nan,nan,nan,nan,nan,nan,nan,nan
67388000,-0.034017,0.0129027,-39.633,0.0,nan,nan,nan,nan,nan,nan,nan,nan,nan,nan,nan,nan,nan
67576000,-0.034017,0.0129027,-39.633,0.0,nan,nan,nan,nan,nan,nan,nan,nan,nan,nan,nan,nan,nan
67764000,-0.034017,0.0129027,-39.633,0.0,nan,nan,nan,nan,nan,nan,nan,nan,nan,nan,nan,nan,nan
67948000,-0.034017,0.0129027,-39.633,0.0,nan,nan,nan,nan,nan,nan,nan,nan,nan,nan,nan,nan,nan
68136000,-0.034017,0.0129027,-39.633,0.0,nan,nan,nan,nan,nan,nan,nan,nan,nan,nan,nan,nan,nan
68324000,-0.034017,0.0129027,-39.633,0.0,nan,nan,nan,nan,nan,nan,nan,nan,nan,nan,nan,nan,nan
68508000,-0.034017,0.0129027,-39.633,0.0,nan,nan,nan,nan,nan,nan,nan,nan,nan,nan,nan,nan,nan
68696000,-0.034017,0.0129027,-39.633,0.0,nan,nan,nan,nan,nan,nan,nan,nan,nan,nan,nan,nan,nan
68884000,-0.034017,0.0129027,-39.633,0.0,nan,nan,nan,nan,nan,nan,nan,nan,nan,nan,nan,nan,nan
69068000,-0.034017,0.0129027,-39.633,0.0,nan,nan,nan,nan,nan,nan,nan,nan,nan,nan,nan,nan,nan
69256000,-0.034017,0.0129027,-39.633,0.0,nan,nan,nan,nan,nan,nan,nan,nan,nan,nan,nan,nan,nan
69444000,-0.034017,0.0129027,-39.633,0.0,nan,nan,nan,nan,nan,nan,nan,nan,nan,nan,nan,nan,nan
69628000,-0.034017,0.0129027,-39.633,0.0,nan,nan,nan,nan,nan,nan,nan,nan,nan,nan,nan,nan,nan
69816000,-0.034017,0.0129027,-39.633,0.0,nan,nan,nan,nan,nan,nan,nan,nan,nan,nan,nan,nan,nan
70004000,-0.034017,0.0129027,-39.633,0.0,nan,nan,nan,nan,nan,nan,nan,nan,nan,nan,nan,nan,nan
70188000,-0.034017,0.0129027,-39.633,0.0,nan,nan,nan,nan,nan,nan,nan,nan,nan,nan,nan,nan,nan
70376000,-0.034017,0.0129027,-39.633,0.0,nan,nan,nan,nan,nan,nan,nan,nan,nan,nan,nan,nan,nan
70564000,-0.034017,0.0129027,-39.633,0.0,nan,nan,nan,nan,nan,nan,nan,nan,nan,nan,nan,nan,nan
70748000,-0.034017,0.0129027,-39.633,0.0,nan,nan,nan,nan,nan,nan,nan,nan,nan,nan,nan,nan,nan
70936000,-0.034017,0.0129027,-39.633,0.0,nan,nan,nan,nan,nan,nan,nan,nan,nan,nan,nan,nan,nan
71124000,-0.034017,0.0129027,-39.633,0.0,nan,nan,nan,nan,nan,nan,nan,nan,nan,nan,nan,nan,nan
71308000,-0.034017,0.0129027,-39.633,0.0,nan,nan,nan,nan,nan,nan,nan,nan,nan,nan,nan,nan,nan
71496000,-0.034017,0.0129027,-39.633,0.0,nan,nan,nan,nan,nan,nan,nan,nan,nan,nan,nan,nan,nan
71684000,-0.034017,0.0129027,-39.633,0.0,nan,nan,nan,nan,nan,nan,nan,nan,nan,nan,nan,nan,nan
71872000,-0.034017,0.0129027,-39.633,0.0,nan,nan,nan,nan,nan,nan,nan,nan,nan,nan,nan,nan,nan
72060000,-0.034017,0.0129027,-39.633,0.0,nan,nan,nan,nan,nan,nan,nan,nan,nan,nan,nan,nan,nan
72244000,-0.034017,0.0129027,-39.633,0.0,nan,nan,nan,nan,nan,nan,nan,nan,nan,nan,nan,nan,nan
72432000,-0.034017,0.0129027,-39.633,0.0,nan,nan,nan,nan,nan,nan,nan,nan,nan,nan,nan,nan,nan
72620000,-0.034017,0.0129027,-39.633,0.0,nan,nan,nan,nan,nan,nan,nan,nan,nan,nan,nan,nan,nan
72804000,-0.034017,0.0129027,-39.633,0.0,nan,nan,nan,nan,nan,nan,nan,nan,nan,nan,nan,nan,nan
72992000,-0.034017,0.0129027,-39.633,0.0,nan,nan,nan,nan,nan,nan,nan,nan,nan,nan,nan,nan,nan
73180000,-0.034017,0.0129027,-39.633,0.0,nan,nan,nan,nan,nan,nan,nan,nan,nan,nan,nan,nan,nan
73364000,-0.034017,0.0129027,-39.633,0.0,nan,nan,nan,nan,nan,nan,nan,nan,nan,nan,nan,nan,nan
73552000,-0.034017,0.0129027,-39.633,0.0,nan,nan,nan,nan,nan,nan,nan,nan,nan,nan,nan,nan,nan
73740000,-0.034017,0.0129027,-39.633,0.0,nan,nan,nan,nan,nan,nan,nan,nan,nan,nan,nan,nan,nan
73924000,-0.034017,0.0129027,-39.633,0.0,nan,nan,nan,nan,nan,nan,nan,nan,nan,nan,nan,nan,nan
74112000,-0.034017,0.0129027,-39.633,0.0,nan,nan,nan,nan,nan,nan,nan,nan,nan,nan,nan,nan,nan
74300000,-0.034017,0.0129027,-39.633,0.0,nan,nan,nan,nan,nan,nan,nan,nan,nan,nan,nan,nan,nan
74484000,-0.034017,0.0129027,-39.633,0.0,nan,nan,nan,nan,nan,nan,nan,nan,nan,nan,nan,nan,nan
74672000,-0.034017,0.0129027,-39.633,0.0,nan,nan,nan,nan,nan,nan,nan,nan,nan,nan,nan,nan,nan
74860000,-0.034017,0.0129027,-39.633,0.0,nan,nan,nan,nan,nan,nan,nan,nan,nan,nan,nan,nan,nan
75044000,-0.034017,0.0129027,-39.633,0.0,nan,nan,nan,nan,nan,nan,nan,nan,nan,nan,nan,nan,nan
75232000,-0.034017,0.0129027,-39.633,0.0,nan,nan,nan,nan,nan,nan,nan,nan,nan,nan,nan,nan,nan
75420000,-0.034017,0.0129027,-39.633,0.0,nan,nan,nan,nan,nan,nan,nan,nan,nan,nan,nan,nan,nan
75604000,-0.034017,0.0129027,-39.633,0.0,nan,nan,nan,nan,nan,nan,nan,nan,nan,nan,nan,nan,nan
75792000,-0.034017,0.0129027,-39.633,0.0,nan,nan,nan,nan,nan,nan,nan,nan,nan,nan,nan,nan,nan
75980000,-0.034017,0.0129027,-39.633,0.0,nan,nan,nan,nan,nan,nan,nan,nan,nan,nan,nan,nan,nan
76164000,-0.034017,0.0129027,-39.633,0.0,nan,nan,nan,nan,nan,nan,nan,nan,nan,nan,nan,nan,nan
76352000,-0.034017,0.0129027,-39.633,0.0,nan,nan,nan,nan,nan,nan,nan,nan,nan,nan,nan,nan,nan
76540000,-0.034017,0.0129027,-39.633,0.0,nan,nan,nan,nan,nan,nan,nan,nan,nan,nan,nan,nan,nan
76724000,-0.034017,0.0129027,-39.633,0.0,nan,nan,nan,nan,nan,nan,nan,nan,nan,nan,nan,nan,nan
76912000,-0.034017,0.0129027,-39.633,0.0,nan,nan,nan,nan,nan,nan,nan,nan,nan,nan,nan,nan,nan
77100000,-0.034017,0.0129027,-39.633,0.0,nan,nan,nan,nan,nan,nan,nan,nan,nan,nan,nan,nan,nan
77284000,-0.034017,0.0129027,-39.633,0.0,nan,nan,nan,nan,nan,nan,nan,nan,nan,nan,nan,nan,nan
77472000,-0.034017,0.0129027,-39.633,0.0,nan,nan,nan,nan,nan,nan,nan,nan,nan,nan,nan,nan,nan
77660000,-0.034017,0.0129027,-39.633,0.0,nan,nan,nan,nan,nan,nan,nan,nan,nan,nan,nan,nan,nan
77848000,-0.034017,0.0129027,-39.633,0.0,nan,nan,nan,nan,nan,nan,nan,nan,nan,nan,nan,nan,nan
78036000,-0.034017,0.0129027,-39.633,0.0,nan,nan,nan,nan,nan,nan,nan,nan,nan,nan,nan,nan,nan
78220000,-0.034017,0.0129027,-39.633,0.0,nan,nan,nan,nan,nan,nan,nan,nan,nan,nan,nan,nan,nan
78408000,-0.034017,0.0129027,-39.633,0.0,nan,nan,nan,nan,nan,nan,nan,nan,nan,nan,nan,nan,nan
78596000,-0.034017,0.0129027,-39.633,0.0,nan,nan,nan,nan,nan,nan,nan,nan,nan,nan,nan,nan,nan
78780000,-0.034017,0.0129027,-39.633,0.0,nan,nan,nan,nan,nan,nan,nan,nan,nan,nan,nan,nan,nan
78968000,-0.034017,0.0129027,-39.633,0.0,nan,nan,nan,nan,nan,nan,nan,nan,nan,nan,nan,nan,nan
79156000,-0.034017,0.0129027,-39.633,0.0,nan,nan,nan,nan,nan,nan,nan,nan,nan,nan,nan,nan,nan
79340000,-0.034017,0.0129027,-39.633,0.0,nan,nan,nan,nan,nan,nan,nan,nan,nan,nan,nan,nan,nan
79528000,-0.034017,0.0129027,-39.633,0.0,nan,nan,nan,nan,nan,nan,nan,nan,nan,nan,nan,nan,nan
79716000,-0.034017,0.0129027,-39.633,0.0,nan,nan,nan,nan,nan,nan,nan,nan,nan,nan,nan,nan,nan
79900000,-0.034017,0.0129027,-39.633,0.0,nan,nan,nan,nan,nan,nan,nan,nan,nan,nan,nan,nan,nan
80088000,-0.034017,0.0129027,-39.633,0.0,nan,nan,nan,nan,nan,nan,nan,nan,nan,nan,nan,nan,nan
80276000,-0.034017,0.0129027,-39.633,0.0,nan,nan,nan,nan,nan,nan,nan,nan,nan,nan,nan,nan,nan
80460000,-0.034017,0.0129027,-39.633,0.0,nan,nan,nan,nan,nan,nan,nan,nan,nan,nan,nan,nan,nan
80648000,-0.034017,0.0129027,-39.633,0.0,nan,nan,nan,nan,nan,nan,nan,nan,nan,nan,nan,nan,nan
80836000,-0.034017,0.0129027,-39.633,0.0,nan,nan,nan,nan,nan,nan,nan,nan,nan,nan,nan,nan,nan
81024000,-0.034017,0.0129027,-39.633,0.0,nan,nan,nan,nan,nan,nan,nan,nan,nan,nan,nan,nan,nan
81212000,-0.034017,0.0129027,-39.633,0.0,nan,nan,nan,nan,nan,nan,nan,nan,nan,nan,nan,nan,nan
81396000,-0.034017,0.0129027,-39.633,0.0,nan,nan,nan,nan,nan,nan,nan,nan,nan,nan,nan,nan,nan
81584000,-0.034017,0.0129027,-39.633,0.0,nan,nan,nan,nan,nan,nan,nan,nan,nan,nan,nan,nan,nan
81772000,-0.034017,0.0129027,-39.633,0.0,nan,nan,nan,nan,nan,nan,nan,nan,nan,nan,nan,nan,nan
81956000,-0.034017,0.0129027,-39.633,0.0,nan,nan,nan,nan,nan,nan,nan,nan,nan,nan,nan,nan,nan
82144000,-0.034017,0.0129027,-39.633,0.0,nan,nan,nan,nan,nan,nan,nan,nan,nan,nan,nan,nan,nan
82332000,-0.034017,0.0129027,-39.633,0.0,nan,nan,nan,nan,nan,nan,nan,nan,nan,nan,nan,nan,nan
82516000,-0.034017,0.0129027,-39.633,0.0,nan,nan,nan,nan,nan,nan,nan,nan,nan,nan,nan,nan,nan
82704000,-0.034017,0.0129027,-39.633,0.0,nan,nan,nan,nan,nan,nan,nan,nan,nan,nan,nan,nan,nan
82892000,-0.034017,0.0129027,-39.633,0.0,nan,nan,nan,nan,nan,nan,nan,nan,nan,nan,nan,nan,nan
83076000,-0.034017,0.0129027,-39.633,0.0,nan,nan,nan,nan,nan,nan,nan,nan,nan,nan,nan,nan,nan
83264000,-0.034017,0.0129027,-39.633,0.0,nan,nan,nan,nan,nan,nan,nan,nan,nan,nan,nan,nan,nan
83452000,-0.034017,0.0129027,-39.633,0.0,nan,nan,nan,nan,nan,nan,nan,nan,nan,nan,nan,nan,nan
83636000,-0.034017,0.0129027,-39.633,0.0,nan,nan,nan,nan,nan,nan,nan,nan,nan,nan,nan,nan,nan
83824000,-0.034017,0.0129027,-39.633,0.0,nan,nan,nan,nan,nan,nan,nan,nan,nan,nan,nan,nan,nan
84012000,nan,nan,nan,nan,0.0,0.000153044,0.44815,-0.893958,nan,nan,nan,nan,nan,nan,nan,nan,nan
84196000,nan,nan,nan,nan,0.0,0.000285029,0.44815,-0.893958,nan,nan,nan,nan,nan,nan,nan,nan,nan
84384000,nan,nan,nan,nan,0.0,0.000461224,0.44815,-0.893958,nan,nan,nan,nan,nan,nan,nan,nan,nan
84572000,nan,nan,nan,nan,0.0,0.000233936,0.44815,-0.893958,nan,nan,nan,nan,nan,nan,nan,nan,nan
84756000,nan,nan,nan,nan,0.0,0.00022784,0.44815,-0.893958,nan,nan,nan,nan,nan,nan,nan,nan,nan
84944000,nan,nan,nan,nan,0.0,0.000281733,0.44815,-0.893958,nan,nan,nan,nan,nan,nan,nan,nan,nan
85132000,nan,nan,nan,nan,0.0,0.000215774,0.44815,-0.893958,nan,nan,nan,nan,nan,nan,nan,nan,nan
85324000,nan,nan,nan,nan,0.0,0.000140146,0.44815,-0.893958,nan,nan,nan,nan,nan,nan,nan,nan,nan
85508000,nan,nan,nan,nan,0.0,0.000335762,0.44815,-0.893958,nan,nan,nan,nan,nan,nan,nan,nan,nan
85696000,nan,nan,nan,nan,0.0,0.000408403,0.44815,-0.893958,nan,nan,nan,nan,nan,nan,nan,nan,nan
85884000,nan,nan,nan,nan,0.0,0.000469272,0.44815,-0.893958,nan,nan,nan,nan,nan,nan,nan,nan,nan
86068000,nan,nan,nan,nan,0.0,0.000374333,0.44815,-0.893958,nan,nan,nan,nan,nan,nan,nan,nan,nan
86256000,nan,nan,nan,nan,0.0,0.000273821,0.44815,-0.893958,nan,nan,nan,nan,nan,nan,nan,nan,nan
86444000,nan,nan,nan,nan,0.0,0.000284596,0.44815,-0.893958,nan,nan,nan,nan,nan,nan,nan,nan,nan
86632000,nan,nan,nan,nan,0.0,0.000407507,0.44815,-0.893958,nan,nan,nan,nan,nan,nan,nan,nan,nan
86820000,nan,nan,nan,nan,0.0,0.00030728,0.44815,-0.893958,nan,nan,nan,nan,nan,nan,nan,nan,nan
87004000,nan,nan,nan,nan,0.0,0.000249729,0.44815,-0.893958,nan,nan,nan,nan,nan,nan,nan,nan,nan
87192000,nan,nan,nan,nan,0.0,0.00022273,0.44815,-0.893958,nan,nan,nan,nan,nan,nan,nan,nan,nan
87380000,nan,nan,nan,nan,0.0,0.000150324,0.44815,-0.893958,nan,nan,nan,nan,nan,nan,nan,nan,nan
87564000,nan,nan,nan,nan,0.0,0.00023878,0.44815,-0.893958,nan,nan,nan,nan,nan,nan,nan,nan,nan
87752000,nan,nan,nan,nan,0.0,0.000190057,0.44815,-0.893958,nan,nan,nan,nan,nan,nan,nan,nan,nan
87940000,nan,nan,nan,nan,0.0,8.70037e-05,0.44815,-0.893958,nan,nan,nan,nan,nan,nan,nan,nan,nan
88124000,nan,nan,nan,nan,0.0,-5.40114e-05,0.44815,-0.893958,nan,nan,nan,nan,nan,nan,nan,nan,nan
88312000,nan,nan,nan,nan,0.0,-2.98019e-06,0.44815,-0.893958,nan,nan,nan,nan,nan,nan,nan,nan,nan
88500000,nan,nan,nan,nan,0.0,9.45825e-05,0.44815,-0.893958,nan,nan,nan,nan,nan,nan,nan,nan,nan
88684000,nan,nan,nan,nan,0.0,9.04062e-05,0.44815,-0.893958,nan,nan,nan,nan,nan,nan,nan,nan,nan
88872000,nan,nan,nan,nan,0.0,-7.04785e-05,0.44815,-0.893958,nan,nan,nan,nan,nan,nan,nan,nan,nan
89060000,nan,nan,nan,nan,0.0,-6.49599e-05,0.44815,-0.893958,nan,nan,nan,nan,nan,nan,nan,nan,nan
89244000,nan,nan,nan,nan,0.0,-7.42175e-05,0.44815,-0.893958,nan,nan,nan,nan,nan,nan,nan,nan,nan
89432000,nan,nan,nan,nan,0.0,-3.92343e-05,0.44815,-0.893958,nan,nan,nan,nan,nan,nan,nan,nan,nan
89620000,nan,nan,nan,nan,0.0,3.99416e-05,0.44815,-0.893958,nan,nan,nan,nan,nan,nan,nan,nan,nan
89804000,nan,nan,nan,nan,0.0,5.21993e-05,0.44815,-0.893958,nan,nan,nan,nan,nan,nan,nan,nan,nan
89992000,nan,nan,nan,nan,0.0,-9.1751e-05,0.44815,-0.893958,nan,nan,nan,nan,nan,nan,nan,nan,nan
90180000,nan,nan,nan,nan,0.0,-0.000152286,0.44815,-0.893958,nan,nan,nan,nan,nan,nan,nan,nan,nan
90368000,nan,nan,nan,nan,0.0,-6.74336e-05,0.44815,-0.893958,nan,nan,nan,nan,nan,nan,nan,nan,nan
90556000,nan,nan,nan,nan,0.0,-8.37659e-05,0.44815,-0.893958,nan,nan,nan,nan,nan,nan,nan,nan,nan
90740000,nan,nan,nan,nan,0.0,-2.7018e-05,0.44815,-0.893958,nan,nan,nan,nan,nan,nan,nan,nan,nan
90928000,nan,nan,nan,nan,0.0,7.14846e-05,0.44815,-0.893958,nan,nan,nan,nan,nan,nan,nan,nan,nan
91116000,nan,nan,nan,nan,0.0,0.000211195,0.44815,-0.893958,nan,nan,nan,nan,nan,nan,nan,nan,nan
91300000,nan,nan,nan,nan,0.0,-9.26723e-06,0.44815,-0.893958,nan,nan,nan,nan,nan,nan,nan,nan,nan
91488000,nan,nan,nan,nan,0.0,-7.36737e-05,0.44815,-0.893958,nan,nan,nan,nan,nan,nan,nan,nan,nan
91676000,nan,nan,nan,nan,0.0,-0.000134368,0.44815,-0.893958,nan,nan,nan,nan,nan,nan,nan,nan,nan
91860000,nan,nan,nan,nan,0.0,-0.000215969,0.44815,-0.893958,nan,nan,nan,nan,nan,nan,nan,nan,nan
92048000,nan,nan,nan,nan,0.0,3.22838e-05,0.44815,-0.893958,nan,nan,nan,nan,nan,nan,nan,nan,nan
92236000,nan,nan,nan,nan,0.0,0.000116807,0.44815,-0.893958,nan,nan,nan,nan,nan,nan,nan,nan,nan
92420000,nan,nan,nan,nan,0.0,3.39938e-05,0.44815,-0.893958,nan,nan,nan,nan,nan,nan,nan,nan,nan
92608000,nan,nan,nan,nan,0.0,0.000108655,0.44815,-0.893958,nan,nan,nan,nan,nan,nan,nan,nan,nan
92796000,nan,nan,nan,nan,0.0,0.000146725,0.44815,-0.893958,nan,nan,nan,nan,nan,nan,nan,nan,nan
92980000,nan,nan,nan,nan,0.0,7.07392e-05,0.44815,-0.893958,nan,nan,nan,nan,nan,nan,nan,nan,nan
93168000,nan,nan,nan,nan,0.0,6.24061e-05,0.44815,-0.893958,nan,nan,nan,nan,nan,nan,nan,nan,nan
93356000,nan,nan,nan,nan,0.0,0.0001428,0.44815,-0.893958,nan,nan,nan,nan,nan,nan,nan,nan,nan
93540000,nan,nan,nan,nan,0.0,9.46151e-05,0.44815,-0.893958,nan,nan,nan,nan,nan,nan,nan,nan,nan
93728000,nan,nan,nan,nan,0.0,7.28113e-05,0.44815,-0.893958,nan,nan,nan,nan,nan,nan,nan,nan,nan
93916000,nan,nan,nan,nan,0.0,7.27343e-06,0.44815,-0.893958,nan,nan,nan,nan,nan,nan,nan,nan,nan
94100000,nan,nan,nan,nan,0.0,-0.000114284,0.44815,-0.893958,nan,nan,nan,nan,nan,nan,nan,nan,nan
94288000,nan,nan,nan,nan,0.0,-0.000222628,0.44815,-0.893958,nan,nan,nan,nan,nan,nan,nan,nan,nan
94476000,nan,nan,nan,nan,0.0,-7.64448e-05,0.44815,-0.893958,nan,nan,nan,nan,nan,nan,nan,nan,nan
94660000,nan,nan,nan,nan,0.0,-0.000138135,0.44815,-0.893958,nan,nan,nan,nan,nan,nan,nan,nan,nan
94848000,nan,nan,nan,nan,0.0,-0.000146598,0.44815,-0.893958,nan,nan,nan,nan,nan,nan,nan,nan,nan
95036000,nan,nan,nan,nan,0.0,3.12698e-05,0.44815,-0.893958,nan,nan,nan,nan,nan,nan,nan,nan,nan
95220000,nan,nan,nan,nan,0.0,-4.87344e-05,0.44815,-0.893958,nan,nan,nan,nan,nan,nan,nan,nan,nan
95408000,nan,nan,nan,nan,0.0,8.17896e-06,0.44815,-0.893958,nan,nan,nan,nan,nan,nan,nan,nan,nan
95596000,nan,nan,nan,nan,0.0,0.000179124,0.44815,-0.893958,nan,nan,nan,nan,nan,nan,nan,nan,nan
95780000,nan,nan,nan,nan,0.0,0.000294615,0.44815,-0.893958,nan,nan,nan,nan,nan,nan,nan,nan,nan
95968000,nan,nan,nan,nan,0.0,0.00013937,0.44815,-0.893958,nan,nan,nan,nan,nan,nan,nan,nan,nan
96156000,nan,nan,nan,nan,0.0,7.4492e-05,0.44815,-0.893958,nan,nan,nan,nan,nan,nan,nan,nan,nan
96340000,nan,nan,nan,nan,0.0,3.88856e-05,0.44815,-0.893958,nan,nan,nan,nan,nan,nan,nan,nan,nan
96528000,nan,nan,nan,nan,0.0,-0.000135306,0.44815,-0.893958,nan,nan,nan,nan,nan,nan,nan,nan,nan
96716000,nan,nan,nan,nan,0.0,-9.04021e-05,0.44815,-0.893958,nan,nan,nan,nan,nan,nan,nan,nan,nan
96900000,nan,nan,nan,nan,0.0,-5.25967e-05,0.44815,-0.893958,nan,nan,nan,nan,nan,nan,nan,nan,nan
97088000,nan,nan,nan,nan,0.0,-6.6361e-05,0.44815,-0.893958,nan,nan,nan,nan,nan,nan,nan,nan,nan
97276000,nan,nan,nan,nan,0.0,1.57712e-05,0.44815,-0.893958,nan,nan,nan,nan,nan,nan,nan,nan,nan
97460000,nan,nan,nan,nan,0.0,6.23432e-05,0.44815,-0.893958,nan,nan,nan,nan,nan,nan,nan,nan,nan
97648000,nan,nan,nan,nan,0.0,4.27948e-05,0.44815,-0.893958,nan,nan,nan,nan,nan,nan,nan,nan,nan
97836000,nan,nan,nan,nan,0.0,-8.99419e-05,0.44815,-0.893958,nan,nan,nan,nan,nan,nan,nan,nan,nan
98020000,nan,nan,nan,nan,0.0,-0.000252068,0.44815,-0.893958,nan,nan,nan,nan,nan,nan,nan,nan,nan
98208000,nan,nan,nan,nan,0.0,-0.00028427,0.44815,-0.893958,nan,nan,nan,nan,nan,nan,nan,nan,nan
98396000,nan,nan,nan,nan,0.0,-0.0001625,0.44815,-0.893958,nan,nan,nan,nan,nan,nan,nan,nan,nan
98580000,nan,nan,nan,nan,0.0,-0.000104481,0.44815,-0.893958,nan,nan,nan,nan,nan,nan,nan,nan,nan
98768000,nan,nan,nan,nan,0.0,-9.37216e-05,0.44815,-0.893958,nan,nan,nan,nan,nan,nan,nan,nan,nan
98956000,nan,nan,nan,nan,0.0,-1.76001e-05,0.44815,-0.893958,nan,nan,nan,nan,nan,nan,nan,nan,nan
99140000,nan,nan,nan,nan,0.0,-3.81297e-05,0.44815,-0.893958,nan,nan,nan,nan,nan,nan,nan,nan,nan
99328000,nan,nan,nan,nan,0.0,9.44733e-05,0.44815,-0.893958,nan,nan,nan,nan,nan,nan,nan,nan,nan
99516000,nan,nan,nan,nan,0.0,0.000176592,0.44815,-0.893958,nan,nan,nan,nan,nan,nan,nan,nan,nan
99700000,nan,nan,nan,nan,0.0,0.000132533,0.44815,-0.893958,nan,nan,nan,nan,nan,nan,nan,nan,nan
99888000,nan,nan,nan,nan,0.0,6.85069e-05,0.44815,-0.893958,nan,nan,nan,nan,nan,nan,nan,nan,nan
100076000,nan,nan,nan,nan,0.0,0.00012204,0.44815,-0.893958,nan,nan,nan,nan,nan,nan,nan,nan,nan
100260000,nan,nan,nan,nan,0.0,0.000112918,0.44815,-0.893958,nan,nan,nan,nan,nan,nan,nan,nan,nan
100448000,nan,nan,nan,nan,0.0,0.00031255,0.44815,-0.893958,nan,nan,nan,nan,nan,nan,nan,nan,nan
100636000,nan,nan,nan,nan,0.0,0.000309937,0.44815,-0.893958,nan,nan,nan,nan,nan,nan,nan,nan,nan
100820000,nan,nan,nan,nan,0.0,0.000297995,0.44815,-0.893958,nan,nan,nan,nan,nan,nan,nan,nan,nan
101008000,nan,nan,nan,nan,0.0,0.00029476,0.44815,-0.893958,nan,nan,nan,nan,nan,nan,nan,nan,nan
101196000,nan,nan,nan,nan,0.0,0.000262883,0.44815,-0.893958,nan,nan,nan,nan,nan,nan,nan,nan,nan
101380000,nan,nan,nan,nan,0.0,0.000263494,0.44815,-0.893958,nan,nan,nan,nan,nan,nan,nan,nan,nan
101568000,nan,nan,nan,nan,0.0,0.000185625,0.44815,-0.893958,nan,nan,nan,nan,nan,nan,nan,nan,nan
101756000,nan,nan,nan,nan,0.0,0.000296133,0.44815,-0.893958,nan,nan,nan,nan,nan,nan,nan,nan,nan
101940000,nan,nan,nan,nan,0.0,0.000376649,0.44815,-0.893958,nan,nan,nan,nan,nan,nan,nan,nan,nan
102128000,nan,nan,nan,nan,0.0,0.000428737,0.44815,-0.893958,nan,nan,nan,nan,nan,nan,nan,nan,nan
102316000,nan,nan,nan,nan,0.0,0.000488332,0.44815,-0.893958,nan,nan,nan,nan,nan,nan,nan,nan,nan
102504000,nan,nan,nan,nan,0.0,0.000636548,0.44815,-0.893958,nan,nan,nan,nan,nan,nan,nan,nan,nan
102692000,nan,nan,nan,nan,0.0,0.000629086,0.44815,-0.893958,nan,nan,nan,nan,nan,nan,nan,nan,nan
102876000,nan,nan,nan,nan,0.0,0.000449286,0.44815,-0.893958,nan,nan,nan,nan,nan,nan,nan,nan,nan
103064000,nan,nan,nan,nan,0.0,0.000568461,0.44815,-0.893958,nan,nan,nan,nan,nan,nan,nan,nan,nan
103252000,nan,nan,nan,nan,0.0,0.000633881,0.44815,-0.893958,nan,nan,nan,nan,nan,nan,nan,nan,nan
103436000,nan,nan,nan,nan,0.0,0.000595708,0.44815,-0.893958,nan,nan,nan,nan,nan,nan,nan,nan,nan
103624000,nan,nan,nan,nan,0.0,0.00056421,0.44815,-0.893958,nan,nan,nan,nan,nan,nan,nan,nan,nan
103812000,nan,nan,nan,nan,0.0,0.000556256,0.44815,-0.893958,nan,nan,nan,nan,nan,nan,nan,nan,nan
103996000,nan,nan,nan,nan,0.0,0.000640513,0.44815,-0.893958,nan,nan,nan,nan,nan,nan,nan,nan,nan
104184000,nan,nan,nan,nan,0.0,0.00063652,0.44815,-0.893958,nan,nan,nan,nan,nan,nan,nan,nan,nan
104372000,nan,nan,nan,nan,0.0,0.000472632,0.44815,-0.893958,nan,nan,nan,nan,nan,nan,nan,nan,nan
104556000,nan,nan,nan,nan,0.0,0.000528537,0.44815,-0.893958,nan,nan,nan,nan,nan,nan,nan,nan,nan
104744000,nan,nan,nan,nan,0.0,0.000460819,0.44815,-0.893958,nan,nan,nan,nan,nan,nan,nan,nan,nan
104932000,nan,nan,nan,nan,0.0,0.000420117,0.44815,-0.893958,nan,nan,nan,nan,nan,nan,nan,nan,nan
105116000,nan,nan,nan,nan,0.0,0.000430569,0.44815,-0.893958,nan,nan,nan,nan,nan,nan,nan,nan,nan
105304000,nan,nan,nan,nan,0.0,0.000318158,0.44815,-0.893958,nan,nan,nan,nan,nan,nan,nan,nan,nan
105492000,nan,nan,nan,nan,0.0,0.000408592,0.44815,-0.893958,nan,nan,nan,nan,nan,nan,nan,nan,nan
105676000,nan,nan,nan,nan,0.0,0.000448739,0.44815,-0.893958,nan,nan,nan,nan,nan,nan,nan,nan,nan
105864000,nan,nan,nan,nan,0.0,0.000473102,0.44815,-0.893958,nan,nan,nan,nan,nan,nan,nan,nan,nan
106052000,nan,nan,nan,nan,0.0,0.000539097,0.44815,-0.893958,nan,nan,nan,nan,nan,nan,nan,nan,nan
106236000,nan,nan,nan,nan,0.0,0.000429589,0.44815,-0.893958,nan,nan,nan,nan,nan,nan,nan,nan,nan
106424000,nan,nan,nan,nan,0.0,0.000368384,0.44815,-0.893958,nan,nan,nan,nan,nan,nan,nan,nan,nan
106612000,nan,nan,nan,nan,0.0,0.000322585,0.44815,-0.893958,nan,nan,nan,nan,nan,nan,nan,nan,nan
106796000,nan,nan,nan,nan,0.0,0.000267669,0.44815,-0.893958,nan,nan,nan,nan,nan,nan,nan,nan,nan
106984000,nan,nan,nan,nan,0.0,0.000207119,0.44815,-0.893958,nan,nan,nan,nan,nan,nan,nan,nan,nan
107172000,nan,nan,nan,nan,0.0,0.000328028,0.44815,-0.893958,nan,nan,nan,nan,nan,nan,nan,nan,nan
107356000,nan,nan,nan,nan,0.0,0.000268711,0.44815,-0.893958,nan,nan,nan,nan,nan,nan,nan,nan,nan
107544000,nan,nan,nan,nan,0.0,0.000152065,0.44815,-0.893958,nan,nan,nan,nan,nan,nan,nan,nan,nan
107732000,nan,nan,nan,nan,0.0,0.000232486,0.44815,-0.893958,nan,nan,nan,nan,nan,nan,nan,nan,nan
107916000,nan,nan,nan,nan,0.0,0.000315824,0.44815,-0.893958,nan,nan,nan,nan,nan,nan,nan,nan,nan
108104000,nan,nan,nan,nan,0.0,0.000431051,0.44815,-0.893958,nan,nan,nan,nan,nan,nan,nan,nan,nan
108292000,nan,nan,nan,nan,0.0,0.00038233,0.44815,-0.893958,nan,nan,nan,nan,nan,nan,nan,nan,nan
108476000,nan,nan,nan,nan,0.0,0.000281446,0.44815,-0.893958,nan,nan,nan,nan,nan,nan,nan,nan,nan
108664000,nan,nan,nan,nan,0.0,0.000353096,0.44815,-0.893958,nan,nan,nan,nan,nan,nan,nan,nan,nan
108852000,nan,nan,nan,nan,0.0,0.000437704,0.44815,-0.893958,nan,nan,nan,nan,nan,nan,nan,nan,nan
109036000,nan,nan,nan,nan,0.0,0.000311996,0.44815,-0.893958,nan,nan,nan,nan,nan,nan,nan,nan,nan
109224000,nan,nan,nan,nan,0.0,0.000394583,0.44815,-0.893958,nan,nan,nan,nan,nan,nan,nan,nan,nan
109412000,nan,nan,nan,nan,0.0,0.000569309,0.44815,-0.893958,nan,nan,nan,nan,nan,nan,nan,nan,nan
109596000,nan,nan,nan,nan,0.0,0.000458634,0.44815,-0.893958,nan,nan,nan,nan,nan,nan,nan,nan,nan
109784000,nan,nan,nan,nan,0.0,0.000227476,0.44815,-0.893958,nan,nan,nan,nan,nan,nan,nan,nan,nan
109972000,nan,nan,nan,nan,0.0,0.000280365,0.44815,-0.893958,nan,nan,nan,nan,nan,nan,nan,nan,nan
110156000,nan,nan,nan,nan,0.0,0.000505513,0.44815,-0.893958,nan,nan,nan,nan,nan,nan,nan,nan,nan
110344000,nan,nan,nan,nan,0.0,0.00035753,0.44815,-0.893958,nan,nan,nan,nan,nan,nan,nan,nan,nan
110532000,nan,nan,nan,nan,0.0,0.000252442,0.44815,-0.893958,nan,nan,nan,nan,nan,nan,nan,nan,nan
110716000,nan,nan,nan,nan,0.0,0.000278159,0.44815,-0.893958,nan,nan,nan,nan,nan,nan,nan,nan,nan
110904000,nan,nan,nan,nan,0.0,0.000256667,0.44815,-0.893958,nan,nan,nan,nan,nan,nan,nan,nan,nan
111092000,nan,nan,nan,nan,0.0,0.000256097,0.44815,-0.893958,nan,nan,nan,nan,nan,nan,nan,nan,nan
111276000,nan,nan,nan,nan,0.0,0.000233094,0.44815,-0.893958,nan,nan,nan,nan,nan,nan,nan,nan,nan
111464000,nan,nan,nan,nan,0.0,0.000148464,0.44815,-0.893958,nan,nan,nan,nan,nan,nan,nan,nan,nan
111652000,nan,nan,nan,nan,0.0,0.000200386,0.44815,-0.893958,nan,nan,nan,nan,nan,nan,nan,nan,nan
111836000,nan,nan,nan,nan,0.0,0.000291375,0.44815,-0.893958,nan,nan,nan,nan,nan,nan,nan,nan,nan
112024000,nan,nan,nan,nan,0.0,0.000168472,0.44815,-0.893958,nan,nan,nan,nan,nan,nan,nan,nan,nan
112212000,nan,nan,nan,nan,0.0,0.000403177,0.44815,-0.893958,nan,nan,nan,nan,nan,nan,nan,nan,nan
112396000,nan,nan,nan,nan,0.0,0.00033326,0.44815,-0.893958,nan,nan,nan,nan,nan,nan,nan,nan,nan
112584000,nan,nan,nan,nan,0.0,0.000256993,0.44815,-0.893958,nan,nan,nan,nan,nan,nan,nan,nan,nan
112772000,nan,nan,nan,nan,0.0,0.000342153,0.44815,-0.893958,nan,nan,nan,nan,nan,nan,nan,nan,nan
112956000,nan,nan,nan,nan,0.0,0.000441858,0.44815,-0.893958,nan,nan,nan,nan,nan,nan,nan,nan,nan
113144000,nan,nan,nan,nan,0.0,0.000485361,0.44815,-0.893958,nan,nan,nan,nan,nan,nan,nan,nan,nan
113332000,nan,nan,nan,nan,0.0,0.000487014,0.44815,-0.893958,nan,nan,nan,nan,nan,nan,nan,nan,nan
113516000,nan,nan,nan,nan,0.0,0.000376564,0.44815,-0.893958,nan,nan,nan,nan,nan,nan,nan,nan,nan
113704000,nan,nan,nan,nan,0.0,0.000381338,0.44815,-0.893958,nan,nan,nan,nan,nan,nan,nan,nan,nan
113892000,nan,nan,nan,nan,0.0,0.000466755,0.44815,-0.893958,nan,nan,nan,nan,nan,nan,nan,nan,nan
114076000,nan,nan,nan,nan,0.0,0.000488279,0.44815,-0.893958,nan,nan,nan,nan,nan,nan,nan,nan,nan
114264000,nan,nan,nan,nan,0.0,0.000557052,0.44815,-0.893958,nan,nan,nan,nan,nan,nan,nan,nan,nan
114452000,nan,nan,nan,nan,0.0,0.000425571,0.44815,-0.893958,nan,nan,nan,nan,nan,nan,nan,nan,nan
114636000,nan,nan,nan,nan,0.0,0.000486852,0.44815,-0.893958,nan,nan,nan,nan,nan,nan,nan,nan,nan
114824000,nan,nan,nan,nan,0.0,0.000736044,0.448149,-0.893958,nan,nan,nan,nan,nan,nan,nan,nan,nan
115012000,nan,nan,nan,nan,0.0,0.000649153,0.44815,-0.893958,nan,nan,nan,nan,nan,nan,nan,nan,nan
115196000,nan,nan,nan,nan,0.0,0.000679063,0.44815,-0.893958,nan,nan,nan,nan,nan,nan,nan,nan,nan
115384000,nan,nan,nan,nan,0.0,0.000656931,0.44815,-0.893958,nan,nan,nan,nan,nan,nan,nan,nan,nan
115572000,nan,nan,nan,nan,0.0,0.000556209,0.44815,-0.893958,nan,nan,nan,nan,nan,nan,nan,nan,nan
115756000,nan,nan,nan,nan,0.0,0.000568721,0.44815,-0.893958,nan,nan,nan,nan,nan,nan,nan,nan,nan
115944000,nan,nan,nan,nan,0.0,0.00063509,0.44815,-0.893958,nan,nan,nan,nan,nan,nan,nan,nan,nan
116132000,nan,nan,nan,nan,0.0,0.000624803,0.44815,-0.893958,nan,nan,nan,nan,nan,nan,nan,nan,nan
116316000,nan,nan,nan,nan,0.0,0.00061524,0.44815,-0.893958,nan,nan,nan,nan,nan,nan,nan,nan,nan
116504000,-0.034017,15.0129,-69.633,0.0,nan,nan,nan,nan,nan,nan,nan,nan,nan,nan,nan,nan,nan
116692000,-0.034017,15.0129,-69.633,0.0,nan,nan,nan,nan,nan,nan,nan,nan,nan,nan,nan,nan,nan
116876000,-0.034017,15.0129,-69.633,0.0,nan,nan,nan,nan,nan,nan,nan,nan,nan,nan,nan,nan,nan
117064000,-0.034017,15.0129,-69.633,0.0,nan,nan,nan,nan,nan,nan,nan,nan,nan,nan,nan,nan,nan
117252000,-0.034017,15.0129,-69.633,0.0,nan,nan,nan,nan,nan,nan,nan,nan,nan,nan,nan,nan,nan
117436000,-0.034017,15.0129,-69.633,0.0,nan,nan,nan,nan,nan,nan,nan,nan,nan,nan,nan,nan,nan
117624000,-0.034017,15.0129,-69.633,0.0,nan,nan,nan,nan,nan,nan,nan,nan,nan,nan,nan,nan,nan
117812000,-0.034017,15.0129,-69.633,0.0,nan,nan,nan,nan,nan,nan,nan,nan,nan,nan,nan,nan,nan
117996000,-0.034017,15.0129,-69.633,0.0,nan,nan,nan,nan,nan,nan,nan,nan,nan,nan,nan,nan,nan
118184000,-0.034017,15.0129,-69.633,0.0,nan,nan,nan,nan,nan,nan,nan,nan,nan,nan,nan,nan,nan
118372000,nan,nan,nan,nan,0.0,0.0011653,0.448612,0.893726,nan,nan,nan,nan,nan,nan,nan,nan,nan
118556000,nan,nan,nan,nan,0.0,0.0013205,0.448611,0.893726,nan,nan,nan,nan,nan,nan,nan,nan,nan
118744000,nan,nan,nan,nan,0.0,0.00303326,0.448603,0.893726,nan,nan,nan,nan,nan,nan,nan,nan,nan
118932000,nan,nan,nan,nan,0.0,0.00310144,0.448602,0.893726,nan,nan,nan,nan,nan,nan,nan,nan,nan
119116000,nan,nan,nan,nan,0.0,0.00323385,0.448601,0.893726,nan,nan,nan,nan,nan,nan,nan,nan,nan
119304000,nan,nan,nan,nan,0.0,0.00330331,0.448601,0.893726,nan,nan,nan,nan,nan,nan,nan,nan,nan
119492000,nan,nan,nan,nan,0.0,0.00317745,0.448602,0.893726,nan,nan,nan,nan,nan,nan,nan,nan,nan
119676000,nan,nan,nan,nan,0.0,0.00313841,0.448602,0.893726,nan,nan,nan,nan,nan,nan,nan,nan,nan
119864000,nan,nan,nan,nan,0.0,0.00328742,0.448601,0.893726,nan,nan,nan,nan,nan,nan,nan,nan,nan
120052000,nan,nan,nan,nan,0.0,0.00347231,0.4486,0.893726,nan,nan,nan,nan,nan,nan,nan,nan,nan
120236000,nan,nan,nan,nan,0.0,0.00325606,0.448601,0.893726,nan,nan,nan,nan,nan,nan,nan,nan,nan
120424000,nan,nan,nan,nan,0.0,0.00323177,0.448601,0.893726,nan,nan,nan,nan,nan,nan,nan,nan,nan
120612000,nan,nan,nan,nan,0.0,0.00326341,0.448601,0.893726,nan,nan,nan,nan,nan,nan,nan,nan,nan
120796000,nan,nan,nan,nan,0.0,0.00311088,0.448602,0.893726,nan,nan,nan,nan,nan,nan,nan,nan,nan
120984000,nan,nan,nan,nan,0.0,0.00316348,0.448602,0.893726,nan,nan,nan,nan,nan,nan,nan,nan,nan
121172000,nan,nan,nan,nan,0.0,0.00318631,0.448602,0.893726,nan,nan,nan,nan,nan,nan,nan,nan,nan
121356000,nan,nan,nan,nan,0.0,0.00332151,0.448601,0.893726,nan,nan,nan,nan,nan,nan,nan,nan,nan
121544000,nan,nan,nan,nan,0.0,0.00335731,0.4486,0.893726,nan,nan,nan,nan,nan,nan,nan,nan,nan
121732000,nan,nan,nan,nan,0.0,0.00344616,0.4486,0.893726,nan,nan,nan,nan,nan,nan,nan,nan,nan
121916000,nan,nan,nan,nan,0.0,0.00344779,0.4486,0.893726,nan,nan,nan,nan,nan,nan,nan,nan,nan
122104000,nan,nan,nan,nan,0.0,0.00359964,0.448599,0.893726,nan,nan,nan,nan,nan,nan,nan,nan,nan
122292000,nan,nan,nan,nan,0.0,0.0035579,0.448599,0.893726,nan,nan,nan,nan,nan,nan,nan,nan,nan
122480000,nan,nan,nan,nan,0.0,0.00356208,0.448599,0.893726,nan,nan,nan,nan,nan,nan,nan,nan,nan
122668000,nan,nan,nan,nan,0.0,0.00354049,0.448599,0.893726,nan,nan,nan,nan,nan,nan,nan,nan,nan
