timestamp,timestamp_sample,control[0],control[1],control[2],control[3],control[4],control[5],control[6],control[7]
1224000,1224000,0.000941588,-0.00177146,-0.00301004,-0.0,0.0,0.0,0.0,-1.0
1324000,1324000,-0.000567388,0.00154634,-0.00363697,-0.0,0.0,0.0,0.0,-1.0
1424000,1424000,0.000456815,-0.00335732,-0.00194922,-0.0,0.0,0.0,0.0,-1.0
1520000,1520000,-0.00116216,0.00176545,-0.00255006,-0.0,0.0,0.0,0.0,-1.0
1616000,1616000,0.00096294,-0.000689986,-0.0043927,-0.0,0.0,0.0,0.0,-1.0
1716000,1716000,0.00365653,0.000237062,-0.00361662,-0.0,0.0,0.0,0.0,-1.0
1812000,1812000,-0.000155444,-0.0013487,-0.00346569,-0.0,0.0,0.0,0.0,-1.0
1908000,1908000,0.00391202,-0.00196097,-0.00416451,-0.0,0.0,0.0,0.0,-1.0
2004000,2004000,0.00109838,-0.00115983,-0.0044738,-0.0,0.0,0.0,0.0,-1.0
2104000,2104000,0.00416832,-0.000691858,-0.00269548,-0.0,0.0,0.0,0.0,-1.0
2200000,2200000,0.00246967,0.00120058,-0.004514,-0.0,0.0,0.0,0.0,-1.0
2300000,2300000,-0.000376966,-0.00155846,-0.00326961,-0.0,0.0,0.0,0.0,-1.0
2400000,2400000,-0.00152716,0.0014912,-0.00344558,-0.0,0.0,0.0,0.0,-1.0
2496000,2496000,0.00041758,0.00160796,-0.00341328,-0.0,0.0,0.0,0.0,-1.0
2592000,2592000,0.00345682,0.000435448,-0.00439611,-0.0,0.0,0.0,0.0,-1.0
2692000,2692000,0.00249953,-0.00160961,-0.00313185,-0.0,0.0,0.0,0.0,-1.0
2788000,2788000,-0.001942,-0.00226843,-0.00321578,-0.0,0.0,0.0,0.0,-1.0
2888000,2888000,0.00357075,0.0013938,-0.00519867,-0.0,0.0,0.0,0.0,-1.0
2984000,2984000,0.00216883,0.00162953,-0.00330376,-0.0,0.0,0.0,0.0,-1.0
3084000,3084000,0.00117654,-0.00462044,-0.00381907,-0.0,0.0,0.0,0.0,-1.0
3180000,3180000,0.00253168,-0.00243912,-0.00319919,-0.0,0.0,0.0,0.0,-1.0
3280000,3280000,0.00163356,0.000820028,-0.00285682,-0.0,0.0,0.0,0.0,-1.0
3380000,3380000,0.00209279,-0.00562295,-0.00393919,-0.0,0.0,0.0,0.0,-1.0
3480000,3480000,-0.000173787,-0.00344231,-0.00367958,-0.0,0.0,0.0,0.0,-1.0
3576000,3576000,-0.000489921,0.00141368,-0.00402237,-0.0,0.0,0.0,0.0,-1.0
3676000,3676000,0.000452479,-0.00960176,-0.00498915,-0.0,0.0,0.0,0.0,-1.0
3776000,3776000,-0.00165613,0.00149056,-0.00471344,-0.0,0.0,0.0,0.0,-1.0
3876000,3876000,-0.00216752,0.00217298,-0.00527662,-0.0,0.0,0.0,0.0,-1.0
3976000,3976000,0.00401899,-0.00334864,-0.00370438,-0.0,0.0,0.0,0.0,-1.0
4076000,4076000,0.00223791,0.00156384,-0.00505181,-0.0,0.0,0.0,0.0,-1.0
4176000,4176000,-0.00177291,-0.000297343,-0.00453106,-0.0,0.0,0.0,0.0,-1.0
4276000,4276000,0.00177734,-0.00579481,-0.00223267,-0.0,0.0,0.0,0.0,-1.0
4372000,4372000,-0.00320134,-0.000877706,-0.00224372,-0.0,0.0,0.0,0.0,-1.0
4472000,4472000,0.00030745,0.000804457,-0.00467211,-0.0,0.0,0.0,0.0,-1.0
4568000,4568000,-0.00301554,0.00218291,-0.00351973,-0.0,0.0,0.0,0.0,-1.0
4664000,4664000,0.00300285,-0.00333036,-0.00431644,-0.0,0.0,0.0,0.0,-1.0
4760000,4760000,0.00190583,0.000682172,-0.00180844,-0.0,0.0,0.0,0.0,-1.0
4860000,4860000,-0.00132853,-0.000547327,-0.00309048,-0.0,0.0,0.0,0.0,-1.0
4960000,4960000,0.000676625,-0.00196228,-0.00516991,-0.0,0.0,0.0,0.0,-1.0
5060000,5060000,0.00121359,-0.00250792,-0.00465407,-0.0,0.0,0.0,0.0,-1.0
5156000,5156000,-0.00219586,0.0026836,-0.00460235,-0.0,0.0,0.0,0.0,-1.0
5256000,5256000,-0.0011903,-0.00242513,-0.00186659,-0.0,0.0,0.0,0.0,-1.0
5356000,5356000,-0.00671349,0.00150412,-0.00364122,-0.0,0.0,0.0,0.0,-1.0
5452000,5452000,-0.000571896,-0.000673309,-0.00637716,-0.0,0.0,0.0,0.0,-1.0
5552000,5552000,-0.000816808,4.67845e-05,-0.00385554,-0.0,0.0,0.0,0.0,-1.0
5652000,5652000,0.00424493,0.003231,-0.00368209,-0.0,0.0,0.0,0.0,-1.0
5752000,5752000,-0.00522491,0.00270551,-0.00218125,-0.0,0.0,0.0,0.0,-1.0
5852000,5852000,0.00336687,7.68201e-05,-0.00352817,-0.0,0.0,0.0,0.0,-1.0
5952000,5952000,0.000578229,-0.00134053,-0.00403426,-0.0,0.0,0.0,0.0,-1.0
6052000,6052000,-0.000508948,-0.00443036,-0.00759241,-0.0,0.0,0.0,0.0,-1.0
6148000,6148000,-0.0023131,0.00337717,-0.00393661,-0.0,0.0,0.0,0.0,-1.0
6248000,6248000,-0.00256264,0.00341434,-0.00267831,-0.0,0.0,0.0,0.0,-1.0
6348000,6348000,0.000745318,0.0021489,-0.00423381,-0.0,0.0,0.0,0.0,-1.0
6448000,6448000,-0.00460141,-0.0004907,-0.00403852,-0.0,0.0,0.0,0.0,-1.0
6544000,6544000,0.000207958,-0.00123227,-0.00388729,-0.0,0.0,0.0,0.0,-1.0
6644000,6644000,0.00234257,0.000564157,-0.00472268,-0.0,0.0,0.0,0.0,-1.0
6740000,6740000,-0.00358998,0.000611935,-0.00375067,-0.0,0.0,0.0,0.0,-1.0
6836000,6836000,0.00313713,0.000821717,-0.00389839,-0.0,0.0,0.0,0.0,-1.0
6936000,6936000,-0.000912712,-0.00293272,-0.00417077,-0.0,0.0,0.0,0.0,-1.0
7036000,7036000,0.00101637,0.00199282,-0.00402412,-0.0,0.0,0.0,0.0,-1.0
7132000,7132000,0.000448828,-0.00130106,-0.00340327,-0.0,0.0,0.0,0.0,-1.0
7232000,7232000,-0.00104061,0.00273455,-0.00309029,-0.0,0.0,0.0,0.0,-1.0
7328000,7328000,0.000418206,-0.0053076,-0.00613886,-0.0,0.0,0.0,0.0,-1.0
7428000,7428000,-0.00199089,-0.00191642,-0.00496914,-0.0,0.0,0.0,0.0,-1.0
7528000,7528000,0.00135728,-0.000734671,-0.00263915,-0.0,0.0,0.0,0.0,-1.0
7628000,7628000,0.000418654,0.000412738,-0.00335806,-0.0,0.0,0.0,0.0,-1.0
7728000,7728000,0.00152766,-0.000429098,-0.00331811,-0.0,0.0,0.0,0.0,-1.0
7824000,7824000,0.00216293,-0.00172625,-0.00384427,-0.0,0.0,0.0,0.0,-1.0
7920000,7920000,-7.23801e-05,0.000842418,-0.00521804,-0.0,0.0,0.0,0.0,-1.0
8020000,8020000,0.00601381,0.00230558,-0.00306348,-0.0,0.0,0.0,0.0,-1.0
8120000,8120000,-0.00111653,-0.000174861,-0.0040646,-0.0,0.0,0.0,0.0,-1.0
8220000,8220000,0.00290708,0.00109653,-0.00387696,-0.0,0.0,0.0,0.0,-1.0
8316000,8316000,-0.00190109,-0.000190565,-0.00137602,-0.0,0.0,0.0,0.0,-1.0
8412000,8412000,0.000578935,0.0030587,-0.00284736,-0.0,0.0,0.0,0.0,-1.0
8512000,8512000,0.00152019,-0.000496859,-0.00441312,-0.0,0.0,0.0,0.0,-1.0
8608000,8608000,0.00252891,0.00417074,-0.00320206,-0.0,0.0,0.0,0.0,-1.0
8704000,8704000,0.00251114,-0.00318309,-0.00224251,-0.0,0.0,0.0,0.0,-1.0
8804000,8804000,0.00224305,-0.00117953,-0.00265229,-0.0,0.0,0.0,0.0,-1.0
8904000,8904000,0.000770857,0.00122743,-0.00319087,-0.0,0.0,0.0,0.0,-1.0
9000000,9000000,-0.00275787,0.00245392,-0.00349254,-0.0,0.0,0.0,0.0,-1.0
9100000,9100000,0.00173674,-0.00046821,-0.00384569,-0.0,0.0,0.0,0.0,-1.0
9200000,9200000,0.00346818,0.00299288,-0.00285232,-0.0,0.0,0.0,0.0,-1.0
9296000,9296000,-0.00327582,0.00258445,-0.00374591,-0.0,0.0,0.0,0.0,-1.0
9392000,9392000,0.00293122,-0.00167397,-0.00411602,-0.0,0.0,0.0,0.0,-1.0
9492000,9492000,-0.00260651,-0.00222683,-0.00482496,-0.0,0.0,0.0,0.0,-1.0
9592000,9592000,0.000371015,0.000498433,-0.00233623,-0.0,0.0,0.0,0.0,-1.0
9688000,9688000,0.00348853,0.00158332,-0.00506644,-0.0,0.0,0.0,0.0,-1.0
9788000,9788000,0.00697907,-0.000286649,-0.00202331,-0.0,0.0,0.0,0.0,-1.0
9888000,9888000,0.0025802,0.00424048,-0.00375449,-0.0,0.0,0.0,0.0,-1.0
9988000,9988000,0.00311416,0.00298649,-0.00444684,-0.0,0.0,0.0,0.0,-1.0
10088000,10088000,0.00246458,0.00203695,-0.00471606,-0.0,0.0,0.0,0.0,-1.0
10188000,10188000,0.00273212,-0.00220338,-0.00253783,-0.0,0.0,0.0,0.0,-1.0
10288000,10288000,0.000460459,0.00181028,-0.00278017,-0.0,0.0,0.0,0.0,-1.0
10388000,10388000,0.00155368,0.00198653,-0.000876254,-0.0,0.0,0.0,0.0,-1.0
10488000,10488000,0.00355797,-0.000307507,-0.00273703,-0.0,0.0,0.0,0.0,-1.0
10588000,10588000,0.00411075,-0.000329845,-0.000198468,-0.0,0.0,0.0,0.0,-1.0
10688000,10688000,0.00225922,-0.0028086,-0.000750789,-0.0,0.0,0.0,0.0,-1.0
10784000,10784000,0.00149293,-0.000747454,-0.00148,-0.0,0.0,0.0,0.0,-1.0
10880000,10880000,0.0001456,0.00147459,0.00011146,-0.0,0.0,0.0,0.0,-1.0
10980000,10980000,0.00348755,0.00110835,-0.00208205,-0.0,0.0,0.0,0.0,-1.0
11080000,11080000,-1.79596e-05,-0.00469876,-0.00245053,-0.0,0.0,0.0,0.0,-1.0
11180000,11180000,-1.6141e-05,-0.00256273,-0.0028873,-0.0,0.0,0.0,0.0,-1.0
11276000,11276000,-0.0027216,0.00458937,-0.00218206,-0.0,0.0,0.0,0.0,-1.0
11376000,11376000,-0.000255198,0.000575469,-0.00199017,-0.0,0.0,0.0,0.0,-1.0
11476000,11476000,0.00045199,-0.0012595,-0.00296553,-0.0,0.0,0.0,0.0,-1.0
11576000,11576000,0.00122367,-0.00271958,-0.00280466,-0.0,0.0,0.0,0.0,-1.0
11676000,11676000,-0.00219187,-0.00185867,-0.00290746,-0.0,0.0,0.0,0.0,-1.0
11776000,11776000,0.00329574,0.00394196,-0.00141342,-0.0,0.0,0.0,0.0,-1.0
11876000,11876000,-0.000248845,0.000795504,-0.00308436,-0.0,0.0,0.0,0.0,-1.0
11976000,11976000,-0.000478791,0.00192321,-0.00254406,-0.0,0.0,0.0,0.0,-1.0
12076000,12076000,0.00119303,-0.00062797,-0.00284827,-0.0,0.0,0.0,0.0,-1.0
12176000,12176000,9.58115e-05,-0.00145113,-0.00573213,-0.0,0.0,0.0,0.0,-1.0
12276000,12276000,-0.00157445,-0.00210109,-0.00137595,-0.0,0.0,0.0,0.0,-1.0
12376000,12376000,0.000927635,0.00283266,-0.00203154,-0.0,0.0,0.0,0.0,-1.0
12472000,12472000,0.00278682,-0.000928047,-0.00405635,-0.0,0.0,0.0,0.0,-1.0
12572000,12572000,-0.00121048,-0.0034513,-0.00453869,-0.0,0.0,0.0,0.0,-1.0
12668000,12668000,0.00227508,0.0046612,-0.00317474,-0.0,0.0,0.0,0.0,-1.0
12768000,12768000,0.002327,0.0044934,-0.00335096,-0.0,0.0,0.0,0.0,-1.0
12864000,12864000,0.00237367,-0.00339597,-0.00203113,-0.0,0.0,0.0,0.0,-1.0
12964000,12964000,-0.00280666,0.000807528,-0.00509651,-0.0,0.0,0.0,0.0,-1.0
13060000,13060000,-0.000486595,0.00125081,-0.00399187,-0.0,0.0,0.0,0.0,-1.0
13156000,13156000,0.00205886,-0.00471647,-0.00295682,-0.0,0.0,0.0,0.0,-1.0
13252000,13252000,-0.00428741,-0.00190898,-0.00371227,-0.0,0.0,0.0,0.0,-1.0
13348000,13348000,0.00113639,5.00164e-05,-0.00306834,-0.0,0.0,0.0,0.0,-1.0
13444000,13444000,-0.000805888,0.00239877,-0.00453633,-0.0,0.0,0.0,0.0,-1.0
13544000,13544000,0.00112352,0.00211454,-0.00434331,-0.0,0.0,0.0,0.0,-1.0
13644000,13644000,-0.0007497,0.00328611,-0.0048109,-0.0,0.0,0.0,0.0,-1.0
13744000,13744000,-0.000850905,0.00136757,-0.0044436,-0.0,0.0,0.0,0.0,-1.0
13840000,13840000,0.000164239,-0.000371613,-0.00410195,-0.0,0.0,0.0,0.0,-1.0
13940000,13940000,0.00111859,-0.00166588,-0.00440985,-0.0,0.0,0.0,0.0,-1.0
14040000,14040000,-0.00311808,0.00250945,-0.00400712,-0.0,0.0,0.0,0.0,-1.0
14140000,14140000,9.10361e-05,-0.00190449,-0.00284591,-0.0,0.0,0.0,0.0,-1.0
14240000,14240000,0.00430804,0.00253981,-0.00590474,-0.0,0.0,0.0,0.0,-1.0
14340000,14340000,0.00109212,0.0053159,-0.00387298,-0.0,0.0,0.0,0.0,-1.0
14440000,14440000,0.001243,-0.0027587,-0.00340571,-0.0,0.0,0.0,0.0,-1.0
14540000,14540000,0.00123019,0.00243107,-0.00169287,-0.0,0.0,0.0,0.0,-1.0
14640000,14640000,-0.00269679,-0.00147015,-0.00387518,-0.0,0.0,0.0,0.0,-1.0
14740000,14740000,-0.00034523,-0.00344253,-0.00451825,-0.0,0.0,0.0,0.0,-1.0
14840000,14840000,-0.00585664,0.00852902,-0.00524899,-0.0,0.0,0.0,0.0,-1.0
14936000,14936000,-0.000307834,0.0015605,-0.00415466,-0.0,0.0,0.0,0.0,-1.0
15032000,15032000,0.0053357,0.00358734,-0.00430001,-0.0,0.0,0.0,0.0,-1.0
15132000,15132000,0.00161052,-0.00461486,-0.00442605,-0.0,0.0,0.0,0.0,-1.0
15232000,15232000,-0.000852295,-0.000911512,-0.00555195,-0.0,0.0,0.0,0.0,-1.0
15332000,15332000,0.000762486,0.00175983,-0.00486772,-0.0,0.0,0.0,0.0,-1.0
15432000,15432000,0.000878667,0.00463503,-0.00419067,-0.0,0.0,0.0,0.0,-1.0
15532000,15532000,-0.0063135,0.000126626,-0.00409399,-0.0,0.0,0.0,0.0,-1.0
15632000,15632000,-0.0012071,0.0037787,-0.00279145,-0.0,0.0,0.0,0.0,-1.0
15732000,15732000,-0.000264189,-0.00051123,-0.00433442,-0.0,0.0,0.0,0.0,-1.0
15828000,15828000,-0.00418371,0.000795369,-0.00490121,-0.0,0.0,0.0,0.0,-1.0
15924000,15924000,-0.000834748,-0.000530517,-0.0044415,-0.0,0.0,0.0,0.0,-1.0
16024000,16024000,-0.00377082,0.00369008,-0.00501588,-0.0,0.0,0.0,0.0,-1.0
16120000,16120000,-0.000784502,0.00182396,-0.00542222,-0.0,0.0,0.0,0.0,-1.0
16216000,16216000,-0.00229001,-0.00107138,-0.00314604,-0.0,0.0,0.0,0.0,-1.0
16316000,16316000,-0.00169358,-0.00270276,-0.00215633,-0.0,0.0,0.0,0.0,-1.0
16416000,16416000,0.00097285,0.000321296,-0.00402313,-0.0,0.0,0.0,0.0,-1.0
16516000,16516000,-0.000190994,0.000207901,-0.00335328,-0.0,0.0,0.0,0.0,-1.0
16616000,16616000,-0.00352058,0.0023529,-0.00500618,-0.0,0.0,0.0,0.0,-1.0
16716000,16716000,-0.00386791,0.00154751,-0.00285689,-0.0,0.0,0.0,0.0,-1.0
16816000,16816000,-0.00329162,0.00174832,-0.00532907,-0.0,0.0,0.0,0.0,-1.0
16916000,16916000,-0.00496463,0.00172135,-0.00531427,-0.0,0.0,0.0,0.0,-1.0
17016000,17016000,0.00258473,0.00069831,-0.00445425,-0.0,0.0,0.0,0.0,-1.0
17116000,17116000,0.00106785,0.00205687,-0.00525394,-0.0,0.0,0.0,0.0,-1.0
17212000,17212000,-0.000956393,0.00161671,-0.00456036,-0.0,0.0,0.0,0.0,-1.0
17312000,17312000,0.000774818,-0.00114742,-0.00478415,-0.0,0.0,0.0,0.0,-1.0
17412000,17412000,0.0013479,0.00151468,-0.0045398,-0.0,0.0,0.0,0.0,-1.0
17512000,17512000,-0.00221652,-0.00435351,-0.00451252,-0.0,0.0,0.0,0.0,-1.0
17612000,17612000,0.00295328,0.00153993,-0.00522805,-0.0,0.0,0.0,0.0,-1.0
17712000,17712000,-0.00133171,0.00211538,-0.00515328,-0.0,0.0,0.0,0.0,-1.0
17808000,17808000,0.000927603,-3.75856e-05,-0.00363132,-0.0,0.0,0.0,0.0,-1.0
17908000,17908000,-0.00221235,0.00145989,-0.0051712,-0.0,0.0,0.0,0.0,-1.0
18008000,18008000,-0.0430878,0.00396635,0.000291845,0.120073,0.0,0.0,0.0,-1.0
18104000,18104000,-0.0527106,0.0160027,-0.00154499,0.139027,0.0,0.0,0.0,-1.0
18204000,18204000,-0.0335863,0.010398,0.00192277,0.204505,0.0,0.0,0.0,-1.0
18304000,18304000,-0.0319677,0.0122122,0.000520952,0.268784,0.0,0.0,0.0,-1.0
18404000,18404000,-0.0246419,0.00754853,-0.000674291,0.348967,0.0,0.0,0.0,-1.0
18500000,18500000,-0.0212419,0.00700605,-0.00034221,0.415762,0.0,0.0,0.0,-1.0
18600000,18600000,-0.0176177,0.00620884,-0.000113759,0.488896,0.0,0.0,0.0,-1.0
18696000,18696000,0.00266965,-0.000852669,-0.000552286,0.552174,0.0,0.0,0.0,-1.0
18796000,18796000,0.00472772,-0.00162299,-0.000141033,0.556129,0.0,0.0,0.0,-1.0
18896000,18896000,0.00579302,0.00151728,-0.000404152,0.552815,0.0,0.0,0.0,-1.0
18996000,18996000,-0.000578613,-0.00225635,-0.00133085,0.553387,0.0,0.0,0.0,-1.0
19096000,19096000,0.00264587,0.00216373,0.000570691,0.558966,0.0,0.0,0.0,-1.0
19196000,19196000,9.45735e-05,0.00588787,0.00161637,0.557913,0.0,0.0,0.0,-1.0
19296000,19296000,0.00671513,-0.00178418,0.00190957,0.558076,0.0,0.0,0.0,-1.0
19392000,19392000,-0.00315208,0.00386215,0.000636695,0.55545,0.0,0.0,0.0,-1.0
19492000,19492000,5.16285e-05,0.00217339,-0.00043216,0.561526,0.0,0.0,0.0,-1.0
19588000,19588000,0.00192872,0.00236669,-0.00140217,0.558907,0.0,0.0,0.0,-1.0
19684000,19684000,0.00332901,0.000439965,-0.000538998,0.557939,0.0,0.0,0.0,-1.0
19784000,19784000,0.00118259,0.00751126,-0.00166457,0.557973,0.0,0.0,0.0,-1.0
19880000,19880000,0.0019816,-0.0077628,0.00164095,0.563584,0.0,0.0,0.0,-1.0
19976000,19976000,-0.00053316,-0.000813859,0.000535719,0.56088,0.0,0.0,0.0,-1.0
20076000,20076000,0.00158558,-0.00153316,0.000836344,0.555845,0.0,0.0,0.0,-1.0
20172000,20172000,0.000518714,-0.0042049,0.000878436,0.555924,0.0,0.0,0.0,-1.0
20272000,20272000,-0.00306543,-0.00259341,-0.000627328,0.561785,0.0,0.0,0.0,-1.0
20368000,20368000,0.000376069,-0.00278743,0.0012293,0.55857,0.0,0.0,0.0,-1.0
20468000,20468000,-0.00389292,-0.00166785,0.0012043,0.55554,0.0,0.0,0.0,1.0
20568000,20568000,-0.000789061,0.00198336,0.00178389,0.511855,0.0,0.0,0.0,1.0
20664000,20664000,-0.000551005,-0.00289916,-0.00143107,0.45386,0.0,0.0,0.0,1.0
20760000,20760000,-0.000379504,0.00660719,3.61471e-05,0.442704,0.0,0.0,0.0,1.0
20860000,20860000,-0.000782264,0.00187765,-0.00086369,0.444112,0.0,0.0,0.0,1.0
20960000,20960000,-0.00160309,0.00131942,-0.00213801,0.449062,0.0,0.0,0.0,1.0
21056000,21056000,0.00225383,0.0110425,-0.000502264,0.456741,0.0,0.0,0.0,1.0
21156000,21156000,0.00617501,0.00178078,0.000491701,0.453357,0.0,0.0,0.0,1.0
21256000,21256000,-0.00571054,0.00114158,-0.00112079,0.456594,0.0,0.0,0.0,1.0
21352000,21352000,0.00408833,0.00681615,0.00119882,0.457077,0.0,0.0,0.0,1.0
21448000,21448000,0.000758296,-0.00387996,0.00119291,0.467898,0.0,0.0,0.0,1.0
21548000,21548000,0.00452977,-0.00678699,0.000699535,0.466883,0.0,0.0,0.0,1.0
21644000,21644000,-0.00399473,-0.000503244,-0.000282088,0.466549,0.0,0.0,0.0,1.0
21740000,21740000,0.00684429,-0.00030083,0.00025801,0.470443,0.0,0.0,0.0,1.0
21840000,21840000,0.00309872,0.000812377,0.000619057,0.478839,0.0,0.0,0.0,1.0
21940000,21940000,0.00288988,0.00500983,0.000743407,0.477295,0.0,0.0,0.0,1.0
22040000,22040000,-0.000691438,-0.00692468,-0.000225733,0.478477,0.0,0.0,0.0,1.0
22136000,22136000,0.00146573,-0.00245569,0.00179848,0.477136,0.0,0.0,0.0,1.0
22236000,22236000,-0.00749117,-0.00150951,0.00133923,0.485271,0.0,0.0,0.0,1.0
22332000,22332000,-0.00217625,-0.00246683,-0.00331049,0.482499,0.0,0.0,0.0,1.0
22428000,22428000,-0.00236502,0.0025545,0.000933055,0.484573,0.0,0.0,0.0,1.0
22528000,22528000,0.000415571,0.000348126,0.000243362,0.483213,0.0,0.0,0.0,1.0
22624000,22624000,0.00205219,-0.00240843,0.000303857,0.491539,0.0,0.0,0.0,1.0
22720000,22720000,0.00480613,0.00312963,-0.0012094,0.48766,0.0,0.0,0.0,1.0
22820000,22820000,-0.000133487,-0.00149411,-0.000271796,0.485258,0.0,0.0,0.0,1.0
22920000,22920000,0.00568766,-0.00619865,-0.000713767,0.487129,0.0,0.0,0.0,1.0
23016000,23016000,-0.005711,0.000591574,-0.000291121,0.492978,0.0,0.0,0.0,1.0
23112000,23112000,0.00257828,0.000462847,0.000504219,0.490126,0.0,0.0,0.0,1.0
23212000,23212000,-0.000399444,-0.000565951,-0.000205808,0.489729,0.0,0.0,0.0,1.0
23312000,23312000,-0.00265042,-0.00200417,-0.000114748,0.486267,0.0,0.0,0.0,1.0
23412000,23412000,0.00399616,0.00350124,0.00112626,0.495259,0.0,0.0,0.0,1.0
23508000,23508000,-0.000715129,-0.0112467,-0.00154479,0.49036,0.0,0.0,0.0,1.0
23608000,23608000,-0.00597364,-0.00821149,-0.000361305,0.489937,0.0,0.0,0.0,1.0
23708000,23708000,0.00247819,-0.00100949,0.000133883,0.487405,0.0,0.0,0.0,1.0
23804000,23804000,-0.00130957,-0.00655656,0.00107399,0.493109,0.0,0.0,0.0,1.0
23904000,23904000,0.00110609,-0.00573163,0.000347211,0.49541,0.0,0.0,0.0,1.0
24004000,24004000,0.000561074,9.08723e-05,-5.36056e-05,0.491744,0.0,0.0,0.0,1.0
24100000,24100000,-0.000754579,-0.00240033,0.000262368,0.488838,0.0,0.0,0.0,1.0
24200000,24200000,0.000448534,-0.00586814,0.000251811,0.495997,0.0,0.0,0.0,1.0
24300000,24300000,-0.00035615,-0.00183375,-0.00141412,0.496532,0.0,0.0,0.0,1.0
24396000,24396000,-0.00101936,0.00574095,9.84689e-05,0.491412,0.0,0.0,0.0,1.0
24492000,24492000,-0.000602136,-0.00871486,0.00188656,0.488675,0.0,0.0,0.0,1.0
24588000,24588000,0.00322784,0.00135589,0.00130816,0.495843,0.0,0.0,0.0,1.0
24684000,24684000,-0.00593901,0.00280475,7.82034e-05,0.492178,0.0,0.0,0.0,1.0
24780000,24780000,0.00399587,-4.94799e-05,-0.000894986,0.489368,0.0,0.0,0.0,1.0
24876000,24876000,0.0051145,-0.00385008,-0.000799454,0.496069,0.0,0.0,0.0,1.0
24976000,24976000,0.00329963,-0.000395106,0.00178005,0.495453,0.0,0.0,0.0,1.0
25072000,25072000,0.00237261,0.000188275,0.000679975,0.491339,0.0,0.0,0.0,1.0
25168000,25168000,0.00778642,-0.00532095,6.92481e-05,0.508067,0.0,0.0,0.0,1.0
25264000,25264000,-0.00644108,-0.00152372,0.00218788,0.559134,0.0,0.0,0.0,1.0
25360000,25360000,-0.00323359,0.000530704,0.000693126,0.591146,0.0,0.0,0.0,1.0
25460000,25460000,0.00115469,0.00567272,-0.00104907,0.639729,0.0,0.0,0.0,1.0
25560000,25560000,0.00237283,-0.00476546,0.000637484,0.654137,0.0,0.0,0.0,1.0
25656000,25656000,-0.00407688,-0.00204859,0.00108664,0.655409,0.0,0.0,0.0,1.0
25752000,25752000,0.00495201,0.0044345,-0.00274552,0.609448,0.0,0.0,0.0,1.0
25848000,25848000,0.0047311,-0.000192541,-0.00235776,0.523028,0.0,0.0,0.0,1.0
25944000,25944000,0.00187575,-0.00384823,-0.00161204,0.502169,0.0,0.0,0.0,1.0
26044000,26044000,-0.00461593,-0.00244471,0.000919248,0.501194,0.0,0.0,0.0,1.0
26144000,26144000,-0.000198478,-0.00118194,0.000906679,0.500498,0.0,0.0,0.0,1.0
26244000,26244000,0.000702485,-0.00519622,0.000525519,0.497791,0.0,0.0,0.0,1.0
26340000,26340000,-0.00140656,0.00368439,-0.000295633,0.495709,0.0,0.0,0.0,1.0
26436000,26436000,0.00206313,0.00414712,0.00060451,0.494201,0.0,0.0,0.0,1.0
26536000,26536000,0.00633288,-0.00141903,0.000760394,0.493982,0.0,0.0,0.0,1.0
26632000,26632000,-0.00336636,-0.000943714,0.000374485,0.493653,0.0,0.0,0.0,1.0
26732000,26732000,0.00519679,-0.0035464,0.000874898,0.491893,0.0,0.0,0.0,1.0
26832000,26832000,-0.000571243,-0.0024112,0.000778909,0.491671,0.0,0.0,0.0,1.0
26928000,26928000,0.00219899,-0.00116786,0.000364625,0.492967,0.0,0.0,0.0,1.0
27024000,27024000,0.00392964,-0.00350807,0.000793337,0.491788,0.0,0.0,0.0,1.0
27124000,27124000,0.00493698,0.00132065,-0.000170784,0.492707,0.0,0.0,0.0,1.0
27224000,27224000,-0.0036525,-0.00397026,0.000163042,0.492487,0.0,0.0,0.0,1.0
27324000,27324000,-0.000561619,-0.000154014,-0.00131679,0.492391,0.0,0.0,0.0,1.0
27424000,27424000,-9.79731e-05,-0.00112728,0.000330964,0.493936,0.0,0.0,0.0,1.0
27524000,27524000,0.00150789,0.00919218,-0.000211117,0.495361,0.0,0.0,0.0,1.0
27624000,27624000,-0.000675219,-0.00396316,0.00120852,0.495103,0.0,0.0,0.0,1.0
27720000,27720000,-0.000852074,0.000628442,-0.000141689,0.494959,0.0,0.0,0.0,1.0
27816000,27816000,0.000481131,0.00270444,-0.000540204,0.494638,0.0,0.0,0.0,1.0
27912000,27912000,0.00194848,-0.00286514,0.00116228,0.494269,0.0,0.0,0.0,1.0
28012000,28012000,0.00370213,-0.00782762,0.0011479,0.496101,0.0,0.0,0.0,1.0
28108000,28108000,-0.0044816,0.00137832,-0.000343251,0.496224,0.0,0.0,0.0,1.0
28208000,28208000,-0.00121139,-0.00156404,0.000385957,0.495812,0.0,0.0,0.0,1.0
28304000,28304000,-0.000915956,-0.00359396,-0.00094386,0.495741,0.0,0.0,0.0,1.0
28404000,28404000,-0.00215026,0.001045,0.000148438,0.496483,0.0,0.0,0.0,1.0
28504000,28504000,0.00233797,-0.00668797,0.000736751,0.496408,0.0,0.0,0.0,1.0
28604000,28604000,-0.00149679,-0.00358991,0.000607883,0.496652,0.0,0.0,0.0,1.0
28700000,28700000,0.00250388,0.000968834,-0.000614681,0.495773,0.0,0.0,0.0,1.0
28796000,28796000,0.00128797,0.00227431,-0.000415916,0.495056,0.0,0.0,0.0,1.0
28896000,28896000,-0.00525512,5.52041e-05,-0.0016452,0.496105,0.0,0.0,0.0,1.0
28996000,28996000,-0.00419543,0.00187346,0.000491527,0.495427,0.0,0.0,0.0,1.0
29092000,29092000,-0.00165533,-0.00849504,-0.00084678,0.49547,0.0,0.0,0.0,1.0
29188000,29188000,0.00237588,-0.00349992,0.00151422,0.488462,0.0,0.0,0.0,1.0
29288000,29288000,-0.000764564,-0.000194082,-0.00110937,0.488755,0.0,0.0,0.0,1.0
29388000,29388000,0.00148673,0.0009505,-0.000940388,0.501276,0.0,0.0,0.0,1.0
29484000,29484000,0.00260097,-0.00298328,-0.00131415,0.494192,0.0,0.0,0.0,1.0
29584000,29584000,-0.00323631,-0.00174488,0.000388548,0.494772,0.0,0.0,0.0,1.0
29684000,29684000,0.00213584,0.00456814,-0.00142827,0.490942,0.0,0.0,0.0,1.0
29780000,29780000,0.00372976,-0.00020914,-0.00178682,0.506855,0.0,0.0,0.0,1.0
29876000,29876000,0.00233306,-0.00399819,0.00106207,0.498141,0.0,0.0,0.0,1.0
29976000,29976000,-0.000371968,0.00211586,-0.00217962,0.497875,0.0,0.0,0.0,1.0
30076000,30076000,-0.00126918,-0.000346886,-0.000258209,0.490354,0.0,0.0,0.0,1.0
30176000,30176000,0.00719425,0.00438462,0.00144284,0.500122,0.0,0.0,0.0,1.0
30276000,30276000,-0.000191313,0.00152577,-0.000632551,0.501404,0.0,0.0,0.0,1.0
30372000,30372000,-0.0026369,0.0103154,-0.000564188,0.496626,0.0,0.0,0.0,1.0
30472000,30472000,0.00308606,0.0030289,-0.000267551,0.489527,0.0,0.0,0.0,1.0
30572000,30572000,0.00179404,0.000350807,-0.000720124,0.489091,0.0,0.0,0.0,1.0
30672000,30672000,0.00622562,0.00102866,-0.000945478,0.501639,0.0,0.0,0.0,1.0
30772000,30772000,0.000864768,0.00723422,-0.00113159,0.495322,0.0,0.0,0.0,1.0
30872000,30872000,0.00174564,-0.00432262,-0.000537331,0.494665,0.0,0.0,0.0,1.0
30972000,30972000,0.00320047,-0.00666538,-0.000408011,0.49552,0.0,0.0,0.0,1.0
31068000,31068000,0.00127362,-0.00566524,0.000303355,0.48869,0.0,0.0,0.0,1.0
31168000,31168000,-0.00108938,-0.00647465,-0.00147481,0.501818,0.0,0.0,0.0,1.0
31268000,31268000,-0.00148415,-0.00343148,-0.00145679,0.503932,0.0,0.0,0.0,1.0
31368000,31368000,-0.0020757,-0.00124568,-0.000468676,0.494096,0.0,0.0,0.0,1.0
31464000,31464000,-0.00255899,0.00434164,-0.000208781,0.489712,0.0,0.0,0.0,1.0
31564000,31564000,-0.00332164,-0.000933143,0.000976935,0.491485,0.0,0.0,0.0,1.0
31664000,31664000,-0.00113328,0.00404,0.00115004,0.503455,0.0,0.0,0.0,1.0
31764000,31764000,-0.00311542,-0.00250254,-0.000776796,0.496466,0.0,0.0,0.0,1.0
31864000,31864000,-0.00295541,-0.00357624,-9.1561e-05,0.496606,0.0,0.0,0.0,1.0
31964000,31964000,0.00228355,-0.00658693,3.02266e-05,0.490155,0.0,0.0,0.0,1.0
32060000,32060000,-0.00332948,0.00481467,9.35045e-05,0.502528,0.0,0.0,0.0,1.0
32156000,32156000,-0.00164178,0.00286935,0.00255309,0.495752,0.0,0.0,0.0,1.0
32256000,32256000,0.000944884,0.00438929,-0.000968186,0.49483,0.0,0.0,0.0,1.0
32356000,32356000,-0.0004541,-0.00133172,0.00028906,0.490697,0.0,0.0,0.0,1.0
32456000,32456000,-0.000497357,-0.00455971,-0.0019196,0.503116,0.0,0.0,0.0,1.0
32552000,32552000,-0.00199283,-0.00219798,-0.00115914,0.502711,0.0,0.0,0.0,1.0
32652000,32652000,0.0052944,0.00203968,0.000631903,0.49596,0.0,0.0,0.0,1.0
32748000,32748000,0.00260368,-0.00289489,-0.000624218,0.491201,0.0,0.0,0.0,1.0
32848000,32848000,0.00220023,-0.00300514,-0.000767698,0.501667,0.0,0.0,0.0,1.0
32948000,32948000,0.000424328,-0.00740601,-0.00156528,0.500868,0.0,0.0,0.0,1.0
33044000,33044000,0.00116608,0.00094248,0.00137363,0.496451,0.0,0.0,0.0,1.0
33144000,33144000,-0.00356506,0.0115202,0.00079151,0.491407,0.0,0.0,0.0,1.0
33240000,33240000,0.00145666,0.0030699,0.0007004,0.502328,0.0,0.0,0.0,1.0
33336000,33336000,-0.00208411,0.00316586,0.00102614,0.501185,0.0,0.0,0.0,1.0
33432000,33432000,0.00366468,0.00711579,-0.000746959,0.497153,0.0,0.0,0.0,1.0
33528000,33528000,0.00068008,-0.00780155,0.0014491,0.489893,0.0,0.0,0.0,1.0
33628000,33628000,0.000755203,-0.00379457,-0.0012341,0.501491,0.0,0.0,0.0,1.0
33724000,33724000,0.00869427,-0.00107073,0.000525428,0.498079,0.0,0.0,0.0,1.0
33824000,33824000,-0.00733088,0.00442245,-4.28301e-05,0.49883,0.0,0.0,0.0,1.0
33924000,33924000,0.00334659,0.00477463,-0.000749882,0.491453,0.0,0.0,0.0,1.0
34024000,34024000,0.00118986,-0.00474322,-0.00164416,0.499396,0.0,0.0,0.0,1.0
34124000,34124000,-0.00197346,-0.00449036,-0.000428723,0.499864,0.0,0.0,0.0,1.0
34220000,34220000,-0.00660813,-0.000634607,0.00198442,0.497218,0.0,0.0,0.0,1.0
34316000,34316000,0.00783319,-0.0043019,-0.000312486,0.490451,0.0,0.0,0.0,1.0
34416000,34416000,-0.00514698,-0.00439511,0.0012856,0.497988,0.0,0.0,0.0,1.0
34516000,34516000,0.003579,-0.000192458,-0.000319822,0.498069,0.0,0.0,0.0,1.0
34616000,34616000,0.00106823,-0.000772652,0.000245486,0.496891,0.0,0.0,0.0,1.0
34716000,34716000,0.000628349,0.00127548,0.00143804,0.496893,0.0,0.0,0.0,1.0
34816000,34816000,-0.0014494,-0.00241102,-0.000840934,0.490432,0.0,0.0,0.0,1.0
34916000,34916000,-0.00285911,-0.00269447,-0.000104098,0.498214,0.0,0.0,0.0,1.0
35016000,35016000,0.00293985,-0.00715581,-0.000749142,0.497155,0.0,0.0,0.0,1.0
35116000,35116000,0.00334614,-0.00100887,0.00137547,0.498188,0.0,0.0,0.0,1.0
35216000,35216000,-0.00233844,0.00596119,-0.000346999,0.490326,0.0,0.0,0.0,1.0
35312000,35312000,-0.000913717,-0.00133074,-0.00134069,0.497724,0.0,0.0,0.0,1.0
35412000,35412000,-0.000128662,-0.00110582,-0.000705746,0.497804,0.0,0.0,0.0,1.0
35508000,35508000,0.00319452,-0.00448571,0.000796816,0.498146,0.0,0.0,0.0,1.0
35608000,35608000,-0.0056484,0.000248027,-0.000234245,0.492019,0.0,0.0,0.0,1.0
35708000,35708000,-0.00016179,-0.0018102,-0.000406112,0.492432,0.0,0.0,0.0,1.0
35804000,35804000,0.000752221,0.00206554,-0.000822967,0.497647,0.0,0.0,0.0,1.0
35900000,35900000,4.3685e-05,-0.00384151,0.00125605,0.497725,0.0,0.0,0.0,1.0
35996000,35996000,-0.0029634,-0.00185499,0.00112412,0.491643,0.0,0.0,0.0,1.0
36092000,36092000,-0.000322097,-0.00384552,-0.000548933,0.499993,0.0,0.0,0.0,1.0
36188000,36188000,-0.00454939,0.000531657,-0.00116964,0.498131,0.0,0.0,0.0,1.0
36284000,36284000,-0.000736007,0.00365387,-0.000902085,0.490655,0.0,0.0,0.0,1.0
36384000,36384000,-0.00475097,0.00231401,0.00106773,0.489469,0.0,0.0,0.0,1.0
36484000,36484000,-0.00412474,0.00908358,0.00114286,0.499959,0.0,0.0,0.0,1.0
36584000,36584000,-0.00144387,0.000314001,-0.000216744,0.502969,0.0,0.0,0.0,1.0
36684000,36684000,-0.00495638,0.000951025,-0.000741368,0.495366,0.0,0.0,0.0,1.0
36784000,36784000,-0.000643565,7.12042e-05,0.00035509,0.488094,0.0,0.0,0.0,1.0
36884000,36884000,0.00339446,0.00380296,0.000519772,0.489825,0.0,0.0,0.0,1.0
36980000,36980000,0.00312271,-0.00208448,-0.000978837,0.503004,0.0,0.0,0.0,1.0
37080000,37080000,0.00158739,-0.00232187,0.000194489,0.497791,0.0,0.0,0.0,1.0
37180000,37180000,0.00526732,-0.00493171,3.01784e-05,0.497015,0.0,0.0,0.0,1.0
37280000,37280000,-0.00128987,-0.00666042,-0.000893699,0.490026,0.0,0.0,0.0,1.0
37376000,37376000,0.00501005,-0.00700439,0.000282506,0.501172,0.0,0.0,0.0,1.0
37476000,37476000,-0.000277756,-0.00171526,-0.000765794,0.495305,0.0,0.0,0.0,1.0
37576000,37576000,0.00355375,0.00734178,-0.00165276,0.496701,0.0,0.0,0.0,1.0
37676000,37676000,-0.00346818,0.00198103,-0.000533822,0.488322,0.0,0.0,0.0,1.0
37776000,37776000,-0.00609591,-0.0101256,-0.000195961,0.499834,0.0,0.0,0.0,1.0
37876000,37876000,-0.00141283,-0.0028949,-0.000398078,0.499895,0.0,0.0,0.0,1.0
37972000,37972000,0.00146101,0.00213572,-0.000698171,0.492761,0.0,0.0,0.0,1.0
38072000,38072000,0.00480264,0.000287174,-0.00179024,0.487776,0.0,0.0,0.0,1.0
38168000,38168000,0.00354786,0.000316023,0.000518166,0.502266,0.0,0.0,0.0,1.0
38268000,38268000,-0.00135808,0.00184903,0.000724048,0.500941,0.0,0.0,0.0,1.0
38368000,38368000,-0.00245425,-0.00145935,0.00159484,0.493389,0.0,0.0,0.0,1.0
38468000,38468000,-0.00133969,-0.0023019,0.000209966,0.48734,0.0,0.0,0.0,1.0
38568000,38568000,-0.00155654,-0.00124961,-0.000544553,0.48812,0.0,0.0,0.0,1.0
38664000,38664000,0.000641153,0.000980474,0.000142722,0.501068,0.0,0.0,0.0,1.0
38764000,38764000,-0.000624579,0.00362258,0.000284041,0.49453,0.0,0.0,0.0,1.0
38860000,38860000,0.00116647,-0.000529034,0.000102933,0.493136,0.0,0.0,0.0,1.0
38960000,38960000,0.00311004,0.00131431,0.000113063,0.486802,0.0,0.0,0.0,1.0
39060000,39060000,0.00131726,0.00490954,0.000379619,0.500225,0.0,0.0,0.0,1.0
39160000,39160000,0.00548108,-0.00474929,-9.34879e-05,0.501777,0.0,0.0,0.0,1.0
39260000,39260000,-0.00324072,-0.00435929,0.00273215,0.494821,0.0,0.0,0.0,1.0
39360000,39360000,9.202e-05,-0.00281323,-0.000812298,0.489182,0.0,0.0,0.0,1.0
39460000,39460000,0.00585984,0.00558139,0.00124274,0.488986,0.0,0.0,0.0,1.0
39560000,39560000,-0.000805227,0.00351096,-0.000735245,0.503732,0.0,0.0,0.0,1.0
39656000,39656000,-0.00190102,-0.000291666,0.00137706,0.496429,0.0,0.0,0.0,1.0
39756000,39756000,-0.003678,-0.0029926,-2.23505e-05,0.489393,0.0,0.0,0.0,1.0
39852000,39852000,0.00126799,-7.20691e-05,0.000148045,0.488552,0.0,0.0,0.0,1.0
39952000,39952000,0.00183016,-0.00282308,-6.35741e-05,0.502003,0.0,0.0,0.0,1.0
40052000,40052000,-0.00540978,-0.000889055,-0.000676558,0.494173,0.0,0.0,0.0,1.0
40152000,40152000,0.000830288,-0.00138647,-0.000244108,0.494183,0.0,0.0,0.0,1.0
40248000,40248000,-0.00205928,-0.00510504,-1.03001e-05,0.488336,0.0,0.0,0.0,1.0
40348000,40348000,-0.00224898,0.00236924,0.00108612,0.503481,0.0,0.0,0.0,1.0
40444000,40444000,0.000814528,0.00244316,-0.000403477,0.495551,0.0,0.0,0.0,1.0
40544000,40544000,-0.00277114,0.0048152,-0.000827422,0.494859,0.0,0.0,0.0,1.0
40640000,40640000,0.00380515,0.00161012,0.000785032,0.488168,0.0,0.0,0.0,1.0
40740000,40740000,-0.0024069,-0.0015953,-1.5103e-05,0.502096,0.0,0.0,0.0,1.0
40836000,40836000,0.00239158,-0.00405244,-8.37854e-05,0.495076,0.0,0.0,0.0,1.0
40936000,40936000,-0.00190673,0.000610496,-0.00208618,0.495374,0.0,0.0,0.0,1.0
41036000,41036000,0.000617257,-0.00318915,-0.000800851,0.490629,0.0,0.0,0.0,1.0
41136000,41136000,0.000712877,0.00257672,-0.00189789,0.504418,0.0,0.0,0.0,1.0
41236000,41236000,-0.00155078,0.00718455,-0.00086197,0.504257,0.0,0.0,0.0,1.0
41336000,41336000,-0.00251837,0.00269975,-0.000823281,0.495119,0.0,0.0,0.0,1.0
41432000,41432000,0.00174934,-4.60298e-05,-0.00188618,0.490038,0.0,0.0,0.0,1.0
41532000,41532000,-0.000415136,0.00379149,-0.000210247,0.489214,0.0,0.0,0.0,1.0
41628000,41628000,0.00582077,-0.000939745,-0.000934992,0.50277,0.0,0.0,0.0,1.0
41728000,41728000,0.00166113,-0.00704843,0.000297137,0.496661,0.0,0.0,0.0,1.0
41828000,41828000,0.000213891,-0.00918562,0.00129587,0.490908,0.0,0.0,0.0,1.0
41928000,41928000,0.00381412,0.00511371,0.00101666,0.489964,0.0,0.0,0.0,1.0
42028000,42028000,0.00247784,0.00380129,0.000535877,0.502887,0.0,0.0,0.0,1.0
42124000,42124000,-0.00377226,0.00119141,0.00302294,0.495326,0.0,0.0,0.0,1.0
42224000,42224000,-0.00147665,-0.000798842,0.000146441,0.464075,0.0,0.0,0.0,1.0
42320000,42320000,-0.00127902,0.00829701,0.000109315,0.447815,0.0,0.0,0.0,1.0
42420000,42420000,0.00461407,0.00242053,-0.000987405,0.458686,0.0,0.0,0.0,1.0
42520000,42520000,-0.00109311,-0.000623536,-0.000528645,0.456252,0.0,0.0,0.0,1.0
42620000,42620000,-0.00146925,0.00258787,-0.000194741,0.449548,0.0,0.0,0.0,1.0
42720000,42720000,0.00168625,0.00133785,-0.00212142,0.446846,0.0,0.0,0.0,1.0
42820000,42820000,0.0042285,-0.00783823,0.000117476,0.449775,0.0,0.0,0.0,1.0
42916000,42916000,0.00174134,-0.00388368,0.00116993,0.459355,0.0,0.0,0.0,1.0
43012000,43012000,-0.00102298,-0.00517168,0.000579689,0.455151,0.0,0.0,0.0,1.0
43112000,43112000,0.00480399,0.00239974,-0.000976845,0.45179,0.0,0.0,0.0,1.0
43212000,43212000,0.00357362,0.00189924,-0.00188552,0.453164,0.0,0.0,0.0,1.0
43312000,43312000,-0.00196745,0.000188057,0.000727918,0.459428,0.0,0.0,0.0,1.0
43408000,43408000,-0.0053337,0.001151,-0.00189927,0.45727,0.0,0.0,0.0,1.0
43508000,43508000,-0.000134008,0.00725635,-0.000704868,0.461476,0.0,0.0,0.0,1.0
43604000,43604000,0.00283986,-0.00213035,0.00109253,0.459775,0.0,0.0,0.0,1.0
43704000,43704000,-0.00378762,0.00376895,1.49103e-05,0.465597,0.0,0.0,0.0,1.0
43804000,43804000,-0.000209732,0.000972229,-0.00238147,0.467033,0.0,0.0,0.0,1.0
43900000,43900000,-0.00045563,-0.0032251,-0.00139009,0.467918,0.0,0.0,0.0,1.0
43996000,43996000,0.00237984,0.0078438,-0.000686338,0.467534,0.0,0.0,0.0,1.0
44096000,44096000,-0.00638335,0.000941843,-0.000175497,0.472212,0.0,0.0,0.0,1.0
44196000,44196000,-0.00869921,0.00204171,-0.00295671,0.469947,0.0,0.0,0.0,1.0
44296000,44296000,-0.00104819,-0.00968495,-0.00190812,0.471631,0.0,0.0,0.0,1.0
44396000,44396000,0.000860584,-0.00305638,-0.000524143,0.469211,0.0,0.0,0.0,1.0
44496000,44496000,0.00222641,0.00417618,-0.00127512,0.474681,0.0,0.0,0.0,1.0
44592000,44592000,-0.000740926,-0.00611058,-0.00143836,0.473631,0.0,0.0,0.0,1.0
44692000,44692000,0.00612644,-0.00692365,-0.00104517,0.470419,0.0,0.0,0.0,1.0
44792000,44792000,-0.0080044,0.00615945,6.61676e-05,0.469974,0.0,0.0,0.0,1.0
44892000,44892000,-0.00328035,0.0071458,0.000849687,0.470818,0.0,0.0,0.0,1.0
44992000,44992000,0.00495331,0.00205195,-0.00222658,0.474091,0.0,0.0,0.0,1.0
45092000,45092000,-0.000415849,-0.00509766,-0.00054509,0.475195,0.0,0.0,0.0,1.0
45188000,45188000,-0.00120056,-0.0109959,-3.85533e-05,0.473796,0.0,0.0,0.0,1.0
45288000,45288000,-0.00167105,0.00159237,-0.00229673,0.472958,0.0,0.0,0.0,1.0
45388000,45388000,-0.00254139,0.00253342,2.38467e-05,0.478912,0.0,0.0,0.0,1.0
45488000,45488000,0.00175321,-0.00101195,0.000179226,0.478349,0.0,0.0,0.0,1.0
45588000,45588000,0.00073661,-0.0150973,-0.000589814,0.477014,0.0,0.0,0.0,1.0
45684000,45684000,-0.00253438,0.00350174,-0.000195265,0.475448,0.0,0.0,0.0,1.0
45784000,45784000,0.00434774,-0.000757657,-0.000222159,0.477687,0.0,0.0,0.0,1.0
45884000,45884000,-0.00490532,-0.0040608,-0.000446742,0.478915,0.0,0.0,0.0,1.0
45980000,45980000,0.00362102,0.00252811,0.00056561,0.481019,0.0,0.0,0.0,1.0
46080000,46080000,-0.00226949,0.000702386,0.000261315,0.479107,0.0,0.0,0.0,1.0
46180000,46180000,-0.00048685,0.00267063,-0.000331103,0.479157,0.0,0.0,0.0,1.0
46276000,46276000,0.00475102,-0.00478477,-0.000747602,0.48089,0.0,0.0,0.0,1.0
46376000,46376000,-0.00108071,0.000467037,-0.000163248,0.480941,0.0,0.0,0.0,1.0
46476000,46476000,-2.977e-05,0.00196489,0.00274112,0.479277,0.0,0.0,0.0,1.0
46576000,46576000,-0.00501452,0.00395043,-4.03491e-05,0.478974,0.0,0.0,0.0,1.0
46676000,46676000,-0.00148071,0.00713006,-0.000494084,0.480179,0.0,0.0,0.0,1.0
46772000,46772000,-0.00094642,0.00577087,-0.000374419,0.48023,0.0,0.0,0.0,1.0
46872000,46872000,-0.00127325,0.00540723,-0.000679967,0.482122,0.0,0.0,0.0,1.0
46968000,46968000,0.00186565,-0.000160281,0.000121567,0.480345,0.0,0.0,0.0,1.0
47068000,47068000,0.00172512,-0.00481131,0.000952628,0.481623,0.0,0.0,0.0,1.0
47164000,47164000,-0.00183916,-0.00167461,0.000255917,0.479705,0.0,0.0,0.0,1.0
47260000,47260000,-0.00353521,0.00864767,-0.000170397,0.481477,0.0,0.0,0.0,1.0
47360000,47360000,0.00348119,0.0046603,-3.34047e-05,0.478161,0.0,0.0,0.0,1.0
47460000,47460000,0.00558411,-0.0117086,-0.000478996,0.47919,0.0,0.0,0.0,1.0
47556000,47556000,-0.00276351,-0.00138041,-0.000447809,0.480517,0.0,0.0,0.0,1.0
47652000,47652000,-0.00545409,0.00494401,-0.000762308,0.481683,0.0,0.0,0.0,1.0
47752000,47752000,0.00406063,-0.00168934,-0.000775652,0.481422,0.0,0.0,0.0,1.0
47852000,47852000,-0.00157321,0.00332383,-0.00100764,0.483687,0.0,0.0,0.0,1.0
47952000,47952000,0.00390715,-0.00126651,3.84763e-05,0.482185,0.0,0.0,0.0,1.0
48052000,48052000,-0.000342302,0.00112719,-0.000106053,0.484079,0.0,0.0,0.0,1.0
48148000,48148000,0.00319871,-0.00123693,-0.000617096,0.483088,0.0,0.0,0.0,1.0
48244000,48244000,-0.0014399,0.00424471,-0.000115513,0.486011,0.0,0.0,0.0,1.0
48344000,48344000,0.00481185,-0.0008847,0.00139058,0.48533,0.0,0.0,0.0,1.0
48444000,48444000,-0.00210917,-0.00513877,-0.000147853,0.484506,0.0,0.0,0.0,1.0
48540000,48540000,-0.00250426,-0.00306752,9.60433e-05,0.484388,0.0,0.0,0.0,1.0
48640000,48640000,-0.00161924,0.00221231,-0.000997701,0.485664,0.0,0.0,0.0,1.0
48740000,48740000,0.00770511,0.00472198,-0.000717277,0.485318,0.0,0.0,0.0,1.0
48840000,48840000,-0.00389655,-0.00133165,0.000742267,0.483766,0.0,0.0,0.0,1.0
48940000,48940000,-0.000102084,0.00391188,0.000959323,0.484388,0.0,0.0,0.0,1.0
49040000,49040000,0.00089986,0.00498784,-0.000785451,0.482973,0.0,0.0,0.0,1.0
49136000,49136000,0.000504557,-0.00134358,0.00100906,0.485889,0.0,0.0,0.0,1.0
49236000,49236000,-0.00684847,0.0017663,-0.000401497,0.486005,0.0,0.0,0.0,1.0
49336000,49336000,-0.00153787,-0.00393811,-0.0012478,0.486396,0.0,0.0,0.0,1.0
49432000,49432000,-0.000957438,-0.00341183,-0.00202238,0.484536,0.0,0.0,0.0,1.0
49532000,49532000,0.00273682,-0.00187696,-0.00036182,0.487423,0.0,0.0,0.0,1.0
49632000,49632000,0.00656938,-0.000365766,-0.0012735,0.488426,0.0,0.0,0.0,1.0
49728000,49728000,-0.00110086,0.00388473,0.000319201,0.487069,0.0,0.0,0.0,1.0
49828000,49828000,-0.00738722,0.00316879,0.000231505,0.487292,0.0,0.0,0.0,1.0
49928000,49928000,-0.00311118,-0.00379272,0.0015781,0.486838,0.0,0.0,0.0,1.0
50028000,50028000,-0.00154455,0.00109013,-0.00190316,0.48758,0.0,0.0,0.0,1.0
50128000,50128000,-0.00146455,-0.00801456,-0.000381141,0.4856,0.0,0.0,0.0,1.0
50224000,50224000,-0.000696299,0.00750632,1.43626e-05,0.486951,0.0,0.0,0.0,1.0
50324000,50324000,0.00142708,0.0106567,-0.000714259,0.48764,0.0,0.0,0.0,1.0
50424000,50424000,-0.00253302,0.00857914,0.00037596,0.488074,0.0,0.0,0.0,1.0
50524000,50524000,0.00598285,0.00721698,0.00028608,0.487644,0.0,0.0,0.0,1.0
50624000,50624000,-0.000161005,0.00244301,-0.000151315,0.488527,0.0,0.0,0.0,1.0
50724000,50724000,0.00363793,-0.001799,0.000818608,0.486482,0.0,0.0,0.0,1.0
50824000,50824000,-0.000781895,-0.00220972,-6.0572e-05,0.487481,0.0,0.0,0.0,1.0
50924000,50924000,0.00289627,0.00707563,-0.000441916,0.488032,0.0,0.0,0.0,1.0
51024000,51024000,-0.00166263,0.00907945,0.000634954,0.487935,0.0,0.0,0.0,1.0
51124000,51124000,0.0020244,0.00858633,-0.000724328,0.486264,0.0,0.0,0.0,1.0
51220000,51220000,0.000470187,0.00851331,-0.00173527,0.487488,0.0,0.0,0.0,1.0
51316000,51316000,0.00607435,0.00292685,0.00108289,0.488641,0.0,0.0,0.0,1.0
51416000,51416000,0.000656874,0.00415883,-0.000541785,0.487753,0.0,0.0,0.0,1.0
51512000,51512000,-0.0029577,-0.00047732,-0.000777112,0.487491,0.0,0.0,0.0,1.0
51612000,51612000,-0.000485038,0.00660497,4.20843e-05,0.487309,0.0,0.0,0.0,1.0
51712000,51712000,0.000417012,0.00532312,-0.000442444,0.487273,0.0,0.0,0.0,1.0
51812000,51812000,-0.00031432,0.01202,0.00011534,0.487413,0.0,0.0,0.0,1.0
51908000,51908000,0.000325858,-0.00538057,-0.00067676,0.487377,0.0,0.0,0.0,1.0
52008000,52008000,0.000446248,0.00470744,-0.00102299,0.487813,0.0,0.0,0.0,1.0
52108000,52108000,-0.00227892,-0.00182932,-0.000586003,0.487924,0.0,0.0,0.0,1.0
52208000,52208000,0.00143815,-0.0130065,0.00150193,0.488743,0.0,0.0,0.0,1.0
52308000,52308000,0.000999289,-0.00157201,-0.000790235,0.487865,0.0,0.0,0.0,1.0
52404000,52404000,-0.00308344,0.0118658,-0.00180474,0.488527,0.0,0.0,0.0,1.0
52504000,52504000,-0.00372283,0.00356182,-0.000597058,0.488208,0.0,0.0,0.0,1.0
52604000,52604000,0.00297287,-0.00705657,-0.00240428,0.490444,0.0,0.0,0.0,1.0
52704000,52704000,0.00606493,-0.00480661,0.00121831,0.488737,0.0,0.0,0.0,1.0
52804000,52804000,-0.00365528,-0.00200524,-0.000704556,0.488785,0.0,0.0,0.0,1.0
52900000,52900000,-0.00523693,0.00134312,-0.000311836,0.487327,0.0,0.0,0.0,1.0
53000000,53000000,-0.00125401,0.0342208,-0.00353975,0.120064,0.0,0.0,0.0,1.0
53096000,53096000,0.00512929,-0.0102448,-0.00466505,0.120033,0.0,0.0,0.0,1.0
53196000,53196000,-0.00334536,0.00118159,-0.00222821,0.440791,0.0,0.0,0.0,1.0
53292000,53292000,-0.0013376,-0.00204052,-0.00119955,0.489652,0.0,0.0,0.0,1.0
53392000,53392000,-0.00115506,-0.000921228,0.00133257,0.486962,0.0,0.0,0.0,1.0
53492000,53492000,0.00391321,5.29967e-05,-0.000617782,0.486071,0.0,0.0,0.0,1.0
53588000,53588000,-0.00654123,0.00638674,0.00289969,0.486535,0.0,0.0,0.0,1.0
53684000,53684000,-0.00284051,-0.00102769,0.00280187,0.487058,0.0,0.0,0.0,1.0
53784000,53784000,-0.00261622,-0.00469969,0.00260831,0.488361,0.0,0.0,0.0,1.0
53884000,53884000,-0.000230622,-0.00260583,0.000398518,0.489655,0.0,0.0,0.0,1.0
53984000,53984000,0.00159555,-0.00831743,0.000894144,0.489891,0.0,0.0,0.0,1.0
54080000,54080000,0.00120814,-0.00122021,0.00116418,0.488942,0.0,0.0,0.0,1.0
54176000,54176000,-0.00652198,-0.00147767,-0.000942377,0.488671,0.0,0.0,0.0,1.0
54276000,54276000,0.00307032,0.00449633,0.00185307,0.489342,0.0,0.0,0.0,1.0
54376000,54376000,0.00142319,0.00369315,-0.000383654,0.4894,0.0,0.0,0.0,1.0
54472000,54472000,0.00406516,0.00479172,-0.000975268,0.489338,0.0,0.0,0.0,1.0
54568000,54568000,-0.000729159,-0.000610775,5.67559e-05,0.489814,0.0,0.0,0.0,1.0
54668000,54668000,-0.0065269,-0.00332894,-0.00106272,0.490566,0.0,0.0,0.0,1.0
54768000,54768000,-0.00242408,-0.000737038,-1.54427e-05,0.489739,0.0,0.0,0.0,1.0
54868000,54868000,0.00185769,-0.00186688,-0.00208792,0.48991,0.0,0.0,0.0,1.0
54964000,54964000,0.00331164,-0.0101185,0.000180967,0.491126,0.0,0.0,0.0,1.0
55064000,55064000,0.00228636,-0.00370829,-8.90819e-05,0.491125,0.0,0.0,0.0,1.0
55164000,55164000,-0.00626967,0.00590329,0.00182617,0.49064,0.0,0.0,0.0,1.0
55264000,55264000,0.00273009,0.0035571,-0.000890278,0.490822,0.0,0.0,0.0,1.0
55360000,55360000,-0.000579479,-0.00389233,-0.00153634,0.490753,0.0,0.0,0.0,1.0
55460000,55460000,0.00260533,-0.00166807,0.000552565,0.491039,0.0,0.0,0.0,1.0
55560000,55560000,5.23704e-05,0.00252665,-0.000303369,0.490703,0.0,0.0,0.0,1.0
55656000,55656000,-0.00212517,-0.00365301,0.000217776,0.490837,0.0,0.0,0.0,1.0
55756000,55756000,-0.000937502,0.000823133,-0.000389931,0.489985,0.0,0.0,0.0,1.0
55856000,55856000,0.00163874,-0.00359235,0.000134883,0.490063,0.0,0.0,0.0,1.0
55956000,55956000,0.00102726,0.00221491,-0.000816391,0.490216,0.0,0.0,0.0,1.0
56056000,56056000,0.000693446,0.00372454,0.000252001,0.490039,0.0,0.0,0.0,1.0
56152000,56152000,-0.00246965,0.00242644,-3.8278e-05,0.490835,0.0,0.0,0.0,1.0
56248000,56248000,0.00348499,0.00200121,5.41481e-05,0.49003,0.0,0.0,0.0,1.0
56348000,56348000,-0.000410068,-0.0023919,-0.000978536,0.489781,0.0,0.0,0.0,1.0
56444000,56444000,0.00168175,0.00310374,0.00121899,0.490056,0.0,0.0,0.0,1.0
56540000,56540000,-0.0031171,0.00199428,0.00021199,0.4894,0.0,0.0,0.0,1.0
56636000,56636000,-0.00449956,-0.00396929,-0.00135304,0.489264,0.0,0.0,0.0,1.0
56732000,56732000,0.000745129,0.00828915,-0.000930464,0.489734,0.0,0.0,0.0,1.0
56832000,56832000,0.00268234,0.00185185,-0.000492502,0.489595,0.0,0.0,0.0,1.0
56928000,56928000,0.00139233,-0.000202072,5.0282e-05,0.490196,0.0,0.0,0.0,1.0
57028000,57028000,0.00342145,-0.0037253,-0.000479654,0.490227,0.0,0.0,0.0,1.0
57124000,57124000,0.00296591,0.00419449,-0.000397285,0.489985,0.0,0.0,0.0,1.0
57224000,57224000,-0.00213435,-0.00273544,0.000435662,0.489469,0.0,0.0,0.0,1.0
57320000,57320000,-0.00307138,-0.00322124,0.00129637,0.489807,0.0,0.0,0.0,1.0
57420000,57420000,-0.000979099,0.00345421,-0.0014918,0.4895,0.0,0.0,0.0,1.0
57516000,57516000,0.00282733,-0.0029779,-0.000539505,0.489762,0.0,0.0,0.0,1.0
57616000,57616000,-0.00224241,-0.00708591,-0.000202067,0.48888,0.0,0.0,0.0,1.0
57716000,57716000,0.000175124,-0.00306894,0.000781632,0.48936,0.0,0.0,0.0,1.0
57812000,57812000,0.00354118,-0.00114084,-0.000198677,0.490828,0.0,0.0,0.0,1.0
57908000,57908000,0.00481525,-0.00369876,9.43509e-06,0.488986,0.0,0.0,0.0,1.0
58004000,58004000,-0.00521695,0.0016663,0.000465449,0.489905,0.0,0.0,0.0,1.0
58104000,58104000,0.00173375,0.00387854,-0.000418786,0.491452,0.0,0.0,0.0,1.0
58204000,58204000,0.00111513,-0.000777329,-0.0020819,0.490502,0.0,0.0,0.0,1.0
58300000,58300000,-0.00504888,-0.00735247,0.000849796,0.48997,0.0,0.0,0.0,1.0
58400000,58400000,0.00229134,-0.00372803,-0.000519782,0.490328,0.0,0.0,0.0,1.0
58500000,58500000,-0.0044005,-0.00400162,0.00123853,0.489024,0.0,0.0,0.0,1.0
58600000,58600000,-0.000430616,-0.000295298,-0.000345463,0.489958,0.0,0.0,0.0,1.0
58700000,58700000,0.00172289,0.00163002,0.000526712,0.489886,0.0,0.0,0.0,1.0
58796000,58796000,-0.00298666,0.00165511,-0.00194703,0.489771,0.0,0.0,0.0,1.0
58896000,58896000,0.0039087,0.000223711,-0.000236033,0.489627,0.0,0.0,0.0,1.0
58996000,58996000,0.00148497,0.00435221,0.000724468,0.490516,0.0,0.0,0.0,1.0
59096000,59096000,-0.000356094,-0.00112508,-0.000436798,0.490295,0.0,0.0,0.0,1.0
59196000,59196000,0.00576537,-0.00374667,-0.0010255,0.490107,0.0,0.0,0.0,1.0
59296000,59296000,-0.00156225,-0.0048587,0.00144231,0.489352,0.0,0.0,0.0,1.0
59396000,59396000,-0.0040142,-0.00277007,0.00181049,0.489524,0.0,0.0,0.0,1.0
59496000,59496000,-0.00337252,0.00949286,0.000986884,0.489582,0.0,0.0,0.0,1.0
59592000,59592000,0.00248131,0.000576774,-0.000921197,0.490443,0.0,0.0,0.0,1.0
59692000,59692000,0.00113171,-0.000556803,0.00177879,0.490564,0.0,0.0,0.0,1.0
59788000,59788000,0.000773786,-0.00984674,1.5278e-05,0.49021,0.0,0.0,0.0,1.0
59888000,59888000,-0.00259389,-0.00535716,0.000737604,0.490135,0.0,0.0,0.0,1.0
59984000,59984000,-0.00195929,0.00331704,0.000128266,0.489484,0.0,0.0,0.0,1.0
60084000,60084000,-0.00610252,-0.000157601,0.00108893,0.489287,0.0,0.0,0.0,1.0
60184000,60184000,-0.00356193,0.000442761,-0.000293097,0.49004,0.0,0.0,0.0,1.0
60284000,60284000,0.00223048,-0.00218478,0.000799343,0.48979,0.0,0.0,0.0,1.0
60384000,60384000,-0.000316926,-0.000397639,0.000301385,0.488969,0.0,0.0,0.0,1.0
60484000,60484000,-0.0011987,0.00444604,0.000420506,0.488689,0.0,0.0,0.0,1.0
60584000,60584000,0.00057319,0.00679419,-2.04843e-05,0.489094,0.0,0.0,0.0,1.0
60680000,60680000,-0.00450166,-0.00200179,-0.00108994,0.489601,0.0,0.0,0.0,1.0
60780000,60780000,-0.00367484,-0.010301,-0.00258195,0.489972,0.0,0.0,0.0,1.0
60880000,60880000,0.000659177,0.00128462,-5.81219e-05,0.488481,0.0,0.0,0.0,1.0
60976000,60976000,-0.00347565,0.00351051,-0.00151174,0.489573,0.0,0.0,0.0,1.0
61076000,61076000,0.00404613,0.00685946,0.00076234,0.489765,0.0,0.0,0.0,1.0
61176000,61176000,-0.00285145,-0.000522901,-0.000583493,0.489184,0.0,0.0,0.0,1.0
61276000,61276000,-0.00145821,0.00201535,0.000664409,0.489616,0.0,0.0,0.0,1.0
61376000,61376000,0.000235901,0.000246481,7.989e-05,0.489574,0.0,0.0,0.0,1.0
61476000,61476000,0.000209799,-0.000394183,0.00012124,0.489018,0.0,0.0,0.0,1.0
61572000,61572000,-0.00452834,0.00218159,-0.000681735,0.488888,0.0,0.0,0.0,1.0
61672000,61672000,0.000650892,0.00326808,0.000575653,0.488697,0.0,0.0,0.0,1.0
61768000,61768000,-0.00761852,-0.000989137,7.27146e-05,0.488604,0.0,0.0,0.0,1.0
61868000,61868000,0.00762843,-0.00438717,0.000343545,0.489383,0.0,0.0,0.0,1.0
61964000,61964000,-0.00326155,-0.00366833,-0.00061156,0.489723,0.0,0.0,0.0,1.0
62064000,62064000,-0.00444258,-0.00648773,0.000247324,0.48914,0.0,0.0,0.0,1.0
62160000,62160000,0.000802815,0.00189303,-0.00180729,0.489043,0.0,0.0,0.0,1.0
62260000,62260000,-0.00408138,0.00430584,0.00153925,0.489565,0.0,0.0,0.0,1.0
62360000,62360000,0.0029032,0.00563315,-0.000429354,0.4897,0.0,0.0,0.0,1.0
62460000,62460000,0.00181744,-0.0013078,0.00159126,0.48927,0.0,0.0,0.0,1.0
62560000,62560000,-0.000345357,0.00382159,-0.00339368,0.489285,0.0,0.0,0.0,1.0
62660000,62660000,0.00224284,0.00447581,0.000750794,0.489581,0.0,0.0,0.0,1.0
62760000,62760000,-0.00491066,0.00121726,-0.000425859,0.490192,0.0,0.0,0.0,1.0
62860000,62860000,-0.000856127,0.00188406,0.000515848,0.489841,0.0,0.0,0.0,1.0
62960000,62960000,-0.00477009,0.0036144,0.00126577,0.489425,0.0,0.0,0.0,1.0
63060000,63060000,-0.000225505,0.00436465,-6.12412e-05,0.489249,0.0,0.0,0.0,1.0
63160000,63160000,0.00289063,0.000339911,-0.000254208,0.489907,0.0,0.0,0.0,1.0
63260000,63260000,0.00156363,0.000878243,0.000668289,0.48936,0.0,0.0,0.0,1.0
63356000,63356000,0.000961015,0.000391686,0.000167051,0.489301,0.0,0.0,0.0,1.0
63452000,63452000,-0.00331085,0.00145047,0.000106333,0.489283,0.0,0.0,0.0,1.0
63548000,63548000,-0.000347329,0.000917941,0.000876448,0.489476,0.0,0.0,0.0,1.0
63648000,63648000,0.00153703,-0.00792939,-0.00133578,0.489999,0.0,0.0,0.0,1.0
63744000,63744000,0.00642552,0.00211912,0.000173709,0.489857,0.0,0.0,0.0,1.0
63844000,63844000,0.00327526,0.00393536,-0.00225117,0.488929,0.0,0.0,0.0,1.0
63944000,63944000,-0.00234848,0.00229389,2.33987e-05,0.48958,0.0,0.0,0.0,1.0
64040000,64040000,-0.00547005,0.00483776,0.000205604,0.489474,0.0,0.0,0.0,1.0
64140000,64140000,-0.000986981,-0.00132568,-0.000964689,0.489722,0.0,0.0,0.0,1.0
64240000,64240000,-0.00236029,-0.00382609,0.000101947,0.489004,0.0,0.0,0.0,1.0
64336000,64336000,0.000912508,-0.00528152,-0.00123407,0.489583,0.0,0.0,0.0,1.0
64436000,64436000,0.0031235,-0.00196362,-0.000525085,0.489899,0.0,0.0,0.0,1.0
64536000,64536000,0.00333369,0.0013642,-0.000127574,0.489278,0.0,0.0,0.0,1.0
64636000,64636000,-0.0016348,0.000949459,4.89027e-05,0.488875,0.0,0.0,0.0,1.0
64732000,64732000,-0.00282597,0.011115,0.000602402,0.489398,0.0,0.0,0.0,1.0
64832000,64832000,-0.000951099,0.0071303,0.00113672,0.490554,0.0,0.0,0.0,1.0
64928000,64928000,-0.0028053,-0.00344041,0.00055924,0.490067,0.0,0.0,0.0,1.0
65024000,65024000,0.0017054,0.00279758,1.1958e-05,0.489583,0.0,0.0,0.0,1.0
65124000,65124000,-0.00284503,-0.00501739,0.00127991,0.489816,0.0,0.0,0.0,1.0
65224000,65224000,0.000982329,0.0012619,-0.000301119,0.489913,0.0,0.0,0.0,1.0
65324000,65324000,-0.0011805,-0.00389691,0.000672345,0.489187,0.0,0.0,0.0,1.0
65424000,65424000,0.00252668,-0.00344619,0.000129449,0.490209,0.0,0.0,0.0,1.0
65524000,65524000,0.00178042,0.00011155,0.000729392,0.490025,0.0,0.0,0.0,1.0
65620000,65620000,0.00309655,-0.000304625,0.00162431,0.490335,0.0,0.0,0.0,1.0
65720000,65720000,-0.00832464,-0.0064006,0.000402754,0.489189,0.0,0.0,0.0,1.0
65816000,65816000,-0.0018858,-0.000567133,-0.00134798,0.489333,0.0,0.0,0.0,1.0
65912000,65912000,-0.00130646,-0.00601236,-0.00236283,0.489988,0.0,0.0,0.0,1.0
66012000,66012000,-0.00671551,-0.00407511,-0.000777925,0.489614,0.0,0.0,0.0,1.0
66108000,66108000,0.000252586,-0.00169295,0.001246,0.48985,0.0,0.0,0.0,1.0
66204000,66204000,0.0019948,-0.00310003,-5.55015e-05,0.490075,0.0,0.0,0.0,1.0
66304000,66304000,-0.00263159,0.00487654,-0.0015682,0.489602,0.0,0.0,0.0,1.0
66404000,66404000,0.000577226,0.00206932,0.000992478,0.489522,0.0,0.0,0.0,1.0
66500000,66500000,0.00378496,-0.00171519,-0.000599112,0.489608,0.0,0.0,0.0,1.0
66596000,66596000,-0.000468912,-0.000431496,0.000838995,0.489449,0.0,0.0,0.0,1.0
66696000,66696000,0.00170134,0.00502199,0.000604821,0.489295,0.0,0.0,0.0,1.0
66792000,66792000,-0.00105114,0.00434543,-0.000166252,0.490256,0.0,0.0,0.0,1.0
66888000,66888000,-0.00424121,-0.00242225,0.000233524,0.489509,0.0,0.0,0.0,1.0
66984000,66984000,-0.000414038,0.00188643,-0.00168287,0.489122,0.0,0.0,0.0,1.0
67084000,67084000,-0.00189869,-0.00332268,-0.000601104,0.489621,0.0,0.0,0.0,1.0
67184000,67184000,0.00384338,-0.00625368,0.00111275,0.489264,0.0,0.0,0.0,1.0
67280000,67280000,0.000182025,-0.00515245,-0.000126276,0.489307,0.0,0.0,0.0,1.0
67380000,67380000,0.000375048,0.0049847,-0.000978915,0.489618,0.0,0.0,0.0,1.0
67476000,67476000,0.000262431,-0.0058983,0.000609979,0.489689,0.0,0.0,0.0,1.0
67572000,67572000,-0.000574733,6.80713e-05,0.000370771,0.490411,0.0,0.0,0.0,1.0
67668000,67668000,-0.000166212,-0.00307698,0.00147601,0.489507,0.0,0.0,0.0,1.0
67768000,67768000,0.0016573,0.00822705,0.00142525,0.490667,0.0,0.0,0.0,1.0
67868000,67868000,-0.00206963,0.000828167,0.000746637,0.489531,0.0,0.0,0.0,1.0
67968000,67968000,0.00283909,-0.00497528,0.0010782,0.489708,0.0,0.0,0.0,1.0
68064000,68064000,0.0012983,-0.00342423,-0.000684215,0.489454,0.0,0.0,0.0,1.0
68164000,68164000,0.0022603,-0.000241673,-0.00136917,0.489613,0.0,0.0,0.0,1.0
68260000,68260000,0.00217194,-0.00125396,-0.000506795,0.490001,0.0,0.0,0.0,1.0
68360000,68360000,0.00129317,-0.00101699,0.000648325,0.488846,0.0,0.0,0.0,1.0
68456000,68456000,0.00425947,0.000805009,-0.00166648,0.489155,0.0,0.0,0.0,1.0
68552000,68552000,0.00202026,-0.00574353,0.00139746,0.489219,0.0,0.0,0.0,1.0
68652000,68652000,0.00252513,-0.00242304,0.000551447,0.489471,0.0,0.0,0.0,1.0
68752000,68752000,-0.00478859,-7.01522e-05,0.00120025,0.489805,0.0,0.0,0.0,1.0
68852000,68852000,0.00375912,0.00169243,3.24306e-06,0.489062,0.0,0.0,0.0,1.0
68952000,68952000,-0.0034594,0.00248141,7.57892e-05,0.489661,0.0,0.0,0.0,1.0
69052000,69052000,0.00244437,0.00180511,-0.00040506,0.48912,0.0,0.0,0.0,1.0
69152000,69152000,-0.000779321,0.000658694,0.000622506,0.489569,0.0,0.0,0.0,1.0
69248000,69248000,-0.00219368,0.0017753,-0.000137826,0.488783,0.0,0.0,0.0,1.0
69348000,69348000,0.00317795,0.00640663,-0.000244673,0.489437,0.0,0.0,0.0,1.0
69448000,69448000,-0.000257766,0.00345273,0.00222525,0.489594,0.0,0.0,0.0,1.0
69548000,69548000,0.000208035,-0.00263441,0.0017829,0.488993,0.0,0.0,0.0,1.0
69648000,69648000,0.00590587,0.00371582,0.00233486,0.489583,0.0,0.0,0.0,1.0
69744000,69744000,0.000495257,0.00291443,0.00101368,0.488651,0.0,0.0,0.0,1.0
69844000,69844000,-0.00452226,0.00401198,0.000282,0.489744,0.0,0.0,0.0,1.0
69944000,69944000,-0.000247346,-0.000823527,-0.00118252,0.489918,0.0,0.0,0.0,1.0
70040000,70040000,-0.00129295,0.00117368,0.000769711,0.490156,0.0,0.0,0.0,1.0
70136000,70136000,0.00246059,0.00200691,-5.39376e-05,0.489745,0.0,0.0,0.0,1.0
70232000,70232000,0.0022082,0.00434947,-0.00139356,0.490249,0.0,0.0,0.0,1.0
70332000,70332000,0.00489098,-0.00891996,-0.00130529,0.489938,0.0,0.0,0.0,1.0
70432000,70432000,-0.00510935,-0.0023923,-0.00122658,0.489302,0.0,0.0,0.0,1.0
70532000,70532000,-0.00228591,-0.000963841,-0.000246096,0.48896,0.0,0.0,0.0,1.0
70632000,70632000,-0.00537074,-0.00482229,-0.000702746,0.4904,0.0,0.0,0.0,1.0
70732000,70732000,0.00181508,-0.000242108,-0.000721711,0.49098,0.0,0.0,0.0,1.0
70832000,70832000,-0.000433971,0.00377365,0.000628304,0.489651,0.0,0.0,0.0,1.0
70932000,70932000,-0.000755856,0.00520869,-0.00213509,0.489296,0.0,0.0,0.0,1.0
71032000,71032000,0.00658791,-0.000769762,0.000563129,0.489623,0.0,0.0,0.0,1.0
71132000,71132000,-0.000540973,0.00484999,-0.00175127,0.489117,0.0,0.0,0.0,1.0
71228000,71228000,0.00164744,0.00472442,0.00139134,0.48933,0.0,0.0,0.0,1.0
71324000,71324000,0.00544279,-0.00347694,-0.000833976,0.489078,0.0,0.0,0.0,1.0
71420000,71420000,-0.00470491,-0.00424395,0.000422717,0.490125,0.0,0.0,0.0,1.0
71520000,71520000,0.00118788,-0.000376594,-0.00147154,0.489802,0.0,0.0,0.0,1.0
71620000,71620000,0.000550595,0.0062561,0.000730494,0.489727,0.0,0.0,0.0,1.0
71716000,71716000,-0.00240306,0.000328178,0.000811836,0.489109,0.0,0.0,0.0,1.0
71816000,71816000,0.000576106,0.00219279,-0.00162141,0.489677,0.0,0.0,0.0,1.0
71912000,71912000,0.0027144,0.00050763,-0.000830023,0.489869,0.0,0.0,0.0,1.0
72008000,72008000,-0.00120863,0.00143075,0.00133024,0.489703,0.0,0.0,0.0,1.0
72104000,72104000,0.0041591,-0.00309757,0.000283877,0.488829,0.0,0.0,0.0,1.0
72200000,72200000,-0.00278757,0.00533695,-0.00139295,0.489229,0.0,0.0,0.0,1.0
72296000,72296000,8.58894e-05,-0.00345521,-0.000134068,0.489243,0.0,0.0,0.0,1.0
72396000,72396000,0.00221836,0.000322474,0.000126874,0.48918,0.0,0.0,0.0,1.0
72492000,72492000,-0.000216377,0.00138496,0.00206006,0.489853,0.0,0.0,0.0,1.0
72592000,72592000,0.00195767,-0.00342909,-7.01542e-05,0.489053,0.0,0.0,0.0,1.0
72688000,72688000,-0.00699637,-0.00075831,0.000141883,0.490147,0.0,0.0,0.0,1.0
72784000,72784000,-0.00116651,0.000633779,0.000406959,0.489634,0.0,0.0,0.0,1.0
72884000,72884000,0.000385392,0.000934931,-0.000536185,0.488973,0.0,0.0,0.0,1.0
72984000,72984000,-0.00434451,0.00479313,-0.00111604,0.489752,0.0,0.0,0.0,1.0
73080000,73080000,0.00256991,0.00564173,0.00165521,0.490227,0.0,0.0,0.0,1.0
73176000,73176000,-0.00217414,-0.00718389,-0.000929036,0.489593,0.0,0.0,0.0,1.0
73276000,73276000,-0.005021,0.000300813,0.00133467,0.489651,0.0,0.0,0.0,1.0
73376000,73376000,0.000125797,-0.00326922,-0.000432203,0.490017,0.0,0.0,0.0,1.0
73476000,73476000,0.00311399,0.0108972,-0.000881729,0.489853,0.0,0.0,0.0,1.0
73576000,73576000,0.0021605,-0.000571704,-8.74672e-05,0.488935,0.0,0.0,0.0,1.0
73676000,73676000,0.001407,-0.00345983,-0.000574196,0.489546,0.0,0.0,0.0,1.0
73776000,73776000,-0.00515151,-0.00665144,0.000342814,0.489486,0.0,0.0,0.0,1.0
73872000,73872000,-0.00278255,-0.00791535,-0.000415884,0.489612,0.0,0.0,0.0,1.0
73968000,73968000,-0.000660075,0.00432157,0.000139236,0.489635,0.0,0.0,0.0,1.0
74064000,74064000,0.000577048,0.00244343,-0.000400426,0.489789,0.0,0.0,0.0,1.0
74164000,74164000,0.000664763,0.000465482,-0.000467605,0.490198,0.0,0.0,0.0,1.0
74264000,74264000,-0.0015093,-0.00122247,0.000956964,0.489384,0.0,0.0,0.0,1.0
74364000,74364000,-0.00116523,-0.00017001,-0.00106335,0.489472,0.0,0.0,0.0,1.0
74464000,74464000,-0.0075185,0.00447687,0.000573553,0.489833,0.0,0.0,0.0,1.0
74564000,74564000,0.000382562,-0.00133171,-0.000509168,0.490394,0.0,0.0,0.0,1.0
74664000,74664000,-0.00247851,0.00140204,2.60565e-05,0.489263,0.0,0.0,0.0,1.0
74764000,74764000,0.0061411,-0.00297128,0.000262052,0.489769,0.0,0.0,0.0,1.0
74860000,74860000,0.000896125,-0.00173262,0.00163458,0.489643,0.0,0.0,0.0,1.0
74960000,74960000,-0.00269424,-0.00234466,-0.000703169,0.48987,0.0,0.0,0.0,1.0
75060000,75060000,-0.00280259,-0.0023655,-0.00102797,0.489422,0.0,0.0,0.0,1.0
75156000,75156000,0.00381031,0.00178276,0.00047878,0.490281,0.0,0.0,0.0,1.0
75252000,75252000,-0.00227203,0.00189885,-0.000572057,0.489098,0.0,0.0,0.0,1.0
75352000,75352000,-0.000755424,-0.00128806,-0.000887209,0.489842,0.0,0.0,0.0,1.0
75448000,75448000,-0.00682045,0.00206055,0.000547944,0.489598,0.0,0.0,0.0,1.0
75544000,75544000,0.00764752,-0.00443347,0.000780813,0.49107,0.0,0.0,0.0,1.0
75640000,75640000,-0.00236616,0.00141214,-0.00097985,0.489392,0.0,0.0,0.0,1.0
75740000,75740000,0.000779161,-0.00415232,-0.000211397,0.489545,0.0,0.0,0.0,1.0
75840000,75840000,-0.00361645,-0.00351148,0.0015657,0.48913,0.0,0.0,0.0,1.0
75940000,75940000,-0.00347099,0.00701017,-0.00223747,0.488801,0.0,0.0,0.0,1.0
76040000,76040000,-0.00176348,-0.00170092,0.000733545,0.489556,0.0,0.0,0.0,1.0
76136000,76136000,-0.00232099,0.000640607,0.000362603,0.490071,0.0,0.0,0.0,1.0
76232000,76232000,0.00390731,0.00589986,0.00169197,0.489794,0.0,0.0,0.0,1.0
76332000,76332000,-0.00299973,0.00387851,0.00225445,0.489824,0.0,0.0,0.0,1.0
76428000,76428000,0.00143288,0.00269499,-0.00203929,0.489289,0.0,0.0,0.0,1.0
76524000,76524000,0.00216572,0.00254015,-0.00143261,0.490305,0.0,0.0,0.0,1.0
76624000,76624000,0.000847009,-0.00259501,0.000637126,0.489597,0.0,0.0,0.0,1.0
76724000,76724000,-0.0017503,0.00598148,0.00014383,0.489045,0.0,0.0,0.0,1.0
76820000,76820000,-0.00294528,0.00642951,0.000789617,0.4898,0.0,0.0,0.0,1.0
76920000,76920000,-0.00331624,0.00420068,0.00139148,0.489262,0.0,0.0,0.0,1.0
77020000,77020000,-0.00269932,0.00485019,0.00274175,0.490729,0.0,0.0,0.0,1.0
77120000,77120000,-0.00150767,-0.00273224,-0.000763643,0.489615,0.0,0.0,0.0,1.0
77216000,77216000,0.00399086,-0.00151526,-0.00093474,0.489418,0.0,0.0,0.0,1.0
77312000,77312000,-0.00265815,0.00435458,-0.000545356,0.4897,0.0,0.0,0.0,1.0
77408000,77408000,0.00180129,0.00308505,-0.000464589,0.489388,0.0,0.0,0.0,1.0
