timestamp,roll,pitch,yaw,thrust_body[0],thrust_body[1],thrust_body[2]
1344000,0.00305863,0.00132574,-0.01539,0.0,0.0,0.0
1372000,0.00316447,0.00162983,-0.0160316,0.0,0.0,0.0
1400000,0.00353294,0.0015025,-0.0169355,0.0,0.0,0.0
1432000,0.0030809,0.000584017,-0.0167709,0.0,0.0,0.0
1456000,0.00253965,0.00107521,-0.0170365,0.0,0.0,0.0
1488000,0.00202044,0.00116582,-0.017078,0.0,0.0,0.0
1520000,0.00160491,0.00182881,-0.0173072,0.0,0.0,0.0
1548000,0.00119262,0.00111959,-0.0178533,0.0,0.0,0.0
1580000,0.000153667,0.000202693,-0.018244,0.0,0.0,0.0
1612000,0.00147404,0.00127835,-0.0185504,0.0,0.0,0.0
1640000,0.00198395,0.000913623,-0.0189103,0.0,0.0,0.0
1672000,0.00104087,-0.000212106,-0.0191335,0.0,0.0,0.0
1704000,0.00135667,-0.000532151,-0.0189242,0.0,0.0,0.0
1736000,0.00144619,-0.00157275,-0.0188689,0.0,0.0,0.0
1760000,0.00103089,-0.00142534,-0.0196379,0.0,0.0,0.0
1792000,0.00155295,-0.00170788,-0.0197251,0.0,0.0,0.0
1820000,0.00211054,-0.0014861,-0.0199818,0.0,0.0,0.0
1852000,0.00211699,-0.00217806,-0.0207747,0.0,0.0,0.0
1880000,0.00232787,-0.00225601,-0.0211048,0.0,0.0,0.0
1908000,0.00354642,-0.00185162,-0.0211351,0.0,0.0,0.0
1936000,0.00286982,-0.00168984,-0.0207844,0.0,0.0,0.0
1964000,0.0030939,-0.00179017,-0.0204724,0.0,0.0,0.0
1996000,0.00366454,-0.00130222,-0.020247,0.0,0.0,0.0
2024000,0.00470401,-0.0013778,-0.0206558,0.0,0.0,0.0
2052000,0.00460343,-0.00099838,-0.0209753,0.0,0.0,0.0
2080000,0.00475494,-0.000221287,-0.0208933,0.0,0.0,0.0
2108000,0.00475141,-0.00064483,-0.0203825,0.0,0.0,0.0
2136000,0.00490332,-0.000383518,-0.0200963,0.0,0.0,0.0
2164000,0.00467311,-0.00125084,-0.0200263,0.0,0.0,0.0
2196000,0.00441825,-0.00184242,-0.0203781,0.0,0.0,0.0
2228000,0.00497728,-0.00170033,-0.0202925,0.0,0.0,0.0
2256000,0.00504611,-0.00170185,-0.0203632,0.0,0.0,0.0
2284000,0.00561788,-0.00173847,-0.0205623,0.0,0.0,0.0
2308000,0.00515991,-0.00242342,-0.0204739,0.0,0.0,0.0
2336000,0.00581712,-0.00272226,-0.0206502,0.0,0.0,0.0
2364000,0.00561063,-0.00304413,-0.0198617,0.0,0.0,0.0
2396000,0.00679297,-0.00211475,-0.0195054,0.0,0.0,0.0
2424000,0.00681022,-0.000406629,-0.0195455,0.0,0.0,0.0
2452000,0.00687928,-0.00113249,-0.019375,0.0,0.0,0.0
2480000,0.00602281,-0.00105452,-0.0193172,0.0,0.0,0.0
2512000,0.00543891,-3.47505e-05,-0.0191801,0.0,0.0,0.0
2540000,0.00510902,0.000288769,-0.018918,0.0,0.0,0.0
2568000,0.00574009,-0.000392135,-0.0186324,0.0,0.0,0.0
2596000,0.00627359,-0.00063943,-0.0187275,0.0,0.0,0.0
2628000,0.00572568,-0.000575638,-0.0194897,0.0,0.0,0.0
2660000,0.00572589,0.000503408,-0.0195692,0.0,0.0,0.0
2688000,0.00546478,-0.000217715,-0.0193563,0.0,0.0,0.0
2716000,0.00523628,0.000383165,-0.019153,0.0,0.0,0.0
2744000,0.00504274,0.000864719,-0.0199637,0.0,0.0,0.0
2772000,0.00476176,0.000647147,-0.0197517,0.0,0.0,0.0
2800000,0.00389643,8.5498e-05,-0.0195832,0.0,0.0,0.0
2828000,0.00379519,-0.000480379,-0.0194486,0.0,0.0,0.0
2856000,0.00342358,-0.000414037,-0.0192664,0.0,0.0,0.0
2888000,0.00356654,-0.000980522,-0.0196439,0.0,0.0,0.0
2916000,0.00409817,-0.00129153,-0.0196071,0.0,0.0,0.0
2948000,0.00469048,-0.000686269,-0.0193911,0.0,0.0,0.0
2976000,0.0051124,-9.03491e-05,-0.019328,0.0,0.0,0.0
3008000,0.00478143,-4.39838e-06,-0.0194098,0.0,0.0,0.0
3040000,0.00470311,-0.000403328,-0.0195287,0.0,0.0,0.0
3072000,0.00443979,-0.000719445,-0.0199016,0.0,0.0,0.0
3100000,0.0047376,-0.000587717,-0.0199108,0.0,0.0,0.0
3128000,0.00483432,-8.40545e-05,-0.01949,0.0,0.0,0.0
3156000,0.00483379,-5.49586e-06,-0.0194375,0.0,0.0,0.0
3184000,0.00448314,-3.96478e-05,-0.0193515,0.0,0.0,0.0
3212000,0.0042142,0.000473083,-0.0194217,0.0,0.0,0.0
3244000,0.005046,0.000504642,-0.0192499,0.0,0.0,0.0
3276000,0.00497509,0.000188567,-0.0191806,0.0,0.0,0.0
3300000,0.00522064,0.00021245,-0.0189072,0.0,0.0,0.0
3332000,0.00510453,0.000885046,-0.0189309,0.0,0.0,0.0
3360000,0.00607529,0.00123796,-0.0186278,0.0,0.0,0.0
3392000,0.00694955,0.000691339,-0.0185478,0.0,0.0,0.0
3424000,0.00651448,0.00034839,-0.0185482,0.0,0.0,0.0
3448000,0.00663938,0.000139112,-0.0186306,0.0,0.0,0.0
3476000,0.00715751,-0.00057306,-0.0190066,0.0,0.0,0.0
3508000,0.00671707,-0.00115333,-0.0187529,0.0,0.0,0.0
3540000,0.00595026,-0.00126736,-0.0191281,0.0,0.0,0.0
3572000,0.0055778,-0.00114042,-0.0191222,0.0,0.0,0.0
3600000,0.00554965,-0.000784253,-0.0191307,0.0,0.0,0.0
3632000,0.00498361,-0.00131955,-0.0194501,0.0,0.0,0.0
3660000,0.00502666,-0.000967873,-0.0202346,0.0,0.0,0.0
3692000,0.00457876,-0.00206881,-0.0203375,0.0,0.0,0.0
3720000,0.00462148,-0.00235467,-0.0202324,0.0,0.0,0.0
3748000,0.00468647,-0.00188915,-0.0207008,0.0,0.0,0.0
3776000,0.00529163,-0.00265689,-0.0210331,0.0,0.0,0.0
3804000,0.0051997,-0.00213351,-0.0207218,0.0,0.0,0.0
3832000,0.00478383,-0.00158032,-0.0205123,0.0,0.0,0.0
3860000,0.00547034,-0.00103658,-0.0200394,0.0,0.0,0.0
3892000,0.00555817,-0.00131378,-0.0203275,0.0,0.0,0.0
3920000,0.00547649,-0.000717222,-0.0201437,0.0,0.0,0.0
3952000,0.00520321,-0.00149653,-0.0205985,0.0,0.0,0.0
3984000,0.00488104,-0.00157062,-0.0204196,0.0,0.0,0.0
4012000,0.00456868,-0.00105497,-0.0205797,0.0,0.0,0.0
4044000,0.00498784,-0.00100111,-0.0202005,0.0,0.0,0.0
4076000,0.00438802,-0.00155228,-0.0200994,0.0,0.0,0.0
4108000,0.00413342,-0.00156569,-0.020333,0.0,0.0,0.0
4140000,0.00356795,-0.0022718,-0.0198374,0.0,0.0,0.0
4172000,0.00327665,-0.001827,-0.0196596,0.0,0.0,0.0
4204000,0.00394412,-0.00119721,-0.0194502,0.0,0.0,0.0
4232000,0.00463774,-0.00108978,-0.0189052,0.0,0.0,0.0
4260000,0.00438229,-0.00038127,-0.0187317,0.0,0.0,0.0
4288000,0.00379382,-0.00113103,-0.0182198,0.0,0.0,0.0
4320000,0.00225754,-0.00134407,-0.0180402,0.0,0.0,0.0
4352000,0.00226983,-0.00154063,-0.0178074,0.0,0.0,0.0
4380000,0.00244963,-0.000974548,-0.0172855,0.0,0.0,0.0
4412000,0.00176674,-0.000733161,-0.0177893,0.0,0.0,0.0
4440000,0.00159034,-0.00157597,-0.0175214,0.0,0.0,0.0
4472000,0.000658624,-0.0020476,-0.0180546,0.0,0.0,0.0
4504000,0.000566987,-0.00148824,-0.0178627,0.0,0.0,0.0
4532000,0.000573097,-0.00204743,-0.0176028,0.0,0.0,0.0
4560000,0.000385332,-0.00187919,-0.0175525,0.0,0.0,0.0
4592000,1.7647e-05,-0.0014488,-0.0176226,0.0,0.0,0.0
4620000,0.000119135,-0.00136632,-0.0177367,0.0,0.0,0.0
4648000,-9.33948e-05,-0.00120439,-0.017861,0.0,0.0,0.0
4676000,-0.000195834,-0.00179843,-0.0182057,0.0,0.0,0.0
4704000,-0.000384972,-0.000569852,-0.0180096,0.0,0.0,0.0
4732000,-0.000598444,0.000116403,-0.0186048,0.0,0.0,0.0
4760000,-0.00112363,0.00117318,-0.0181664,0.0,0.0,0.0
4788000,-0.00139316,2.09623e-05,-0.0182361,0.0,0.0,0.0
4820000,-0.00115941,-0.000352512,-0.0185827,0.0,0.0,0.0
4852000,-0.000960754,-0.00049948,-0.0191299,0.0,0.0,0.0
4884000,0.000342602,-0.000610857,-0.0190142,0.0,0.0,0.0
4916000,-0.000489272,-0.000583395,-0.0192415,0.0,0.0,0.0
4944000,-0.00140336,-0.000833926,-0.0190341,0.0,0.0,0.0
4972000,-0.00208959,-0.00125238,-0.0197749,0.0,0.0,0.0
5000000,-0.00248938,-0.000613826,-0.0201687,0.0,0.0,0.0
5028000,-0.00266992,-0.000110056,-0.0202611,0.0,0.0,0.0
5060000,-0.00339556,0.000232403,-0.0205644,0.0,0.0,0.0
5088000,-0.00288871,0.000246134,-0.0207165,0.0,0.0,0.0
5120000,-0.00325099,0.000746083,-0.0208917,0.0,0.0,0.0
5152000,-0.00274706,0.00212346,-0.020758,0.0,0.0,0.0
5184000,-0.00357818,0.00340194,-0.020909,0.0,0.0,0.0
5216000,-0.0034509,0.00324671,-0.0206196,0.0,0.0,0.0
5248000,-0.00436905,0.00261099,-0.0210211,0.0,0.0,0.0
5276000,-0.00437544,0.00158314,-0.0205707,0.0,0.0,0.0
5308000,-0.00362651,0.00049915,-0.0208889,0.0,0.0,0.0
5340000,-0.00356768,-0.000679822,-0.0203879,0.0,0.0,0.0
5368000,-0.00378922,-0.000391793,-0.0202887,0.0,0.0,0.0
5396000,-0.0036334,-0.000617013,-0.0197799,0.0,0.0,0.0
5428000,-0.00217891,-0.000799528,-0.0204922,0.0,0.0,0.0
5456000,-0.00177354,-0.000706251,-0.0211182,0.0,0.0,0.0
5484000,-0.000837618,-0.000200353,-0.0212168,0.0,0.0,0.0
5508000,-0.000265837,-8.14297e-06,-0.0213357,0.0,0.0,0.0
5532000,-0.0010584,-0.000200827,-0.021256,0.0,0.0,0.0
5564000,-0.00152512,0.000751065,-0.0210532,0.0,0.0,0.0
5596000,-0.00133718,0.00143292,-0.0205444,0.0,0.0,0.0
5624000,-0.00116607,0.00118142,-0.0209653,0.0,0.0,0.0
5656000,-0.00149854,0.00197164,-0.021026,0.0,0.0,0.0
5684000,-0.00127197,0.00160053,-0.0211283,0.0,0.0,0.0
5712000,-0.000165814,0.00118413,-0.020855,0.0,0.0,0.0
5740000,0.000537583,0.00050436,-0.021135,0.0,0.0,0.0
5772000,0.000326977,0.000296591,-0.0206896,0.0,0.0,0.0
5804000,0.000770228,0.000103174,-0.0207517,0.0,0.0,0.0
5836000,8.07639e-05,-0.000871161,-0.0209136,0.0,0.0,0.0
5868000,0.000202121,-0.00123113,-0.0209237,0.0,0.0,0.0
5892000,0.00027289,-0.00175143,-0.0206978,0.0,0.0,0.0
5920000,-0.000166421,-0.00198927,-0.0210772,0.0,0.0,0.0
5948000,-0.00107242,-0.00296319,-0.0213831,0.0,0.0,0.0
5980000,-0.00176819,-0.00279027,-0.0207549,0.0,0.0,0.0
6012000,-0.00146347,-0.0037886,-0.0203169,0.0,0.0,0.0
6040000,-0.00163478,-0.00330137,-0.0207474,0.0,0.0,0.0
6068000,-0.0010685,-0.00363464,-0.0211054,0.0,0.0,0.0
6100000,-0.000776042,-0.00337052,-0.0213662,0.0,0.0,0.0
6132000,0.000196802,-0.00339294,-0.0216143,0.0,0.0,0.0
6164000,0.000464556,-0.00236364,-0.0212914,0.0,0.0,0.0
6196000,0.000759636,-0.000833522,-0.0211012,0.0,0.0,0.0
6224000,0.00073979,-0.000927601,-0.0213759,0.0,0.0,0.0
6256000,0.000407548,-0.00142236,-0.0209657,0.0,0.0,0.0
6288000,0.000765467,-0.00065793,-0.0211696,0.0,0.0,0.0
6320000,0.000482784,-0.00179399,-0.0213257,0.0,0.0,0.0
6348000,-0.000561435,-0.00183034,-0.0215237,0.0,0.0,0.0
6380000,-0.000923266,-0.00192859,-0.021557,0.0,0.0,0.0
6408000,-0.00105039,-0.00124864,-0.0213661,0.0,0.0,0.0
6440000,-0.000856627,-0.00217889,-0.0213995,0.0,0.0,0.0
6472000,-0.000814878,-0.00245324,-0.0211143,0.0,0.0,0.0
6504000,-0.000173641,-0.00322063,-0.0209686,0.0,0.0,0.0
6532000,-0.000439149,-0.00359428,-0.0214218,0.0,0.0,0.0
6564000,-0.00080461,-0.00356504,-0.0211121,0.0,0.0,0.0
6592000,-0.00176468,-0.0044843,-0.0207988,0.0,0.0,0.0
6620000,-0.0017085,-0.0036278,-0.0205123,0.0,0.0,0.0
6648000,-0.001879,-0.00363787,-0.0205968,0.0,0.0,0.0
6676000,-0.00067107,-0.00410318,-0.0201212,0.0,0.0,0.0
6708000,-0.000216991,-0.00437084,-0.020527,0.0,0.0,0.0
6736000,-0.000395141,-0.00312663,-0.0202412,0.0,0.0,0.0
6764000,-0.00022667,-0.00340696,-0.0201673,0.0,0.0,0.0
6792000,0.000266439,-0.00334438,-0.0203599,0.0,0.0,0.0
6820000,-0.0001745,-0.00368458,-0.0206785,0.0,0.0,0.0
6852000,0.000135827,-0.003798,-0.0208809,0.0,0.0,0.0
6880000,-0.000720946,-0.0033484,-0.0206712,0.0,0.0,0.0
6908000,-0.00104536,-0.00290958,-0.0204711,0.0,0.0,0.0
6940000,-0.000717033,-0.00284891,-0.0205708,0.0,0.0,0.0
6972000,0.000210007,-0.00308112,-0.0203883,0.0,0.0,0.0
7004000,0.000458685,-0.00173176,-0.0205769,0.0,0.0,0.0
7036000,0.0018558,-0.00088445,-0.0203389,0.0,0.0,0.0
7068000,0.00380187,-0.000905396,-0.0199778,0.0,0.0,0.0
7096000,0.00376486,-0.00081837,-0.0203114,0.0,0.0,0.0
7128000,0.00472007,-0.000571538,-0.0200512,0.0,0.0,0.0
7160000,0.00511862,-0.000324754,-0.0199185,0.0,0.0,0.0
7192000,0.00563436,0.000173636,-0.0199881,0.0,0.0,0.0
7220000,0.0054155,-0.000312891,-0.0207255,0.0,0.0,0.0
7252000,0.00548291,-0.00027559,-0.0203307,0.0,0.0,0.0
7284000,0.00636079,0.000189198,-0.0205754,0.0,0.0,0.0
7316000,0.00608258,0.000798084,-0.0203291,0.0,0.0,0.0
7348000,0.00629769,-0.000681497,-0.0209454,0.0,0.0,0.0
7380000,0.00626524,0.000325448,-0.0204741,0.0,0.0,0.0
7412000,0.00685739,-0.000729337,-0.0199693,0.0,0.0,0.0
7444000,0.00662861,-0.000645603,-0.020249,0.0,0.0,0.0
7476000,0.0063729,2.73219e-05,-0.0203541,0.0,0.0,0.0
7508000,0.00664418,-0.000256862,-0.0203042,0.0,0.0,0.0
7540000,0.00655177,0.000144839,-0.0199311,0.0,0.0,0.0
7568000,0.00679455,-1.6041e-05,-0.0199784,0.0,0.0,0.0
7596000,0.00749059,0.000120085,-0.0202905,0.0,0.0,0.0
7628000,0.00806469,0.000396058,-0.0200963,0.0,0.0,0.0
7660000,0.00749841,-0.000192081,-0.0200111,0.0,0.0,0.0
7688000,0.00735578,-0.000331385,-0.0203148,0.0,0.0,0.0
7720000,0.00742229,-0.00155062,-0.0205714,0.0,0.0,0.0
7748000,0.00820044,-0.00165885,-0.0201641,0.0,0.0,0.0
7776000,0.00844906,-0.00211585,-0.0205995,0.0,0.0,0.0
7804000,0.00738914,-0.00284715,-0.0201635,0.0,0.0,0.0
7832000,0.00828365,-0.00345334,-0.019805,0.0,0.0,0.0
7864000,0.00774039,-0.00414479,-0.0195232,0.0,0.0,0.0
7892000,0.00846137,-0.00352349,-0.0193941,0.0,0.0,0.0
7916000,0.00878626,-0.00398202,-0.0197462,0.0,0.0,0.0
7948000,0.00872663,-0.00482247,-0.0197577,0.0,0.0,0.0
7980000,0.00814902,-0.00352539,-0.0197083,0.0,0.0,0.0
8012000,0.00736661,-0.00318742,-0.0201529,0.0,0.0,0.0
8040000,0.00807963,-0.0024724,-0.019943,0.0,0.0,0.0
8072000,0.00755944,-0.00322163,-0.0200401,0.0,0.0,0.0
8104000,0.00793488,-0.00233418,-0.0193104,0.0,0.0,0.0
8136000,0.0076373,-0.00250378,-0.0191373,0.0,0.0,0.0
8164000,0.0079723,-0.00211948,-0.0190758,0.0,0.0,0.0
8196000,0.0085221,-0.00326059,-0.0194308,0.0,0.0,0.0
8224000,0.00820256,-0.00219471,-0.0198112,0.0,0.0,0.0
8248000,0.00658908,-0.00344552,-0.0197947,0.0,0.0,0.0
8276000,0.00613302,-0.00165797,-0.0196598,0.0,0.0,0.0
8304000,0.00600277,-0.00193333,-0.0193395,0.0,0.0,0.0
8336000,0.00516358,-0.00273725,-0.0189336,0.0,0.0,0.0
8360000,0.0051022,-0.0031201,-0.0187316,0.0,0.0,0.0
8392000,0.00602395,-0.00364486,-0.0182987,0.0,0.0,0.0
8420000,0.0062818,-0.00255078,-0.0180503,0.0,0.0,0.0
8448000,0.00601334,-0.0036898,-0.0180467,0.0,0.0,0.0
8480000,0.00492501,-0.0037004,-0.0180864,0.0,0.0,0.0
8512000,0.0047349,-0.0039503,-0.0185042,0.0,0.0,0.0
8540000,0.00462684,-0.00338323,-0.0180522,0.0,0.0,0.0
8568000,0.00539565,-0.00336917,-0.0178884,0.0,0.0,0.0
8596000,0.00547074,-0.00434163,-0.017391,0.0,0.0,0.0
8628000,0.00640171,-0.00343778,-0.0171285,0.0,0.0,0.0
8652000,0.00611054,-0.00323376,-0.0169582,0.0,0.0,0.0
8684000,0.00637046,-0.00342567,-0.0171816,0.0,0.0,0.0
8712000,0.00598246,-0.00395306,-0.0165974,0.0,0.0,0.0
8740000,0.00574872,-0.0042896,-0.0168497,0.0,0.0,0.0
8768000,0.00585206,-0.0054409,-0.0166665,0.0,0.0,0.0
8800000,0.00618797,-0.00437032,-0.0167611,0.0,0.0,0.0
8828000,0.00687599,-0.00457325,-0.0169925,0.0,0.0,0.0
8860000,0.00602263,-0.00325218,-0.0171863,0.0,0.0,0.0
8888000,0.00515887,-0.00351482,-0.0174406,0.0,0.0,0.0
8920000,0.00516206,-0.00365758,-0.0175478,0.0,0.0,0.0
8948000,0.00500996,-0.00407573,-0.0172478,0.0,0.0,0.0
8980000,0.00521365,-0.00403553,-0.0173139,0.0,0.0,0.0
9008000,0.00553769,-0.0039229,-0.0173696,0.0,0.0,0.0
9036000,0.00540876,-0.0038003,-0.0172608,0.0,0.0,0.0
9064000,0.0059863,-0.00280112,-0.0175927,0.0,0.0,0.0
9092000,0.00638481,-0.00200522,-0.0174816,0.0,0.0,0.0
9120000,0.00674843,-0.00188074,-0.0172889,0.0,0.0,0.0
9152000,0.00725701,-0.00252356,-0.0171219,0.0,0.0,0.0
9180000,0.00825637,-0.00209742,-0.0170064,0.0,0.0,0.0
9212000,0.00811213,-0.00150238,-0.0171828,0.0,0.0,0.0
9244000,0.00886882,-0.00124049,-0.0170058,0.0,0.0,0.0
9272000,0.00931689,-0.00122162,-0.0170909,0.0,0.0,0.0
9304000,0.00979802,-0.00147464,-0.0171764,0.0,0.0,0.0
9336000,0.00965523,-0.00147534,-0.0171875,0.0,0.0,0.0
9368000,0.00949972,-0.0009816,-0.0168467,0.0,0.0,0.0
9400000,0.0108448,-0.0010849,-0.0167131,0.0,0.0,0.0
9432000,0.0113497,-0.00105703,-0.0168742,0.0,0.0,0.0
9464000,0.0106072,-0.00191674,-0.0170103,0.0,0.0,0.0
9492000,0.0108109,-0.00133441,-0.0172679,0.0,0.0,0.0
9524000,0.010571,-0.00112119,-0.0168932,0.0,0.0,0.0
9556000,0.010345,-0.000310229,-0.0163751,0.0,0.0,0.0
9584000,0.0109322,0.000373321,-0.0165631,0.0,0.0,0.0
9616000,0.0112589,0.000644876,-0.0168099,0.0,0.0,0.0
9640000,0.0117171,0.00121912,-0.0166417,0.0,0.0,0.0
9672000,0.0112873,0.00179301,-0.016425,0.0,0.0,0.0
9700000,0.0108578,0.00246126,-0.0170242,0.0,0.0,0.0
9724000,0.0108242,0.00261661,-0.0171415,0.0,0.0,0.0
9752000,0.0109742,0.00233594,-0.0171238,0.0,0.0,0.0
9784000,0.0109718,0.00339788,-0.0170634,0.0,0.0,0.0
9816000,0.0114865,0.00262706,-0.0166363,0.0,0.0,0.0
9848000,0.0109912,0.00314919,-0.0167464,0.0,0.0,0.0
9876000,0.0108787,0.00360061,-0.0168104,0.0,0.0,0.0
9908000,0.0112003,0.0039639,-0.0167592,0.0,0.0,0.0
9940000,0.012535,0.00575,-0.0167421,0.0,0.0,0.0
9972000,0.0130142,0.00557376,-0.0162608,0.0,0.0,0.0
10004000,0.0137159,0.00560089,-0.0164053,0.0,0.0,0.0
10032000,0.0133971,0.00532575,-0.0166697,0.0,0.0,0.0
10064000,0.0139842,0.00498507,-0.0168459,0.0,0.0,0.0
10096000,0.0148153,0.0045652,-0.0171946,0.0,0.0,0.0
10128000,0.0149962,0.00295982,-0.0168154,0.0,0.0,0.0
10156000,0.0141537,0.00288586,-0.0170886,0.0,0.0,0.0
10188000,0.0139392,0.00219589,-0.0167274,0.0,0.0,0.0
10220000,0.0136371,0.0030999,-0.016564,0.0,0.0,0.0
10248000,0.0136799,0.00275296,-0.00597857,0.0,0.0,0.0
10280000,0.0136965,0.00266494,-0.00574815,0.0,0.0,0.0
10312000,0.012329,0.00274466,-0.00594052,0.0,0.0,0.0
10344000,0.0117029,0.00266943,-0.00654961,0.0,0.0,0.0
10368000,0.0127276,0.00163602,-0.0064725,0.0,0.0,0.0
10400000,0.0115523,0.00224743,-0.00642218,0.0,0.0,0.0
10432000,0.0121137,0.00287733,-0.00657261,0.0,0.0,0.0
10460000,0.0123586,0.00296124,-0.00682252,0.0,0.0,0.0
10492000,0.0128732,0.00278573,-0.00731881,0.0,0.0,0.0
10524000,0.0132296,0.00254351,-0.00742698,0.0,0.0,0.0
10556000,0.0127192,0.0023025,-0.007553,0.0,0.0,0.0
10588000,0.0143933,0.00227851,-0.00742363,0.0,0.0,0.0
10616000,0.0147265,0.00311467,-0.00705409,0.0,0.0,0.0
10644000,0.0136802,0.00321481,-0.00719697,0.0,0.0,0.0
10672000,0.0128729,0.00311003,-0.00737096,0.0,0.0,0.0
10696000,0.0124008,0.00284908,-0.00738569,0.0,0.0,0.0
10724000,0.0124474,0.00255031,-0.00715508,0.0,0.0,0.0
10752000,0.011499,0.00233647,-0.00743297,0.0,0.0,0.0
10780000,0.010654,0.00163911,-0.00741369,0.0,0.0,0.0
10808000,0.0101496,0.00123105,-0.00741643,0.0,0.0,0.0
10840000,0.0100791,0.00147263,-0.00727597,0.0,0.0,0.0
10872000,0.009152,0.00161615,-0.00739919,0.0,0.0,0.0
10904000,0.00843646,0.00152029,-0.00706639,0.0,0.0,0.0
10932000,0.00874595,0.00136157,-0.00763728,0.0,0.0,0.0
10960000,0.00876758,0.000876378,-0.00776681,0.0,0.0,0.0
10992000,0.00762761,0.00059473,-0.00840781,0.0,0.0,0.0
11024000,0.00723441,0.000325393,-0.00848813,0.0,0.0,0.0
11052000,0.00715826,0.000150025,-0.00879333,0.0,0.0,0.0
11084000,0.00608044,0.000117058,-0.00928929,0.0,0.0,0.0
11116000,0.0064333,-0.00135557,-0.00949783,0.0,0.0,0.0
11144000,0.00535216,-0.00191916,-0.0095606,0.0,0.0,0.0
11172000,0.00504445,-0.00129607,-0.0101441,0.0,0.0,0.0
11204000,0.00373561,-0.000662612,-0.0103861,0.0,0.0,0.0
11236000,0.00358723,-0.00138687,-0.0107951,0.0,0.0,0.0
11268000,0.00426833,-0.00229113,-0.0108382,0.0,0.0,0.0
11300000,0.00402496,-0.00208281,-0.0111948,0.0,0.0,0.0
11332000,0.00446687,-0.000796549,-0.0116708,0.0,0.0,0.0
11364000,0.00405185,-0.00107259,-0.0117575,0.0,0.0,0.0
11388000,0.00398802,-0.000868421,-0.0119019,0.0,0.0,0.0
11416000,0.00432318,-0.00125177,-0.011855,0.0,0.0,0.0
11448000,0.00427193,0.000555184,-0.0118188,0.0,0.0,0.0
11480000,0.00381194,-0.000267713,-0.0119277,0.0,0.0,0.0
11512000,0.00370288,-0.000588443,-0.011656,0.0,0.0,0.0
11544000,0.00386763,-0.00037068,-0.012083,0.0,0.0,0.0
11572000,0.00359783,-0.000163589,-0.012192,0.0,0.0,0.0
11604000,0.00376647,0.000903256,-0.0122719,0.0,0.0,0.0
11636000,0.00296436,0.000155681,-0.0126498,0.0,0.0,0.0
11668000,0.00278598,-0.000148333,-0.0129626,0.0,0.0,0.0
11696000,0.0022334,0.000241519,-0.0133268,0.0,0.0,0.0
11728000,0.00131172,0.000874117,-0.0131495,0.0,0.0,0.0
11760000,0.00132863,0.00121523,-0.0132986,0.0,0.0,0.0
11792000,0.000483129,0.000377454,-0.0134822,0.0,0.0,0.0
11820000,7.44502e-05,0.000344019,-0.0137534,0.0,0.0,0.0
11852000,-0.000641,-0.000694272,-0.0138321,0.0,0.0,0.0
11884000,-0.000416063,-0.0018447,-0.0138061,0.0,0.0,0.0
11912000,-0.000906973,-0.00221158,-0.0138051,0.0,0.0,0.0
11944000,-0.000946467,-0.00253462,-0.014129,0.0,0.0,0.0
11976000,-0.00101485,-0.00259397,-0.0139024,0.0,0.0,0.0
12004000,-0.00107959,-0.00250445,-0.0134382,0.0,0.0,0.0
12036000,-0.00222524,-0.00306845,-0.0134485,0.0,0.0,0.0
12068000,-0.00245102,-0.00341425,-0.0139569,0.0,0.0,0.0
12100000,-0.00192577,-0.00276204,-0.0149336,0.0,0.0,0.0
12132000,-0.00259081,-0.00356303,-0.0154935,0.0,0.0,0.0
12156000,-0.0033173,-0.00383104,-0.0156084,0.0,0.0,0.0
12188000,-0.00316499,-0.0027802,-0.0162082,0.0,0.0,0.0
12220000,-0.00396328,-0.00232986,-0.0161013,0.0,0.0,0.0
12248000,-0.0039736,-0.00294998,-0.0162627,0.0,0.0,0.0
12280000,-0.00413087,-0.0034472,-0.0157117,0.0,0.0,0.0
12312000,-0.00366083,-0.00365923,-0.0156004,0.0,0.0,0.0
12344000,-0.00400989,-0.00375358,-0.0151992,0.0,0.0,0.0
12376000,-0.00408851,-0.00359299,-0.0149796,0.0,0.0,0.0
12408000,-0.00443693,-0.00382633,-0.0152412,0.0,0.0,0.0
12440000,-0.00297962,-0.00362294,-0.0154921,0.0,0.0,0.0
12468000,-0.00341163,-0.00381614,-0.0153704,0.0,0.0,0.0
12496000,-0.00290584,-0.00300713,-0.0158485,0.0,0.0,0.0
12528000,-0.00233317,-0.00275125,-0.0158389,0.0,0.0,0.0
12560000,-0.00164727,-0.00261353,-0.0157241,0.0,0.0,0.0
12592000,-0.00160451,-0.00306267,-0.0163341,0.0,0.0,0.0
12624000,-0.00261695,-0.00318767,-0.0171591,0.0,0.0,0.0
12656000,-0.00236064,-0.00363356,-0.0171497,0.0,0.0,0.0
12688000,-0.00129674,-0.00287673,-0.0173413,0.0,0.0,0.0
12716000,-0.00111705,-0.00275617,-0.0173403,0.0,0.0,0.0
12748000,-0.00160829,-0.00211952,-0.0168761,0.0,0.0,0.0
12780000,-0.00195299,-0.00149312,-0.0170598,0.0,0.0,0.0
12808000,-0.00136961,-0.00160877,-0.0174045,0.0,0.0,0.0
12840000,-0.00227487,-6.88594e-05,-0.0182447,0.0,0.0,0.0
12868000,-0.00133979,4.55824e-05,-0.0181015,0.0,0.0,0.0
12896000,-0.00086022,0.00083292,-0.0178647,0.0,0.0,0.0
12928000,-0.000749738,0.00067161,-0.018038,0.0,0.0,0.0
12956000,-0.000915847,0.00159042,-0.0177694,0.0,0.0,0.0
12988000,-0.00215991,0.0021734,-0.0179732,0.0,0.0,0.0
13012000,-0.00186825,0.00307031,-0.0183313,0.0,0.0,0.0
13040000,-0.00138292,0.00249048,-0.0182008,0.0,0.0,0.0
13068000,-0.00136461,0.0025957,-0.0183316,0.0,0.0,0.0
13096000,-0.00151429,0.0031573,-0.01904,0.0,0.0,0.0
13128000,-0.000918179,0.00351775,-0.019396,0.0,0.0,0.0
13156000,-0.00115174,0.00401956,-0.0191156,0.0,0.0,0.0
13180000,-0.000458357,0.0027591,-0.0188555,0.0,0.0,0.0
13212000,0.000340676,0.00321508,-0.0190888,0.0,0.0,0.0
13244000,-0.00035871,0.00371836,-0.0193162,0.0,0.0,0.0
13276000,-0.00157259,0.00303286,-0.0192231,0.0,0.0,0.0
13304000,-0.00214217,0.00378687,-0.0191759,0.0,0.0,0.0
13332000,-0.00184537,0.00419576,-0.0192712,0.0,0.0,0.0
13360000,-0.00105884,0.0040982,-0.0189914,0.0,0.0,0.0
13392000,0.000546376,0.00364489,-0.0188285,0.0,0.0,0.0
13424000,-0.000824621,0.00319869,-0.0189873,0.0,0.0,0.0
13456000,3.5754e-05,0.00349964,-0.0192411,0.0,0.0,0.0
13484000,0.000654135,0.00407453,-0.0193281,0.0,0.0,0.0
13516000,0.000337193,0.00474496,-0.0195455,0.0,0.0,0.0
13548000,-0.000386709,0.00487435,-0.0197436,0.0,0.0,0.0
13580000,-0.0011353,0.00546055,-0.0194738,0.0,0.0,0.0
13612000,-0.0012967,0.00528888,-0.0194375,0.0,0.0,0.0
13644000,-0.00120482,0.00539454,-0.0198333,0.0,0.0,0.0
13676000,-0.00172657,0.00571457,-0.0195757,0.0,0.0,0.0
13704000,-0.00139489,0.00503893,-0.0200655,0.0,0.0,0.0
13736000,-0.00149749,0.00558682,-0.0195453,0.0,0.0,0.0
13768000,-0.00226879,0.00464652,-0.019589,0.0,0.0,0.0
13796000,-0.00173614,0.004509,-0.0193938,0.0,0.0,0.0
13828000,-0.000721505,0.00451882,-0.01925,0.0,0.0,0.0
13860000,-7.8953e-05,0.00351802,-0.0192665,0.0,0.0,0.0
13892000,-0.00138121,0.0033547,-0.0192311,0.0,0.0,0.0
13920000,-0.00249294,0.00333465,-0.0192404,0.0,0.0,0.0
13952000,-0.0031362,0.00334007,-0.0194635,0.0,0.0,0.0
13980000,-0.00301394,0.00422202,-0.0190536,0.0,0.0,0.0
14012000,-0.00232784,0.0047083,-0.0189966,0.0,0.0,0.0
14040000,-0.00261297,0.00489352,-0.0190092,0.0,0.0,0.0
14072000,-0.00281598,0.00567797,-0.0189372,0.0,0.0,0.0
14104000,-0.00306587,0.00515477,-0.0185673,0.0,0.0,0.0
14132000,-0.00397679,0.00537374,-0.0184497,0.0,0.0,0.0
14164000,-0.00323181,0.0052357,-0.0182548,0.0,0.0,0.0
14196000,-0.0034831,0.00530058,-0.0185373,0.0,0.0,0.0
14224000,-0.00385591,0.00636123,-0.0189659,0.0,0.0,0.0
14256000,-0.00398816,0.00667769,-0.0193811,0.0,0.0,0.0
14284000,-0.00320901,0.00709212,-0.0197722,0.0,0.0,0.0
14316000,-0.00236756,0.00587381,-0.0200743,0.0,0.0,0.0
14344000,-0.00155431,0.00626301,-0.0197783,0.0,0.0,0.0
14372000,-0.000500799,0.0063046,-0.0195441,0.0,0.0,0.0
14404000,-0.000224953,0.00512138,-0.0198797,0.0,0.0,0.0
14432000,0.000178065,0.00632584,-0.0197268,0.0,0.0,0.0
14464000,0.000786384,0.00600703,-0.0193244,0.0,0.0,0.0
14496000,2.93253e-06,0.0054462,-0.0192445,0.0,0.0,0.0
14524000,-0.000299219,0.00494502,-0.0196782,0.0,0.0,0.0
14552000,0.000401798,0.00625738,-0.0190697,0.0,0.0,0.0
14580000,-0.000239555,0.00771084,-0.0191859,0.0,0.0,0.0
14608000,-0.00111917,0.00748429,-0.0192678,0.0,0.0,0.0
14640000,-0.00139789,0.00661057,-0.0194156,0.0,0.0,0.0
14672000,-0.00191774,0.00560443,-0.0193332,0.0,0.0,0.0
14704000,-0.00248696,0.00570142,-0.0189821,0.0,0.0,0.0
14732000,-0.00397156,0.00708179,-0.0188547,0.0,0.0,0.0
14764000,-0.00468685,0.00620905,-0.0190004,0.0,0.0,0.0
14792000,-0.00525033,0.00598479,-0.0185031,0.0,0.0,0.0
14824000,-0.00539277,0.0057385,-0.0187609,0.0,0.0,0.0
14856000,-0.00591265,0.00684965,-0.0191606,0.0,0.0,0.0
14888000,-0.00507627,0.006596,-0.0194892,0.0,0.0,0.0
14916000,-0.00564701,0.00671233,-0.0193556,0.0,0.0,0.0
14944000,-0.0054816,0.0067325,-0.0194909,0.0,0.0,0.0
14976000,-0.00521504,0.00577398,-0.0198672,0.0,0.0,0.0
15004000,-0.00533084,0.00599973,-0.0197504,0.0,0.0,0.0
15036000,-0.00401909,0.00627673,-0.019936,0.0,0.0,0.0
15068000,-0.00314144,0.00584728,-0.0203869,0.0,0.0,0.0
15100000,-0.00227832,0.00709816,-0.0211698,0.0,0.0,0.0
15132000,-0.00287637,0.0060423,-0.0214147,0.0,0.0,0.0
15160000,-0.00244116,0.00576694,-0.0216938,0.0,0.0,0.0
15188000,-0.00155326,0.0052416,-0.0214428,0.0,0.0,0.0
15220000,-0.00122808,0.00584147,-0.0211921,0.0,0.0,0.0
15252000,-0.00128775,0.00548262,-0.0213836,0.0,0.0,0.0
15284000,-0.00198185,0.00421069,-0.0216045,0.0,0.0,0.0
15312000,-0.0023743,0.00432898,-0.0220372,0.0,0.0,0.0
15344000,-0.00325048,0.00479607,-0.0224303,0.0,0.0,0.0
15372000,-0.00393373,0.00433905,-0.0222046,0.0,0.0,0.0
15400000,-0.00420004,0.00294298,-0.0222629,0.0,0.0,0.0
15432000,-0.00487082,0.0030131,-0.0223716,0.0,0.0,0.0
15464000,-0.00378076,0.00320801,-0.0224342,0.0,0.0,0.0
15492000,-0.0044213,0.00320268,-0.0223673,0.0,0.0,0.0
15516000,-0.00434195,0.00223967,-0.0225662,0.0,0.0,0.0
15544000,-0.00529762,0.00271447,-0.0224727,0.0,0.0,0.0
15572000,-0.00505088,0.00338282,-0.0226682,0.0,0.0,0.0
15604000,-0.00603239,0.00450599,-0.0227603,0.0,0.0,0.0
15636000,-0.00541531,0.00396341,-0.0222592,0.0,0.0,0.0
15668000,-0.00644216,0.00363512,-0.0224514,0.0,0.0,0.0
15696000,-0.00649402,0.00299549,-0.022721,0.0,0.0,0.0
15728000,-0.00685684,0.00325257,-0.0223564,0.0,0.0,0.0
15756000,-0.00655928,0.00230128,-0.0225834,0.0,0.0,0.0
15784000,-0.00742356,0.00218668,-0.0228133,0.0,0.0,0.0
15812000,-0.00755232,0.00227615,-0.0230284,0.0,0.0,0.0
15844000,-0.0080326,0.00245119,-0.0232597,0.0,0.0,0.0
15872000,-0.00878832,0.0019296,-0.023214,0.0,0.0,0.0
15900000,-0.00999438,0.001584,-0.0228483,0.0,0.0,0.0
15928000,-0.00881202,0.00166296,-0.0227159,0.0,0.0,0.0
15952000,-0.00866362,0.00202945,-0.0226694,0.0,0.0,0.0
15984000,-0.00854944,0.00219218,-0.02283,0.0,0.0,0.0
16012000,-0.00827404,0.00192217,-0.0230236,0.0,0.0,0.0
16040000,-0.00854087,0.00238411,-0.0234403,0.0,0.0,0.0
16068000,-0.00749887,0.00179184,-0.0233943,0.0,0.0,0.0
16100000,-0.0069557,0.000732123,-0.0234883,0.0,0.0,0.0
16128000,-0.00683464,0.00108522,-0.0235579,0.0,0.0,0.0
16160000,-0.00704857,0.000564741,-0.0241724,0.0,0.0,0.0
16192000,-0.00727159,0.00105021,-0.0243739,0.0,0.0,0.0
16224000,-0.00618119,0.0012365,-0.0242271,0.0,0.0,0.0
16256000,-0.00660309,0.000664896,-0.0243385,0.0,0.0,0.0
16284000,-0.00668712,7.01328e-05,-0.0243843,0.0,0.0,0.0
16316000,-0.00712488,-1.09102e-05,-0.0242427,0.0,0.0,0.0
16348000,-0.0072853,-0.000534247,-0.0240663,0.0,0.0,0.0
16380000,-0.00605676,7.40596e-05,-0.0239268,0.0,0.0,0.0
16412000,-0.0068219,0.000667638,-0.0238232,0.0,0.0,0.0
16440000,-0.00719393,0.00123946,-0.0240664,0.0,0.0,0.0
16468000,-0.0069151,0.00218274,-0.0241223,0.0,0.0,0.0
16500000,-0.00708641,0.00265856,-0.0236847,0.0,0.0,0.0
16528000,-0.00701623,0.00341965,-0.0231843,0.0,0.0,0.0
16560000,-0.00653168,0.0034525,-0.0228217,0.0,0.0,0.0
16592000,-0.00695295,0.00304075,-0.0230296,0.0,0.0,0.0
16620000,-0.00771996,0.00376774,-0.0228931,0.0,0.0,0.0
16652000,-0.0068488,0.00327354,-0.0229703,0.0,0.0,0.0
16680000,-0.00730194,0.00317323,-0.0230719,0.0,0.0,0.0
16708000,-0.00757619,0.00326369,-0.0229178,0.0,0.0,0.0
16740000,-0.00762049,0.00282837,-0.0228844,0.0,0.0,0.0
16772000,-0.00821169,0.00348478,-0.0230123,0.0,0.0,0.0
16804000,-0.00845736,0.00382928,-0.0233042,0.0,0.0,0.0
16832000,-0.0093784,0.00404,-0.023293,0.0,0.0,0.0
16864000,-0.0104781,0.00480051,-0.0228512,0.0,0.0,0.0
16892000,-0.0109468,0.0049882,-0.0232371,0.0,0.0,0.0
16924000,-0.010586,0.00493676,-0.0232228,0.0,0.0,0.0
16952000,-0.0105569,0.00626557,-0.0233942,0.0,0.0,0.0
16984000,-0.00937916,0.00706608,-0.0230922,0.0,0.0,0.0
17016000,-0.00831403,0.00741038,-0.0227936,0.0,0.0,0.0
17048000,-0.00872887,0.00799426,-0.023337,0.0,0.0,0.0
17080000,-0.00818892,0.0082922,-0.0237799,0.0,0.0,0.0
17112000,-0.00802811,0.0083302,-0.0239176,0.0,0.0,0.0
17144000,-0.00682854,0.00810695,-0.0241623,0.0,0.0,0.0
17172000,-0.00656055,0.00827792,-0.024196,0.0,0.0,0.0
17200000,-0.00654658,0.00769837,-0.0244248,0.0,0.0,0.0
17228000,-0.0066542,0.0072751,-0.0244369,0.0,0.0,0.0
17260000,-0.00708744,0.00693487,-0.024598,0.0,0.0,0.0
17284000,-0.00757763,0.00695212,-0.0248161,0.0,0.0,0.0
17312000,-0.00790276,0.00757514,-0.0248636,0.0,0.0,0.0
17344000,-0.00711328,0.00753649,-0.0245629,0.0,0.0,0.0
17376000,-0.00633238,0.0070148,-0.02433,0.0,0.0,0.0
17408000,-0.0062221,0.00723718,-0.0241654,0.0,0.0,0.0
17440000,-0.00667273,0.00702362,-0.0240264,0.0,0.0,0.0
17472000,-0.0073451,0.00680037,-0.0244896,0.0,0.0,0.0
17500000,-0.00741256,0.00660335,-0.0246442,0.0,0.0,0.0
17528000,-0.00655051,0.00545142,-0.0245886,0.0,0.0,0.0
17560000,-0.00537223,0.00552566,-0.0242697,0.0,0.0,0.0
17592000,-0.0049411,0.00544517,-0.0240704,0.0,0.0,0.0
17624000,-0.00426914,0.00452135,-0.0239141,0.0,0.0,0.0
17652000,-0.00282711,0.005031,-0.0237149,0.0,0.0,0.0
17684000,-0.00319518,0.00410583,-0.0233162,0.0,0.0,0.0
17716000,-0.00359796,0.00305651,-0.0233958,0.0,0.0,0.0
17748000,-0.00372193,0.00267297,-0.023806,0.0,0.0,0.0
17780000,-0.00404442,0.00315727,-0.0237693,0.0,0.0,0.0
17808000,-0.00291794,0.00280882,-0.0236053,0.0,0.0,0.0
17840000,-0.00204956,0.00261727,-0.0235675,0.0,0.0,0.0
17872000,-0.001083,0.00263492,-0.023644,0.0,0.0,0.0
17904000,-0.00131254,0.00342608,-0.0233385,0.0,0.0,0.0
17932000,-0.00211069,0.00329788,0.000104198,0.0,0.0,-0.12
17964000,-0.0264131,0.0182773,-0.000768855,0.0,0.0,-0.120001
17996000,-0.11852,0.00624449,-0.000503255,0.0,0.0,-0.120023
18028000,-0.282896,0.0579533,-0.000137469,0.0,0.0,-0.120137
18060000,-0.332881,0.0906942,6.53062e-05,0.0,0.0,-0.120196
18092000,-0.289253,0.0950901,3.42596e-05,0.0,0.0,-0.128726
18124000,-0.245768,0.0638418,-0.000596132,0.0,0.0,-0.152718
18152000,-0.204498,0.0633329,-0.000703599,0.0,0.0,-0.176951
18184000,-0.200413,0.0558355,-0.00097481,0.0,0.0,-0.190615
18212000,-0.183812,0.0718821,-0.000420235,0.0,0.0,-0.215283
18240000,-0.16724,0.0685549,-0.000697799,0.0,0.0,-0.229279
18272000,-0.13827,0.0560142,-0.00075384,0.0,0.0,-0.254335
18300000,-0.134412,0.055327,-0.000847919,0.0,0.0,-0.268784
18328000,-0.121072,0.0537369,-0.000641657,0.0,0.0,-0.294488
18360000,-0.120225,0.0437524,-0.000976766,0.0,0.0,-0.323005
18388000,-0.115996,0.0393113,-0.00100182,0.0,0.0,-0.334279
18416000,-0.103685,0.0347479,-0.00109282,0.0,0.0,-0.363699
18448000,-0.107265,0.031766,-0.00138777,0.0,0.0,-0.375165
18480000,-0.0982297,0.025566,-0.0013044,0.0,0.0,-0.404547
18512000,-0.0908097,0.0244948,-0.00121188,0.0,0.0,-0.430716
18540000,-0.0837544,0.0177459,-0.000714814,0.0,0.0,-0.445894
18572000,-0.0717283,0.0204992,-0.000924423,0.0,0.0,-0.473304
18600000,-0.075417,0.0196193,-0.000961879,0.0,0.0,-0.501083
18632000,-0.0692001,0.0159176,-0.000929268,0.0,0.0,-0.516383
18656000,-0.0581266,0.00611024,-0.000915226,0.0,0.0,-0.536396
18684000,-0.0408185,0.00762513,-0.00104221,0.0,0.0,-0.544788
18716000,-0.0184171,-0.00177239,-0.00153019,0.0,0.0,-0.549726
18744000,-0.00753054,-0.00620476,-0.00159389,0.0,0.0,-0.553573
18776000,0.0117994,-0.00701599,-0.00132013,0.0,0.0,-0.553056
18808000,0.0241653,-0.0100691,-0.00108557,0.0,0.0,-0.559352
18832000,0.0336902,-0.0119612,-0.00135402,0.0,0.0,-0.553729
18860000,0.035111,-0.0104557,-0.00125507,0.0,0.0,-0.556024
18888000,0.0470902,-0.00941643,-0.00110593,0.0,0.0,-0.552815
18916000,0.0459129,-0.00729402,-0.00110287,0.0,0.0,-0.559388
18948000,0.0469681,-0.0105082,-0.00178908,0.0,0.0,-0.553445
18976000,0.039954,-0.00868229,-0.00172359,0.0,0.0,-0.559468
19008000,0.0454503,-0.0137771,-0.00200696,0.0,0.0,-0.555947
19036000,0.0391263,-0.0129074,-0.00190195,0.0,0.0,-0.559419
19064000,0.0430777,-0.0130451,-0.00183383,0.0,0.0,-0.555674
19092000,0.0332954,-0.012142,-0.00147857,0.0,0.0,-0.558966
19120000,0.0294647,-0.0123405,-0.000910543,0.0,0.0,-0.553643
19152000,0.0231546,-0.00972156,-0.00075113,0.0,0.0,-0.560821
19180000,0.0280008,-0.0101412,-0.000248199,0.0,0.0,-0.557913
19212000,0.0260144,-0.00749034,-3.97246e-05,0.0,0.0,-0.561435
19240000,0.0220667,-0.00710519,8.22656e-05,0.0,0.0,-0.557611
19268000,0.0215183,-0.00596644,-0.000252323,0.0,0.0,-0.560994
19296000,0.0227749,-0.00585176,0.000174869,0.0,0.0,-0.558076
19324000,0.0168345,-0.00669843,0.00060148,0.0,0.0,-0.561475
19352000,0.0126752,-0.0053205,0.000725722,0.0,0.0,-0.557999
19376000,0.00990338,-0.00588014,0.000883849,0.0,0.0,-0.561029
19404000,0.00924535,-0.00629603,0.00133694,0.0,0.0,-0.558354
19436000,0.0130986,-0.00291002,0.00144985,0.0,0.0,-0.561837
19468000,0.00818626,0.0015897,0.00171465,0.0,0.0,-0.558405
19496000,0.00453775,-0.00145497,0.00175112,0.0,0.0,-0.55586
19528000,0.00787512,0.00010165,0.00163325,0.0,0.0,-0.55826
19556000,0.00780419,0.00247006,0.00181632,0.0,0.0,-0.5564
19584000,0.00949097,0.00383743,0.00157538,0.0,0.0,-0.558907
19612000,0.0109663,0.00268213,0.00133514,0.0,0.0,-0.557489
19644000,0.00995223,0.00480572,0.000918662,0.0,0.0,-0.559909
19672000,0.010631,0.0051569,0.000922171,0.0,0.0,-0.557939
19704000,0.0125564,0.00318102,0.000643864,0.0,0.0,-0.564379
19736000,0.00639354,-0.000788626,0.000472885,0.0,0.0,-0.560975
19768000,0.00687242,-0.00139299,0.000591081,0.0,0.0,-0.563754
19792000,0.00903468,-0.00176019,0.000188828,0.0,0.0,-0.560589
19824000,0.0116222,-0.00349881,0.000261946,0.0,0.0,-0.564024
19856000,0.0143716,-0.00332328,0.000544382,0.0,0.0,-0.560495
19888000,0.0111194,-0.00620832,0.00102806,0.0,0.0,-0.558115
19920000,0.0154962,-0.00401445,0.000787055,0.0,0.0,-0.560898
19952000,0.0131222,-0.00127847,0.000546657,0.0,0.0,-0.558083
19984000,0.0125908,0.00125744,0.000496175,0.0,0.0,-0.563292
20012000,0.00857027,0.00399275,0.00041453,0.0,0.0,-0.55699
20036000,0.00653574,0.00141338,0.000925172,0.0,0.0,-0.562036
20068000,0.00187406,9.07256e-05,0.000920629,0.0,0.0,-0.555845
20096000,0.00377832,-0.00415441,0.000892745,0.0,0.0,-0.562037
20128000,0.000300826,-0.00558424,0.00094839,0.0,0.0,-0.556238
20160000,0.00819357,-0.00106582,0.000581358,0.0,0.0,-0.562614
20192000,0.0075739,-0.00599496,0.000867577,0.0,0.0,-0.558341
20224000,0.00624653,-0.000669269,0.00142403,0.0,0.0,-0.555523
20256000,0.00319671,-0.00407566,0.00135198,0.0,0.0,-0.558386
20288000,0.00208065,-0.00624181,0.00145403,0.0,0.0,-0.555919
20320000,0.00584535,-0.00972693,0.00164678,0.0,0.0,-0.561942
20348000,0.00329171,-0.00853037,0.0017479,0.0,0.0,-0.555839
20380000,-0.000717017,-0.00223458,0.0157018,0.0,0.0,-0.561759
20412000,-0.000510138,-0.00749213,0.0156951,0.0,0.0,-0.558197
20444000,0.000586832,-0.00114111,0.0153852,0.0,0.0,-0.561517
20476000,-0.00327329,-0.00501528,0.0143156,0.0,0.0,-0.558189
20508000,-0.00272459,-0.000129976,0.0132629,0.0,0.0,-0.555645
20536000,-0.00315829,-0.000148004,0.0122334,0.0,0.0,-0.558358
20568000,-0.00499871,-0.000607683,0.0108228,0.0,0.0,-0.511855
20600000,-0.00227088,-0.00452683,0.00962562,0.0,0.0,-0.482315
20632000,0.00367927,-0.000240678,0.00800282,0.0,0.0,-0.454631
20664000,0.00525827,0.0016094,0.00679901,0.0,0.0,-0.45386
20696000,0.00434547,0.000655336,0.00548692,0.0,0.0,-0.444062
20728000,0.0115827,0.00601724,0.00378095,0.0,0.0,-0.439386
20760000,0.0117537,0.000705742,0.00285003,0.0,0.0,-0.442704
20792000,0.0083004,0.00601166,0.00243246,0.0,0.0,-0.441655
20824000,0.00970654,0.00316173,0.0013812,0.0,0.0,-0.449873
20856000,0.0143216,0.00784448,0.000681069,0.0,0.0,-0.444112
20888000,0.00874861,-0.00117805,-0.0003259,0.0,0.0,-0.452707
20916000,0.00665588,-0.00480276,-0.000865242,0.0,0.0,-0.450548
20948000,0.007705,-0.00122214,-0.00130066,0.0,0.0,-0.455005
20980000,0.00222361,-0.0043355,-0.0021822,0.0,0.0,-0.452228
21008000,0.0127409,-0.0065949,-0.0030596,0.0,0.0,-0.449208
21040000,0.0134822,-0.0117781,-0.00384043,0.0,0.0,-0.452623
21072000,0.0122344,-0.00809857,-0.00405997,0.0,0.0,-0.450303
21104000,0.0122977,-0.00348968,-0.00465751,0.0,0.0,-0.456978
21136000,0.0074828,-0.00174948,-0.00514378,0.0,0.0,-0.450201
21168000,0.0108778,-0.00403663,-0.00497397,0.0,0.0,-0.457592
21200000,0.00832475,-0.000535,-0.00487966,0.0,0.0,-0.45503
21228000,0.00898319,0.000523694,-0.00509099,0.0,0.0,-0.459506
21256000,0.0059237,-0.00111703,-0.00492909,0.0,0.0,-0.456594
21288000,0.000691775,-0.00204868,-0.00405056,0.0,0.0,-0.455089
21320000,-0.00393266,-0.00242682,-0.00301755,0.0,0.0,-0.458703
21348000,-0.00084285,-0.00638642,-0.00257681,0.0,0.0,-0.457077
21380000,-9.69434e-05,-0.0029943,-0.0019384,0.0,0.0,-0.465821
21412000,0.00350333,-0.00216902,-0.0013668,0.0,0.0,-0.460091
21444000,0.00625318,0.00366774,-0.000638902,0.0,0.0,-0.467898
21472000,0.00682925,-0.00042453,-0.000289533,0.0,0.0,-0.465402
21500000,0.00706981,-0.00440591,0.000148287,0.0,0.0,-0.469226
21524000,0.00562326,-0.00171755,0.000138531,0.0,0.0,-0.463384
21556000,0.00744533,-0.00701713,0.000477545,0.0,0.0,-0.471229
21584000,0.0105772,-0.00157193,0.000314752,0.0,0.0,-0.464818
21616000,0.00834835,-0.00436923,7.12574e-05,0.0,0.0,-0.472396
21644000,0.00975658,0.00272287,0.000147717,0.0,0.0,-0.470357
21676000,0.0115445,-0.000814913,0.000520332,0.0,0.0,-0.474798
21708000,0.0138272,-0.00454886,0.000836262,0.0,0.0,-0.472463
21740000,0.0191023,-0.00843497,0.000679521,0.0,0.0,-0.470443
21772000,0.0174724,-0.0080572,0.00108699,0.0,0.0,-0.477797
21800000,0.00908415,-0.00267745,0.00105198,0.0,0.0,-0.47106
21832000,0.00519448,-0.00442147,0.00150447,0.0,0.0,-0.478839
21860000,0.00642954,-0.00670712,0.00133688,0.0,0.0,-0.472513
21888000,0.00792474,-0.00513271,0.0014032,0.0,0.0,-0.480153
21916000,0.0104799,-0.00795213,0.00154909,0.0,0.0,-0.474337
21948000,0.00853079,-0.00880404,0.00190509,0.0,0.0,-0.481096
21980000,0.00506315,-0.00442417,0.00128334,0.0,0.0,-0.477747
22008000,0.00174831,-0.00542048,0.000847505,0.0,0.0,-0.482078
22040000,0.00233694,-0.00108909,0.00117666,0.0,0.0,-0.478477
22072000,0.00205782,0.0031962,0.00119436,0.0,0.0,-0.475613
22104000,0.00510834,0.000631976,0.00113853,0.0,0.0,-0.478817
22136000,0.00771246,-0.00175812,0.00155474,0.0,0.0,-0.477136
22168000,0.00794227,-0.00535837,0.00170409,0.0,0.0,-0.484578
22196000,0.00914904,-0.00598906,0.00152149,0.0,0.0,-0.478355
22228000,0.00503591,-0.00394221,0.00144891,0.0,0.0,-0.485271
22260000,0.00624484,-0.00444383,0.00145463,0.0,0.0,-0.482091
22292000,0.00457404,-0.00281981,0.00120214,0.0,0.0,-0.485873
22324000,0.000634571,-0.00495677,0.000858391,0.0,0.0,-0.482499
22356000,0.0055467,-0.0113444,0.000203284,0.0,0.0,-0.480747
22384000,0.00501444,-0.00916143,2.38493e-05,0.0,0.0,-0.484072
22416000,0.00449783,-0.00677516,0.000162162,0.0,0.0,-0.481664
22440000,0.00380838,-0.00660965,0.000321116,0.0,0.0,-0.484573
22472000,0.0114219,0.000132128,-6.68708e-05,0.0,0.0,-0.482038
22504000,0.0132457,0.0023034,0.000146477,0.0,0.0,-0.489496
22528000,0.0166062,0.00152061,9.38606e-05,0.0,0.0,-0.483213
22560000,0.0128404,-0.00519719,-0.000163754,0.0,0.0,-0.491088
22592000,0.0119555,-0.00686323,-0.000393363,0.0,0.0,-0.483906
22624000,0.0125915,-0.0026214,-0.000674559,0.0,0.0,-0.491539
22652000,0.00840537,-0.00500312,-0.00118828,0.0,0.0,-0.488285
22680000,0.00851762,-0.00399227,-0.00105975,0.0,0.0,-0.492063
22708000,0.00726311,-1.01413e-05,-0.00119276,0.0,0.0,-0.48766
22740000,0.0033906,0.000322539,-0.00175787,0.0,0.0,-0.491724
22768000,-0.00184771,-0.00462895,-0.00189913,0.0,0.0,-0.488358
22800000,-0.00624211,0.00536544,-0.00145833,0.0,0.0,-0.485258
22832000,-0.00149644,0.000645016,-0.00138417,0.0,0.0,-0.488523
22864000,-0.00887777,-0.000622277,-0.00190321,0.0,0.0,-0.486306
22896000,-0.00847208,0.00337208,-0.00184606,0.0,0.0,-0.493514
22928000,-0.00230702,-0.00128683,-0.00137324,0.0,0.0,-0.487129
22960000,-0.00254208,-0.00131344,-0.000601463,0.0,0.0,-0.49352
22992000,0.0126775,0.0010352,-0.000210486,0.0,0.0,-0.489128
23024000,0.0120133,0.00362875,-0.00012004,0.0,0.0,-0.485987
23056000,0.0121782,0.00433511,-0.000217661,0.0,0.0,-0.489081
23088000,0.00899137,0.00803706,-0.000124466,0.0,0.0,-0.486449
23120000,0.00400203,0.000520053,-0.000239231,0.0,0.0,-0.493557
23152000,0.00598168,-0.00365977,-0.000247026,0.0,0.0,-0.486846
23184000,0.0087536,-0.000290511,-0.000365864,0.0,0.0,-0.493398
23216000,0.00928407,0.00207246,-0.000292121,0.0,0.0,-0.489729
23248000,0.00826074,0.00469978,-0.000163693,0.0,0.0,-0.486067
23280000,0.00890805,0.00198674,9.78224e-05,0.0,0.0,-0.489062
23308000,0.00351402,-0.00537075,2.2307e-05,0.0,0.0,-0.486267
23336000,0.00598457,-0.00567123,-0.000118621,0.0,0.0,-0.489959
23368000,0.0103207,-0.0078515,0.000434345,0.0,0.0,-0.488003
23400000,0.00812618,-0.00755767,0.00039058,0.0,0.0,-0.495259
23432000,0.012436,-0.00129352,0.000785027,0.0,0.0,-0.491085
23464000,0.0116421,-0.00272421,0.000806674,0.0,0.0,-0.494923
23496000,0.00318978,0.00574382,0.0012653,0.0,0.0,-0.49036
23524000,0.000851549,0.000744004,0.000647301,0.0,0.0,-0.493976
23548000,0.00334066,0.0049944,-4.99282e-05,0.0,0.0,-0.490406
23580000,0.00448515,0.00294189,-0.000272457,0.0,0.0,-0.494456
23608000,-0.00251004,-0.00243674,-0.000308577,0.0,0.0,-0.489937
23636000,-0.00340381,-0.00110954,-0.000279799,0.0,0.0,-0.493713
23664000,-0.00273946,0.000481133,-0.000694854,0.0,0.0,-0.490668
23696000,-0.00927145,0.00194025,-0.000461139,0.0,0.0,-0.487405
23724000,-0.0021691,-0.003996,-0.000173131,0.0,0.0,-0.490109
23756000,0.0100192,-0.00136896,1.57971e-05,0.0,0.0,-0.485832
23784000,0.00860399,0.00168702,-0.000755953,0.0,0.0,-0.488925
23812000,0.0025696,-0.00842313,-0.000644362,0.0,0.0,-0.487294
23844000,0.00307342,-0.00867102,-0.000666685,0.0,0.0,-0.490768
23876000,0.0020089,-0.00245986,-0.00112017,0.0,0.0,-0.488803
23908000,0.00609054,0.00406163,-0.000982175,0.0,0.0,-0.49541
23940000,0.00568374,0.00817918,-0.00146958,0.0,0.0,-0.490735
23972000,0.00377487,0.00792086,-0.00125891,0.0,0.0,-0.494654
24004000,-0.00212529,0.0116443,-0.00124271,0.0,0.0,-0.491744
24036000,-0.00154871,0.0157978,-0.000645535,0.0,0.0,-0.488959
24064000,-0.00103573,0.0105913,-0.000721391,0.0,0.0,-0.492251
24092000,-0.000291569,0.0102463,-0.000500802,0.0,0.0,-0.488838
24120000,-0.00416396,0.00871079,-0.000808323,0.0,0.0,-0.491464
24152000,-0.00960439,0.00967921,-0.000701386,0.0,0.0,-0.48889
24184000,-0.00781145,0.00468947,-8.75406e-05,0.0,0.0,-0.495997
24212000,-0.00475807,-0.00167798,-3.02307e-05,0.0,0.0,-0.489227
24240000,0.000243847,-0.00256204,-0.000213018,0.0,0.0,-0.496857
24268000,-0.00479945,0.00181876,-0.000432853,0.0,0.0,-0.490255
24300000,-0.00291034,0.000539081,-0.000374191,0.0,0.0,-0.496532
24332000,-0.00562644,-0.00193511,-0.000304325,0.0,0.0,-0.492238
24364000,-0.00198695,-0.000221204,0.000102678,0.0,0.0,-0.495876
24388000,-0.00425977,-0.00220331,0.000133015,0.0,0.0,-0.491412
24416000,-0.00279765,0.000663611,0.000187302,0.0,0.0,-0.495505
24444000,-0.00385804,-0.000768338,0.000234263,0.0,0.0,-0.492278
24476000,-0.00584426,-0.00203938,0.000136865,0.0,0.0,-0.495785
24508000,0.00139752,-0.00180994,0.000454579,0.0,0.0,-0.491151
24540000,0.00414309,2.37643e-06,0.000617132,0.0,0.0,-0.488597
24572000,0.00508936,-0.00397933,0.000979945,0.0,0.0,-0.495843
24604000,0.00566341,-0.00391969,0.00149294,0.0,0.0,-0.489356
24632000,0.00251655,-0.00159451,0.00106364,0.0,0.0,-0.495934
24660000,0.0026154,-0.00283459,0.000677828,0.0,0.0,-0.488976
24692000,-0.0036264,-0.00512683,0.000572652,0.0,0.0,-0.496142
24724000,-0.00476487,-0.000539992,0.000118805,0.0,0.0,-0.492921
24756000,-0.00623217,-0.000954611,-0.000396095,0.0,0.0,-0.496578
24780000,-0.00681125,-0.00152353,-0.000585878,0.0,0.0,-0.491931
24812000,-0.00539872,-0.000952166,-0.000121012,0.0,0.0,-0.495538
24840000,-0.00207102,-0.00495893,6.9961e-06,0.0,0.0,-0.492217
24868000,-0.000557694,-0.00643563,0.00014532,0.0,0.0,-0.496069
24896000,-0.00757144,0.00743967,7.67112e-05,0.0,0.0,-0.491728
24920000,-0.00308865,0.00765046,0.000108892,0.0,0.0,-0.495134
24952000,0.000505116,0.00480445,0.00020943,0.0,0.0,-0.491694
24976000,0.00589638,0.00234811,0.000371614,0.0,0.0,-0.495453
25004000,0.00491038,0.00303012,0.000358103,0.0,0.0,-0.491913
25036000,0.00148447,0.00611423,0.001022,0.0,0.0,-0.495696
25064000,0.00155233,-0.000364346,0.000942014,0.0,0.0,-0.491339
25092000,0.00625305,-0.00131006,0.0011332,0.0,0.0,-0.496551
25120000,0.000880112,-0.00254224,0.000957297,0.0,0.0,-0.499958
25152000,0.00532724,-0.00412914,0.000297703,0.0,0.0,-0.508067
25184000,0.0060759,-0.00248534,0.000209598,0.0,0.0,-0.519481
25212000,-0.000957979,0.000125262,0.000229714,0.0,0.0,-0.530722
25240000,0.00175243,0.0010018,0.00030442,0.0,0.0,-0.54414
25268000,-0.000457618,-0.00422673,0.000847578,0.0,0.0,-0.554229
25300000,0.00260484,-0.00468116,0.000755232,0.0,0.0,-0.567551
25332000,0.0106515,-0.0121868,0.000684349,0.0,0.0,-0.576342
25360000,0.00637941,-0.013413,0.00071691,0.0,0.0,-0.608566
25392000,0.00454942,-0.00993482,0.000953967,0.0,0.0,-0.599658
25424000,0.00551957,-0.00760972,0.0011527,0.0,0.0,-0.635034
25456000,0.00410617,-0.00303524,0.000601346,0.0,0.0,-0.639729
25488000,0.00415393,-0.00182182,0.000607789,0.0,0.0,-0.644185
25520000,0.00424195,-0.00243268,0.000868812,0.0,0.0,-0.661615
25552000,0.00365331,-0.0010309,0.000741798,0.0,0.0,-0.654137
25580000,0.00419717,-0.00331857,0.000632068,0.0,0.0,-0.662628
25608000,0.0031881,0.00110776,0.00067533,0.0,0.0,-0.641857
25636000,-0.000273412,-0.00284817,0.000749432,0.0,0.0,-0.655409
25664000,-0.0014302,-0.00302558,0.000752851,0.0,0.0,-0.625095
25692000,-0.000135188,-0.00206922,0.000905603,0.0,0.0,-0.628864
25724000,0.000165116,-0.00276055,0.000344882,0.0,0.0,-0.606564
25752000,0.0026531,0.00120566,-0.000122275,0.0,0.0,-0.613405
25780000,0.000920369,0.00231867,-0.000884006,0.0,0.0,-0.58283
25812000,-0.000579924,0.0108371,-0.00157203,0.0,0.0,-0.556778
25840000,0.00501786,0.00924847,-0.00178535,0.0,0.0,-0.523028
25868000,0.00261262,0.00715631,-0.00227003,0.0,0.0,-0.515425
25900000,-0.00277374,0.00764351,-0.00247946,0.0,0.0,-0.505797
25928000,-0.000632957,0.0122668,-0.00235168,0.0,0.0,-0.503822
25960000,-0.00257206,0.0118249,-0.00244907,0.0,0.0,-0.501265
25988000,-0.00366374,0.00543487,-0.00257458,0.0,0.0,-0.500572
26020000,0.003387,0.00650106,-0.00261069,0.0,0.0,-0.501183
26052000,0.00525951,0.000842409,-0.00241239,0.0,0.0,-0.501186
26076000,0.00613465,0.00112643,-0.00236098,0.0,0.0,-0.500881
26108000,0.0162889,0.00535819,-0.00225121,0.0,0.0,-0.500638
26140000,0.0117665,0.00757679,-0.00219258,0.0,0.0,-0.500498
26172000,0.0113635,0.00823037,-0.0016553,0.0,0.0,-0.499377
26204000,0.00929186,0.00648745,-0.0015092,0.0,0.0,-0.498761
26232000,0.00610644,0.00559032,-0.00114436,0.0,0.0,-0.498011
26264000,0.00661782,0.00379128,-0.000574071,0.0,0.0,-0.497711
26296000,0.00939953,0.00121924,-0.000402963,0.0,0.0,-0.49703
26328000,0.00727903,-0.00102407,-0.000187771,0.0,0.0,-0.495709
26356000,0.00497544,0.00282698,8.13603e-05,0.0,0.0,-0.495191
26388000,-0.00387424,-0.000169378,-0.000161257,0.0,0.0,-0.495141
26416000,-0.00372093,-0.00118668,-0.000223266,0.0,0.0,-0.494542
26444000,-0.00862711,-0.00134633,-3.94452e-05,0.0,0.0,-0.494029
26472000,-0.0052921,-0.00072854,0.000476925,0.0,0.0,-0.494292
26504000,-0.00327293,0.000515206,0.00079889,0.0,0.0,-0.49416
26536000,0.000651059,0.0012299,0.000778304,0.0,0.0,-0.493982
26568000,-0.00235585,-0.00189088,0.00100723,0.0,0.0,-0.49415
26596000,-0.000207124,-0.00406884,0.00117543,0.0,0.0,-0.493965
26624000,-0.000888662,-0.00284797,0.000945825,0.0,0.0,-0.493653
26656000,0.00107244,0.00216884,0.00106357,0.0,0.0,-0.492945
26688000,-0.00178594,0.00292494,0.000913667,0.0,0.0,-0.492355
26720000,0.00127914,0.00517277,0.000820711,0.0,0.0,-0.491893
26752000,0.00064217,-0.000578743,0.0010679,0.0,0.0,-0.491938
26780000,0.000945777,-0.00132326,0.00111856,0.0,0.0,-0.492147
26808000,0.00149139,0.0045608,0.000502383,0.0,0.0,-0.491895
26836000,-0.00717444,-0.00219723,0.000434255,0.0,0.0,-0.491531
26864000,-0.0056786,-0.00573944,-1.90884e-05,0.0,0.0,-0.491988
26896000,-0.00161244,-0.00421144,9.30224e-05,0.0,0.0,-0.49263
26924000,0.00299745,0.00105232,3.70648e-05,0.0,0.0,-0.492967
26956000,-0.00230821,0.00126256,-1.25617e-05,0.0,0.0,-0.49312
26984000,-0.00154006,-0.00278739,-0.000616433,0.0,0.0,-0.492528
27012000,0.00043516,-0.00160114,-0.00102821,0.0,0.0,-0.491753
27040000,0.00113145,0.00674287,-0.000703225,0.0,0.0,-0.491774
27068000,0.00253105,0.0031638,-0.000802444,0.0,0.0,-0.49204
27100000,0.00431383,0.000104123,-0.000846528,0.0,0.0,-0.492155
27132000,0.00756485,-0.00108126,-0.000742167,0.0,0.0,-0.492746
27164000,0.0051654,-0.000281932,-0.000351224,0.0,0.0,-0.492788
27192000,0.00602196,-0.000227845,-0.000231776,0.0,0.0,-0.493026
27220000,0.00548628,0.00227727,-0.000357611,0.0,0.0,-0.492487
27252000,-0.000955709,0.00652887,-8.56854e-05,0.0,0.0,-0.491958
27284000,0.00497163,0.00486455,-0.000125701,0.0,0.0,-0.491803
27312000,0.00888799,0.00179609,2.24803e-05,0.0,0.0,-0.49206
27340000,0.005139,0.0032578,-8.69371e-05,0.0,0.0,-0.492606
27368000,0.00459133,0.00244806,-0.000288069,0.0,0.0,-0.492635
27400000,0.00087551,-0.00677555,5.07385e-06,0.0,0.0,-0.493659
27432000,0.000742777,-0.00509791,5.92321e-06,0.0,0.0,-0.49405
27464000,-0.00143064,-0.00713998,-0.000328951,0.0,0.0,-0.494094
27496000,0.00178849,-0.00832238,-0.000420883,0.0,0.0,-0.494758
27528000,-0.00631472,-0.00832889,-0.000577966,0.0,0.0,-0.495361
27560000,0.00207752,-0.0125864,-0.000471432,0.0,0.0,-0.495714
27592000,0.00588922,-0.0128474,-0.000290791,0.0,0.0,-0.495361
27624000,0.000935247,-0.00584206,-0.000304325,0.0,0.0,-0.495103
27656000,0.000623471,-0.00350197,9.01613e-05,0.0,0.0,-0.494805
27684000,-0.000808818,-0.00481097,0.000205966,0.0,0.0,-0.494492
27712000,0.00240294,-0.00780642,0.000175791,0.0,0.0,-0.494959
27736000,0.00721058,-0.0041652,0.000305889,0.0,0.0,-0.495094
27764000,0.00638188,-0.00329121,0.000343507,0.0,0.0,-0.495558
27792000,0.0118494,0.00168331,0.000428265,0.0,0.0,-0.494991
27820000,0.00736702,-0.000207264,0.000136496,0.0,0.0,-0.494656
27852000,0.00685299,0.00227117,3.46899e-05,0.0,0.0,-0.494546
27884000,0.00542786,0.00388453,7.60742e-05,0.0,0.0,-0.494265
27912000,0.00677145,-0.000246696,0.0002829,0.0,0.0,-0.494269
27940000,0.00615712,0.00110562,0.000157742,0.0,0.0,-0.494527
27968000,-0.000392457,-0.00250486,0.000592243,0.0,0.0,-0.495529
28000000,-0.0012095,-0.00147319,5.24148e-05,0.0,0.0,-0.4959
28032000,0.00266549,-0.00455994,0.000567231,0.0,0.0,-0.496091
28064000,0.00229402,-0.0032244,0.000307096,0.0,0.0,-0.496266
28096000,-0.00149823,-0.00490759,0.000232408,0.0,0.0,-0.496215
28124000,-0.0080889,-0.00497337,-0.000135742,0.0,0.0,-0.496118
28152000,-0.00314556,4.31863e-06,-0.000457451,0.0,0.0,-0.496044
28180000,-0.00298348,-0.00494076,-0.00075997,0.0,0.0,-0.495791
28212000,-0.000411326,-0.00155732,-0.000724291,0.0,0.0,-0.495812
28240000,0.000892493,-0.00562178,-0.000635918,0.0,0.0,-0.495491
28272000,-0.000719418,-0.00189552,-0.000478674,0.0,0.0,-0.495554
28304000,-0.00144418,-0.000757972,-0.000887951,0.0,0.0,-0.49623
28332000,-0.00536041,0.00213305,-0.000689138,0.0,0.0,-0.496485
28364000,0.00317394,0.00205973,-0.000628201,0.0,0.0,-0.496664
28392000,0.00357405,0.0029505,-0.000386635,0.0,0.0,-0.496561
28420000,0.00303086,0.00869881,-0.000139117,0.0,0.0,-0.496357
28448000,0.00138326,0.00641321,-9.76101e-05,0.0,0.0,-0.49657
28476000,-0.0024573,0.00775817,-5.77178e-05,0.0,0.0,-0.496364
28508000,-0.00193395,0.00667318,-2.24859e-05,0.0,0.0,-0.496408
28540000,-0.00222517,0.00355036,-0.00049556,0.0,0.0,-0.496521
28572000,-0.0018132,-0.00332263,-0.00069201,0.0,0.0,-0.49671
28604000,0.00230074,-0.00563327,-7.93878e-05,0.0,0.0,-0.495976
28636000,0.00661097,-0.00453456,-0.000537822,0.0,0.0,-0.495472
28668000,0.00418108,-0.00407393,-0.000192672,0.0,0.0,-0.49561
28696000,0.000734631,-0.00587064,-0.000398682,0.0,0.0,-0.495773
28728000,0.00480681,-0.00663807,-8.42158e-05,0.0,0.0,-0.495727
28760000,0.00701629,-0.00631964,-8.28691e-06,0.0,0.0,-0.494897
28792000,0.0015865,-0.00770741,0.000122264,0.0,0.0,-0.495056
28824000,0.00331231,-0.00667747,2.38102e-05,0.0,0.0,-0.495601
28852000,0.00193451,-0.00140695,0.00061042,0.0,0.0,-0.49594
28884000,0.00326165,-0.000495737,0.000537196,0.0,0.0,-0.496255
28916000,-0.00237956,-0.00900476,0.00018529,0.0,0.0,-0.495861
28948000,0.000707506,-0.00795697,0.000462167,0.0,0.0,-0.495287
28976000,-0.0044846,-0.00360194,4.5022e-05,0.0,0.0,-0.495214
29004000,-0.0081399,0.000476214,0.000207921,0.0,0.0,-0.493815
29032000,-0.00981149,0.00317981,0.000307873,0.0,0.0,-0.495149
29064000,0.000592754,0.000502412,0.000312069,0.0,0.0,-0.492194
29088000,-0.00105046,0.00247806,0.000134351,0.0,0.0,-0.49547
29120000,-0.00299051,-0.00130634,4.10769e-05,0.0,0.0,-0.4899
29152000,0.0021845,-0.000995324,0.000542616,0.0,0.0,-0.495958
29180000,0.0027664,0.00290931,0.000974922,0.0,0.0,-0.488462
29208000,0.00280964,0.00411517,0.000802187,0.0,0.0,-0.497385
29240000,0.00819984,0.00524294,0.000935096,0.0,0.0,-0.488808
29264000,0.0104004,0.00508379,0.000830339,0.0,0.0,-0.499294
29296000,0.00993858,0.00780888,0.000708366,0.0,0.0,-0.488755
29324000,0.00617677,0.00382844,0.000383981,0.0,0.0,-0.500896
29356000,0.00691195,0.000144247,6.21937e-05,0.0,0.0,-0.494706
29388000,0.00754326,-0.00601238,-0.000261918,0.0,0.0,-0.501276
29420000,0.00972643,-0.00557821,-0.000327621,0.0,0.0,-0.494004
29448000,0.00380383,-0.00431608,-0.000821538,0.0,0.0,-0.487497
29480000,-0.00469323,-0.00334221,-0.00114452,0.0,0.0,-0.494192
29508000,-0.0106081,-0.00667041,-0.00109171,0.0,0.0,-0.487918
29536000,-0.00904692,-0.00278271,-0.00117713,0.0,0.0,-0.494689
29564000,-0.00516149,-0.00411585,-0.00131441,0.0,0.0,-0.488647
29588000,-0.00284821,-0.00595194,-0.0012145,0.0,0.0,-0.494772
29616000,-0.000637954,0.00100652,-0.00105934,0.0,0.0,-0.488661
29648000,-0.00135942,0.000823575,-0.000984108,0.0,0.0,-0.495577
29676000,0.00193463,0.00116717,-0.000869723,0.0,0.0,-0.490942
29708000,-0.00341072,-0.00310659,-0.00112073,0.0,0.0,-0.49726
29740000,-0.00915373,-0.00840523,-0.00120048,0.0,0.0,-0.49242
29772000,-0.0110469,-0.00541588,-0.00105067,0.0,0.0,-0.506855
29800000,-0.0100504,0.000531266,-0.000965942,0.0,0.0,-0.499752
29832000,-0.00597951,-0.0029045,-0.00123057,0.0,0.0,-0.506233
29864000,-0.010166,-0.00357907,-0.00122071,0.0,0.0,-0.498141
29892000,-0.00940874,-0.00399033,-0.000566633,0.0,0.0,-0.504369
29920000,-0.012364,0.00675497,-0.00043891,0.0,0.0,-0.498677
29952000,-0.00436988,0.00932685,-0.000320865,0.0,0.0,-0.491935
29980000,-0.00305685,0.00875753,-0.000898216,0.0,0.0,-0.497875
30012000,0.000921177,-0.00017862,-0.000515928,0.0,0.0,-0.490821
30040000,-9.19053e-05,0.00433672,-0.000723291,0.0,0.0,-0.497417
30068000,0.00739281,-0.000468239,-0.000566516,0.0,0.0,-0.490354
30096000,0.0066679,-0.000288066,-3.5299e-05,0.0,0.0,-0.496419
30124000,0.00914639,-0.00207718,-0.000181362,0.0,0.0,-0.489352
30152000,0.00721744,-0.00420819,1.5093e-05,0.0,0.0,-0.495452
30184000,0.00824689,-0.00115249,0.000448437,0.0,0.0,-0.489458
30216000,0.00809585,0.000589599,7.62641e-05,0.0,0.0,-0.50113
30248000,0.0099269,0.00353421,0.000582587,0.0,0.0,-0.496745
30280000,0.00802134,0.00261967,0.000775013,0.0,0.0,-0.501404
30312000,0.00262042,0.00402768,0.000723464,0.0,0.0,-0.497001
30344000,0.0042805,0.0060447,0.00078534,0.0,0.0,-0.49001
30376000,0.00223261,0.00548287,0.000429656,0.0,0.0,-0.496626
30404000,0.000368425,0.00427504,0.000760356,0.0,0.0,-0.489874
30432000,0.00123568,0.00245869,0.000171628,0.0,0.0,-0.495963
30464000,0.00374397,0.00315324,-2.29944e-05,0.0,0.0,-0.489527
30492000,0.0082201,0.00156101,0.000294697,0.0,0.0,-0.50089
30524000,0.00986234,0.000577029,0.0001429,0.0,0.0,-0.489398
30552000,0.0118483,-0.00339894,-3.62266e-05,0.0,0.0,-0.501226
30576000,0.012827,-0.00288385,-0.000252703,0.0,0.0,-0.489091
30604000,0.0100557,-0.00824009,-0.000142766,0.0,0.0,-0.501793
30632000,0.0117155,-0.00854057,-0.000488441,0.0,0.0,-0.488934
30660000,0.0126507,-0.0105673,-0.000575876,0.0,0.0,-0.501639
30692000,0.0158667,-0.0111488,-0.000856994,0.0,0.0,-0.489044
30724000,0.0070127,-0.00657552,-0.000294216,0.0,0.0,-0.501921
30752000,0.00398036,-0.00857171,-0.000580514,0.0,0.0,-0.495322
30784000,0.00399137,-0.00989472,-0.000614751,0.0,0.0,-0.502932
30812000,0.00235175,-0.00438849,-0.000883179,0.0,0.0,-0.495051
30840000,0.00311487,0.000207729,-0.000998262,0.0,0.0,-0.502391
30872000,0.00506526,0.0023209,-0.000940192,0.0,0.0,-0.494665
30900000,-0.000163356,0.00419343,-0.000556754,0.0,0.0,-0.501654
30924000,-0.00279178,-0.00490385,-0.000511872,0.0,0.0,-0.494314
30956000,-0.000338963,-0.00118932,-0.000458345,0.0,0.0,-0.487993
30988000,0.00305539,-0.000946782,-0.000122404,0.0,0.0,-0.503611
31016000,-0.0055166,0.00872195,-0.000321357,0.0,0.0,-0.49626
31048000,-0.00478844,0.00723433,-4.32618e-05,0.0,0.0,-0.503395
31076000,-3.26394e-05,0.003507,3.45167e-05,0.0,0.0,-0.494705
31108000,0.00418799,0.000723978,0.000220707,0.0,0.0,-0.501968
31140000,0.00572309,0.000968502,-0.000122694,0.0,0.0,-0.494816
31172000,0.000916794,0.000605307,-0.000437552,0.0,0.0,-0.488412
31204000,-0.00169777,-0.000987608,-0.000585107,0.0,0.0,-0.494677
31236000,0.00342257,-0.00616971,-0.00052991,0.0,0.0,-0.489866
31268000,0.00340549,-0.00535551,-0.000952961,0.0,0.0,-0.503932
31300000,0.00468931,-0.00450495,-0.000851423,0.0,0.0,-0.495413
31328000,0.00463061,-0.00375863,-0.000806781,0.0,0.0,-0.502329
31360000,0.00751373,-0.00508905,-0.00116778,0.0,0.0,-0.494096
31392000,0.00658347,-0.00319248,-0.000803601,0.0,0.0,-0.488283
31424000,0.00725679,0.00256555,-0.000714546,0.0,0.0,-0.494807
31456000,-0.00209984,-0.00052124,-0.000952978,0.0,0.0,-0.489712
31484000,0.00188128,0.0011002,-0.00102306,0.0,0.0,-0.496492
31516000,0.00321238,0.00282243,-0.00089141,0.0,0.0,-0.490609
31544000,-0.00251354,-0.00248134,-0.000240745,0.0,0.0,-0.504416
31576000,-0.00190558,-0.00261747,9.42685e-06,0.0,0.0,-0.491485
31608000,-0.00112649,-0.00206456,-4.28539e-05,0.0,0.0,-0.505251
31640000,-0.00265458,-0.00208776,0.000275742,0.0,0.0,-0.496237
31672000,-0.00302637,0.00213025,0.00130312,0.0,0.0,-0.48921
31700000,-0.00140677,-0.00366012,0.00139813,0.0,0.0,-0.49554
31732000,0.00206934,0.00105633,0.00166648,0.0,0.0,-0.489503
31764000,-0.000930557,-0.00404569,0.00111151,0.0,0.0,-0.496466
31796000,-0.00412989,0.000779506,0.00146014,0.0,0.0,-0.49021
31828000,-0.00185803,0.00337183,0.00170812,0.0,0.0,-0.503606
31856000,-0.00735378,0.00313162,0.00164188,0.0,0.0,-0.496606
31888000,-0.00861136,0.00150038,0.00180672,0.0,0.0,-0.503957
31920000,-0.0068256,-0.00307703,0.0018099,0.0,0.0,-0.496473
31952000,-0.0110903,0.00286655,0.001199,0.0,0.0,-0.490155
31980000,-0.00735837,0.00580728,0.00106558,0.0,0.0,-0.496556
32012000,-0.0104577,0.0158005,0.000794705,0.0,0.0,-0.490609
32044000,-0.0110221,0.0119437,0.000958337,0.0,0.0,-0.502528
32076000,-0.00976223,0.0151797,0.000923272,0.0,0.0,-0.488912
32108000,-0.0058701,0.0159449,0.00127992,0.0,0.0,-0.502098
32136000,-0.00775093,0.0124746,0.00195959,0.0,0.0,-0.495752
32168000,-0.00982163,0.0100932,0.00251852,0.0,0.0,-0.502468
32200000,-0.0101171,0.0123062,0.00199342,0.0,0.0,-0.49567
32232000,-0.0118595,0.00640899,0.00183939,0.0,0.0,-0.488571
32264000,-0.00523117,0.00349246,0.00191607,0.0,0.0,-0.49483
32296000,-0.0123408,0.00460619,0.00155064,0.0,0.0,-0.489893
32328000,-0.00903908,0.00742682,0.00226934,0.0,0.0,-0.503395
32360000,-0.00518436,0.00446014,0.00253349,0.0,0.0,-0.497126
32392000,-0.00234281,0.00484281,0.00231874,0.0,0.0,-0.503744
32424000,-0.00210781,0.00077606,0.00168642,0.0,0.0,-0.496707
32452000,-0.00658639,-0.000714897,0.0014131,0.0,0.0,-0.503116
32484000,0.0013819,0.00048889,0.00145244,0.0,0.0,-0.497243
32516000,0.000605658,0.000954862,0.0010333,0.0,0.0,-0.490336
32544000,0.00358371,-0.00326177,0.00103095,0.0,0.0,-0.496425
