timestamp,ref_timestamp,ref_lat,ref_lon,x,y,z,delta_xy[0],delta_xy[1],delta_z,vx,vy,vz,z_deriv,delta_vxy[0],delta_vxy[1],delta_vz,ax,ay,az,yaw,ref_alt,dist_bottom,dist_bottom_rate,eph,epv,evh,evv,vxy_max,vz_max,hagl_min,hagl_max,xy_valid,z_valid,v_xy_valid,v_z_valid,xy_reset_counter,z_reset_counter,vxy_reset_counter,vz_reset_counter,xy_global,z_global,dist_bottom_valid
1332000,0,0.0,0.0,0.00104547,-0.000998385,-0.00136877,-3.24889e-08,-1.98428e-06,0.0,0.00315279,-0.00412145,-0.00170468,-0.00257422,-8.12223e-06,-0.00049607,0.0,0.0688873,-0.0263495,0.00466779,0.00539425,0.0,0.1,0.00170468,0.272493,0.442884,0.889407,0.726364,inf,inf,inf,inf,1,1,1,1,1,0,1,1,0,0,0
1428000,0,0.0,0.0,0.00128917,-0.00136021,-0.000648312,-3.24889e-08,-1.98428e-06,0.0,0.00414842,-0.00528079,-0.000758857,-0.000580053,-8.12223e-06,-0.00049607,0.0,-0.0700679,-0.0824735,-0.0476101,0.00598964,0.0,0.107764,0.000758857,0.259632,0.433172,0.717878,0.713181,inf,inf,inf,inf,1,1,1,1,1,0,1,1,0,0,0
1524000,0,0.0,0.0,0.00142869,-0.00168975,0.000863831,-3.24889e-08,-1.98428e-06,0.0,0.00313337,-0.00523591,0.000452458,0.00213239,-8.12223e-06,-0.00049607,0.0,0.0109503,0.0390508,-0.0342242,0.00618673,0.0,0.10367,-0.000452458,0.24821,0.430355,0.598475,0.696771,inf,inf,inf,inf,1,1,1,1,1,0,1,1,0,0,0
1620000,0,0.0,0.0,0.00153255,-0.00192167,-0.000605827,-3.24889e-08,-1.98428e-06,0.0,0.00331831,-0.0042142,-0.00273928,-0.00274703,-8.12223e-06,-0.00049607,0.0,0.0307113,0.0409395,0.0159787,0.00670416,0.0,0.1,0.00273928,0.22572,0.422001,0.493623,0.671151,inf,inf,inf,inf,1,1,1,1,1,0,1,1,0,0,0
1716000,0,0.0,0.0,0.00157726,-0.0019862,-0.00162323,-3.24889e-08,-1.98428e-06,0.0,0.00295843,-0.00294844,-0.00248615,-0.00330087,-8.12223e-06,-0.00049607,0.0,0.00670138,0.024574,-0.0159433,0.00677391,0.0,0.1,0.00248615,0.21853,0.425468,0.43654,0.648901,inf,inf,inf,inf,1,1,1,1,1,0,1,1,0,0,0
1812000,0,0.0,0.0,0.00156314,-0.00190803,-0.00254169,-3.24889e-08,-1.98428e-06,0.0,0.00209096,-0.00190826,-0.00439669,-0.00557574,-8.12223e-06,-0.00049607,0.0,-0.00624016,0.0622183,0.0155214,0.00704847,0.0,0.1,0.00439669,0.203274,0.420067,0.38416,0.617921,inf,inf,inf,inf,1,1,1,1,1,0,1,1,0,0,0
1908000,0,0.0,0.0,0.00131394,-0.00173524,-0.00256048,-3.24889e-08,-1.98428e-06,0.0,-0.00105336,-0.00097353,-0.00336784,-0.00396106,-8.12223e-06,-0.00049607,0.0,-0.00247071,-0.0271048,0.0231191,0.00755037,0.0,0.100042,0.00336784,0.198866,0.424132,0.358001,0.593402,inf,inf,inf,inf,1,1,1,1,1,0,1,1,0,0,0
2004000,0,0.0,0.0,0.000868615,-0.00148108,0.000384486,-3.24889e-08,-1.98428e-06,0.0,-0.00274255,-0.00136851,0.00040957,0.00320196,-8.12223e-06,-0.00049607,0.0,-0.0451894,-0.056827,0.0385027,0.00728544,0.0,0.111108,-0.00040957,0.195168,0.427563,0.340978,0.568915,inf,inf,inf,inf,1,1,1,1,1,0,1,1,0,0,0
2100000,0,0.0,0.0,0.000205017,-0.00122594,0.00389759,-3.24889e-08,-1.98428e-06,0.0,-0.00489374,-0.000728291,0.00404548,0.00972672,-8.12223e-06,-0.00049607,0.0,0.0183831,0.00592072,0.0339672,0.00736472,0.0,0.108537,-0.00404548,0.185521,0.420515,0.32393,0.537547,inf,inf,inf,inf,1,1,1,1,1,0,1,1,0,0,0
2196000,0,0.0,0.0,-0.000591651,-0.00106008,0.00607025,-3.24889e-08,-1.98428e-06,0.0,-0.00624347,-0.00221771,0.00409337,0.0105146,-8.12223e-06,-0.00049607,0.0,-0.00327227,0.0659585,0.00239629,0.0072769,0.0,0.100057,-0.00409337,0.183794,0.422197,0.320334,0.514923,inf,inf,inf,inf,1,1,1,1,1,0,1,1,0,0,0
2292000,0,0.0,0.0,-0.00137876,-0.00101357,0.0078955,-3.24889e-08,-1.98428e-06,0.0,-0.00630878,-0.00321171,0.00511426,0.0118969,-8.12223e-06,-0.00049607,0.0,-0.0387807,-0.0159101,0.038255,0.00731063,0.0,0.102434,-0.00511426,0.182728,0.422919,0.320496,0.493614,inf,inf,inf,inf,1,1,1,1,1,0,1,1,0,0,0
2388000,0,0.0,0.0,-0.00209273,-0.00112042,0.0101283,-3.24889e-08,-1.98428e-06,0.0,-0.0061239,-0.00426628,0.0068547,0.0143029,-8.12223e-06,-0.00049607,0.0,-0.00198078,-0.00798713,0.058095,0.00697935,0.0,0.104948,-0.0068547,0.182364,0.422807,0.323316,0.473875,inf,inf,inf,inf,1,1,1,1,1,0,1,1,0,0,0
2484000,0,0.0,0.0,-0.00270785,-0.00137016,0.0121197,-3.24889e-08,-1.98428e-06,0.0,-0.00750945,-0.00514554,0.00741105,0.0150244,-8.12223e-06,-0.00049607,0.0,-0.00400786,-0.0223478,-0.024558,0.00688983,0.0,0.101823,-0.00741105,0.177025,0.413052,0.321861,0.449516,inf,inf,inf,inf,1,1,1,1,1,0,1,1,0,0,0
2580000,0,0.0,0.0,-0.00325492,-0.0016749,0.0138616,-3.24889e-08,-1.98428e-06,0.0,-0.00727524,-0.0054164,0.00790855,0.0154566,-8.12223e-06,-0.00049607,0.0,0.0205973,0.00318858,-0.0196667,0.00661138,0.0,0.10006,-0.00790855,0.178281,0.412158,0.327483,0.433886,inf,inf,inf,inf,1,1,1,1,1,0,1,1,0,0,0
2676000,0,0.0,0.0,-0.00379091,-0.00196447,0.0148645,-3.24889e-08,-1.98428e-06,0.0,-0.00930692,-0.00563068,0.00767982,0.0144543,-8.12223e-06,-0.00049607,0.0,-0.0320234,-0.0519652,0.0291467,0.0069935,0.0,0.1,-0.00767982,0.174568,0.402558,0.327074,0.414422,inf,inf,inf,inf,1,1,1,1,1,0,1,1,0,0,0
2772000,0,0.0,0.0,-0.00432458,-0.00226074,0.0149992,-3.24889e-08,-1.98428e-06,0.0,-0.00931706,-0.00555443,0.00648738,0.0117864,-8.12223e-06,-0.00049607,0.0,0.0289762,0.0420773,-0.0198139,0.00705423,0.0,0.1,-0.00648738,0.176836,0.401366,0.332282,0.402708,inf,inf,inf,inf,1,1,1,1,1,0,1,1,0,0,0
2868000,0,0.0,0.0,-0.00466437,-0.00256401,0.0146287,-3.24889e-08,-1.98428e-06,0.0,-0.0081877,-0.00689951,0.0070331,0.0106871,-8.12223e-06,-0.00049607,0.0,-0.0231818,-0.0403215,-0.0185864,0.00691521,0.0,0.1,-0.0070331,0.179431,0.400076,0.336694,0.392647,inf,inf,inf,inf,1,1,1,1,1,0,1,1,0,0,0
2964000,0,0.0,0.0,-0.00489335,-0.00297803,0.0138468,-3.24889e-08,-1.98428e-06,0.0,-0.00884486,-0.00881205,0.00712354,0.00892907,-8.12223e-06,-0.00049607,0.0,-0.04083,-0.0398783,-0.0421135,0.00688119,0.0,0.1,-0.00712354,0.176457,0.391067,0.333158,0.379281,inf,inf,inf,inf,1,1,1,1,1,0,1,1,0,0,0
3060000,0,0.0,0.0,-0.00505618,-0.00343753,0.0122191,-3.24889e-08,-1.98428e-06,0.0,-0.00892253,-0.00897238,0.00582012,0.00533136,-8.12223e-06,-0.00049607,0.0,-0.0632354,-0.0144033,0.00353157,0.00706061,0.0,0.1,-0.00582012,0.179064,0.389876,0.334935,0.372292,inf,inf,inf,inf,1,1,1,1,1,0,1,1,0,0,0
3156000,0,0.0,0.0,-0.00516418,-0.00377247,0.0119161,-3.24889e-08,-1.98428e-06,0.0,-0.00881105,-0.00704704,0.00534914,0.00425767,-8.12223e-06,-0.00049607,0.0,-0.0198431,-0.00688964,0.0618007,0.00691015,0.0,0.1,-0.00534914,0.181782,0.38887,0.335891,0.366636,inf,inf,inf,inf,1,1,1,1,1,0,1,1,0,0,0
3252000,0,0.0,0.0,-0.00511378,-0.0039154,0.0106403,-3.24889e-08,-1.98428e-06,0.0,-0.0066797,-0.00729134,0.00455781,0.00201794,-8.12223e-06,-0.00049607,0.0,0.0140307,0.00507861,0.00205729,0.00682423,0.0,0.1,-0.00455781,0.183978,0.387746,0.335046,0.361853,inf,inf,inf,inf,1,1,1,1,1,0,1,1,0,0,0
3348000,0,0.0,0.0,-0.00490667,-0.00405741,0.00844666,-3.24889e-08,-1.98428e-06,0.0,-0.00587184,-0.00790136,0.00161423,-0.00304946,-8.12223e-06,-0.00049607,0.0,-0.000762886,-0.00827687,-0.0808323,0.0066589,0.0,0.1,-0.00161423,0.179714,0.379634,0.325497,0.3538,inf,inf,inf,inf,1,1,1,1,1,0,1,1,0,0,0
3444000,0,0.0,0.0,-0.00443865,-0.00410967,0.0018219,-3.24889e-08,-1.98428e-06,0.0,-0.00254055,-0.0066646,-0.0031845,-0.0136983,-8.12223e-06,-0.00049607,0.0,0.0359184,-0.063567,-0.0133924,0.00669221,0.0,0.1,0.0031845,0.18143,0.378919,0.323043,0.350917,inf,inf,inf,inf,1,1,1,1,1,0,1,1,0,0,0
3540000,0,0.0,0.0,-0.0038267,-0.00408882,-0.00450062,-3.24889e-08,-1.98428e-06,0.0,-0.00275801,-0.00789716,-0.00747381,-0.0222054,-8.12223e-06,-0.00049607,0.0,-0.0492929,-0.0100609,0.00268966,0.0068204,0.0,0.1,0.00747381,0.18304,0.378442,0.32024,0.348767,inf,inf,inf,inf,1,1,1,1,1,0,1,1,0,0,0
3636000,0,0.0,0.0,-0.00319148,-0.00408681,-0.00956282,-3.24889e-08,-1.98428e-06,0.0,-0.00267352,-0.00759018,-0.0109946,-0.0277521,-8.12223e-06,-0.00049607,0.0,-0.0766452,-0.035938,-0.029875,0.00697469,0.0,0.1,0.0109946,0.178553,0.371626,0.309918,0.343433,inf,inf,inf,inf,1,1,1,1,1,0,1,1,0,0,0
3732000,0,0.0,0.0,-0.00258778,-0.00408624,-0.0137869,-3.24889e-08,-1.98428e-06,0.0,-0.00149469,-0.00784354,-0.0124499,-0.0298618,-8.12223e-06,-0.00049607,0.0,0.00735241,-0.000122087,-0.00797678,0.00738648,0.0,0.1,0.0124499,0.179928,0.371717,0.306805,0.342445,inf,inf,inf,inf,1,1,1,1,1,0,1,1,0,0,0
3828000,0,0.0,0.0,-0.00196835,-0.00404816,-0.0191043,-3.24889e-08,-1.98428e-06,0.0,-0.00112984,-0.00678679,-0.0146164,-0.0336,-8.12223e-06,-0.00049607,0.0,-0.00202727,0.0444117,-0.0280831,0.0073173,0.0,0.1,0.0146164,0.17553,0.365766,0.296959,0.338233,inf,inf,inf,inf,1,1,1,1,1,0,1,1,0,0,0
3924000,0,0.0,0.0,-0.00144179,-0.00390511,-0.0202362,-3.24889e-08,-1.98428e-06,0.0,-0.000440335,-0.00611353,-0.0148602,-0.0309148,-8.12223e-06,-0.00049607,0.0,-0.0143469,-0.00414606,-0.0412222,0.00721058,0.0,0.110886,0.0148602,0.176724,0.366357,0.293983,0.33791,inf,inf,inf,inf,1,1,1,1,1,0,1,1,0,0,0
4020000,0,0.0,0.0,-0.000907895,-0.0035769,-0.0203349,-3.24889e-08,-1.98428e-06,0.0,0.000165737,-0.00388022,-0.0136098,-0.0263225,-8.12223e-06,-0.00049607,0.0,0.0021679,-0.0892822,0.0136569,0.00726292,0.0,0.10917,0.0136098,0.177846,0.367152,0.291125,0.337753,inf,inf,inf,inf,1,1,1,1,1,0,1,1,0,0,0
4116000,0,0.0,0.0,-0.00040825,-0.0032446,-0.0206529,-3.24889e-08,-1.98428e-06,0.0,0.00206327,-0.00499289,-0.0133846,-0.0236251,-8.12223e-06,-0.00049607,0.0,0.0937283,-0.0279995,-0.0393353,0.00716689,0.0,0.106612,0.0133846,0.173443,0.362053,0.282197,0.334195,inf,inf,inf,inf,1,1,1,1,1,0,1,1,0,0,0
4212000,0,0.0,0.0,0.000225995,-0.00297982,-0.0188995,-3.24889e-08,-1.98428e-06,0.0,0.00306754,-0.00486032,-0.0127613,-0.0188268,-8.12223e-06,-0.00049607,0.0,0.0111734,-0.00846731,0.0220295,0.00685364,0.0,0.112716,0.0127613,0.174485,0.363221,0.279871,0.334165,inf,inf,inf,inf,1,1,1,1,1,0,1,1,0,0,0
4308000,0,0.0,0.0,0.000736583,-0.00273726,-0.0161156,-3.24889e-08,-1.98428e-06,0.0,0.00192561,-0.00485878,-0.00855333,-0.0103168,-8.12223e-06,-0.00049607,0.0,-0.0328328,-0.0215158,-0.0716494,0.00645385,0.0,0.113239,0.00855333,0.1755,0.364533,0.277781,0.334096,inf,inf,inf,inf,1,1,1,1,1,0,1,1,0,0,0
4404000,0,0.0,0.0,0.0010913,-0.00250055,-0.0137606,-3.24889e-08,-1.98428e-06,0.0,0.00271961,-0.00433921,-0.00658178,-0.00535101,-8.12223e-06,-0.00049607,0.0,0.00510128,-0.0491915,-0.0568945,0.00639734,0.0,0.109461,0.00658178,0.171247,0.359993,0.270111,0.330473,inf,inf,inf,inf,1,1,1,1,1,0,1,1,0,0,0
4500000,0,0.0,0.0,0.00142196,-0.00228985,-0.0101764,-3.24889e-08,-1.98428e-06,0.0,0.00322288,-0.00324896,-0.00373503,0.00109212,-8.12223e-06,-0.00049607,0.0,-0.00963839,0.0380143,-0.00569783,0.00637951,0.0,0.113403,0.00373503,0.171962,0.361327,0.268139,0.330015,inf,inf,inf,inf,1,1,1,1,1,0,1,1,0,0,0
4596000,0,0.0,0.0,0.00179259,-0.00199175,-0.00651433,-3.24889e-08,-1.98428e-06,0.0,0.00426444,-0.00191109,-0.00106238,0.00666592,-8.12223e-06,-0.00049607,0.0,0.0456282,0.00587206,-0.0174763,0.00628398,0.0,0.113132,0.00106238,0.172647,0.362689,0.266386,0.329369,inf,inf,inf,inf,1,1,1,1,1,0,1,1,0,0,0
4692000,0,0.0,0.0,0.00211482,-0.00167982,-0.00256134,-3.24889e-08,-1.98428e-06,0.0,0.00381237,-0.00163947,0.00287695,0.0131682,-8.12223e-06,-0.00049607,0.0,0.00769398,0.0319756,0.0184104,0.00647541,0.0,0.109172,-0.00287695,0.168419,0.35824,0.259628,0.325131,inf,inf,inf,inf,1,1,1,1,1,0,1,1,0,0,0
4788000,0,0.0,0.0,0.00230027,-0.00121831,-0.000171736,-3.24889e-08,-1.98428e-06,0.0,0.00312894,0.000497698,0.00400468,0.0147305,-8.12223e-06,-0.00049607,0.0,-0.00825493,-0.0320466,0.024559,0.00652047,0.0,0.101397,-0.00400468,0.169367,0.35979,0.25879,0.324228,inf,inf,inf,inf,1,1,1,1,1,0,1,1,0,0,0
4884000,0,0.0,0.0,0.002331,-0.000675679,0.00108055,-3.24889e-08,-1.98428e-06,0.0,0.00112505,0.00118822,0.00369465,0.0136403,-8.12223e-06,-0.00049607,0.0,-0.066866,0.0103927,-0.0530761,0.00681262,0.0,0.1,-0.00369465,0.170268,0.361298,0.257992,0.323074,inf,inf,inf,inf,1,1,1,1,1,0,1,1,0,0,0
4980000,0,0.0,0.0,0.0021232,-2.5185e-05,-0.00139589,-3.24889e-08,-1.98428e-06,0.0,-0.000134009,0.0033754,0.0020289,0.00780608,-8.12223e-06,-0.00049607,0.0,0.0095482,-0.0120579,0.00505149,0.00704682,0.0,0.1,-0.0020289,0.17106,0.362691,0.257183,0.321623,inf,inf,inf,inf,1,1,1,1,1,0,1,1,0,0,0
5076000,0,0.0,0.0,0.0,0.0,-0.00594274,-3.24889e-08,-1.98428e-06,0.0,0.000116037,0.0048695,-0.00222744,-0.00173572,-8.12223e-06,-0.00049607,0.0,0.0421122,0.0200229,-0.00976864,0.00739406,0.0,0.1,0.00222744,0.167158,0.358265,0.251641,0.316591,inf,inf,inf,inf,0,1,0,1,1,0,1,1,0,0,0
5172000,0,0.0,0.0,0.0,0.0,-0.010085,-3.24889e-08,-1.98428e-06,0.0,-0.000276656,0.0055859,-0.00561129,-0.00879215,-8.12223e-06,-0.00049607,0.0,0.089283,0.0186396,-0.0200383,0.00749446,0.0,0.1,0.00561129,0.1683,0.359774,0.251545,0.314906,inf,inf,inf,inf,0,1,0,1,1,0,1,1,0,0,0
5268000,0,0.0,0.0,0.0,0.0,-0.0120434,-3.24889e-08,-1.98428e-06,0.0,6.88642e-06,0.00540046,-0.00763922,-0.0113908,-8.12223e-06,-0.00049607,0.0,0.000961519,0.0253798,-8.56817e-05,0.00737183,0.0,0.101676,0.00763922,0.164816,0.355493,0.246677,0.30967,inf,inf,inf,inf,0,1,0,1,1,0,1,1,0,0,0
5364000,0,0.0,0.0,0.0,0.0,-0.0126989,-3.24889e-08,-1.98428e-06,0.0,-0.000883409,0.00723814,-0.00640822,-0.00941915,-8.12223e-06,-0.00049607,0.0,-0.0296559,0.0249317,0.00045076,0.00724599,0.0,0.10202,0.00640822,0.166028,0.356913,0.246756,0.307633,inf,inf,inf,inf,0,1,0,1,1,0,1,1,0,0,0
5460000,0,0.0,0.0,0.0,0.0,-0.0127146,-3.24889e-08,-1.98428e-06,0.0,-0.000765859,0.0086853,-0.00493616,-0.00685973,-8.12223e-06,-0.00049607,0.0,-0.00196633,0.0670523,0.0331486,0.00753128,0.0,0.102463,0.00493616,0.167352,0.358335,0.24695,0.305476,inf,inf,inf,inf,0,1,0,1,1,0,1,1,0,0,0
5556000,0,0.0,0.0,0.0,0.0,-0.0129265,-3.24889e-08,-1.98428e-06,0.0,-0.00113767,0.0115567,-0.0052486,-0.00662792,-8.12223e-06,-0.00049607,0.0,-0.026012,0.00645184,-0.0315821,0.00753506,0.0,0.10115,0.0052486,0.164078,0.354005,0.242293,0.299863,inf,inf,inf,inf,0,1,0,1,1,0,1,1,0,0,0
5652000,0,0.0,0.0,0.0,0.0,-0.0135474,-3.24889e-08,-1.98428e-06,0.0,0.000909329,0.0104524,-0.00371841,-0.00510053,-8.12223e-06,-0.00049607,0.0,0.0536702,-0.04451,0.056711,0.00750926,0.0,0.100256,0.00371841,0.165392,0.355276,0.242288,0.297412,inf,inf,inf,inf,0,1,0,1,1,0,1,1,0,0,0
5748000,0,0.0,0.0,0.0,0.0,-0.0136565,-3.24889e-08,-1.98428e-06,0.0,0.00166609,0.0109863,-0.00200965,-0.00309001,-8.12223e-06,-0.00049607,0.0,0.0222893,0.0115972,0.0278745,0.00743402,0.0,0.10076,0.00200965,0.162255,0.350936,0.237726,0.291655,inf,inf,inf,inf,0,1,0,1,1,0,1,1,0,0,0
5844000,0,0.0,0.0,0.0,0.0,-0.0142828,-3.24889e-08,-1.98428e-06,0.0,0.00238824,0.0125135,-0.0019417,-0.00333335,-8.12223e-06,-0.00049607,0.0,-0.00779041,0.0245186,0.0258358,0.00751894,0.0,0.100751,0.0019417,0.163542,0.352048,0.237571,0.288973,inf,inf,inf,inf,0,1,0,1,1,0,1,1,0,0,0
5940000,0,0.0,0.0,0.0,0.0,-0.0140738,-3.24889e-08,-1.98428e-06,0.0,0.0026205,0.0132366,-0.00301786,-0.00375265,-8.12223e-06,-0.00049607,0.0,0.0629542,0.0709568,-0.00160374,0.00765145,0.0,0.1033,0.00301786,0.164815,0.353076,0.237345,0.286182,inf,inf,inf,inf,0,1,0,1,1,0,1,1,0,0,0
6036000,0,0.0,0.0,0.0,0.0,-0.014421,-3.24889e-08,-1.98428e-06,0.0,0.00287772,0.0123481,-0.00427226,-0.00499019,-8.12223e-06,-0.00049607,0.0,0.0340517,0.0323645,-0.061525,0.0073216,0.0,0.1,0.00427226,0.161674,0.348597,0.232588,0.280252,inf,inf,inf,inf,0,1,0,1,1,0,1,1,0,0,0
6132000,0,0.0,0.0,0.0,0.0,-0.0156489,-3.24889e-08,-1.98428e-06,0.0,0.00329672,0.0121945,-0.00590886,-0.00730499,-8.12223e-06,-0.00049607,0.0,0.0181559,0.0133971,-0.0777505,0.00768788,0.0,0.101043,0.00590886,0.162901,0.349468,0.232227,0.277324,inf,inf,inf,inf,0,1,0,1,1,0,1,1,0,0,0
6228000,0,0.0,0.0,0.0,0.0,-0.0158358,-3.24889e-08,-1.98428e-06,0.0,0.00371631,0.0113061,-0.00592045,-0.00677205,-8.12223e-06,-0.00049607,0.0,0.019299,0.00532738,-0.0037346,0.00762178,0.0,0.103601,0.00592045,0.164107,0.350254,0.231753,0.274328,inf,inf,inf,inf,0,1,0,1,1,0,1,1,0,0,0
6324000,0,0.0,0.0,0.0,0.0,-0.0159422,-3.24889e-08,-1.98428e-06,0.0,0.00419486,0.010794,-0.0078582,-0.00805898,-8.12223e-06,-0.00049607,0.0,-0.025583,0.0184944,0.0285031,0.00768359,0.0,0.101831,0.0078582,0.160951,0.345675,0.226824,0.268378,inf,inf,inf,inf,0,1,0,1,1,0,1,1,0,0,0
6420000,0,0.0,0.0,0.0,0.0,-0.0170668,-3.24889e-08,-1.98428e-06,0.0,0.00462101,0.00849425,-0.00689346,-0.0075776,-8.12223e-06,-0.00049607,0.0,-0.0110889,0.00169283,0.0146674,0.00770366,0.0,0.1,0.00689346,0.162096,0.346321,0.226141,0.265326,inf,inf,inf,inf,0,1,0,1,1,0,1,1,0,0,0
6516000,0,0.0,0.0,0.0,0.0,-0.0192224,-3.24889e-08,-1.98428e-06,0.0,0.00491894,0.00796969,-0.00846613,-0.0105365,-8.12223e-06,-0.00049607,0.0,-0.0169102,0.00370792,0.0199396,0.0075352,0.0,0.1,0.00846613,0.163213,0.34689,0.225376,0.26224,inf,inf,inf,inf,0,1,0,1,1,0,1,1,0,0,0
6612000,0,0.0,0.0,0.0,0.0,-0.0218092,-3.24889e-08,-1.98428e-06,0.0,0.00420753,0.00678567,-0.00982259,-0.0133522,-8.12223e-06,-0.00049607,0.0,0.0563843,0.0379008,0.00851415,0.00734931,0.0,0.1,0.00982259,0.160034,0.342259,0.220265,0.256392,inf,inf,inf,inf,0,1,0,1,1,0,1,1,0,0,0
6708000,0,0.0,0.0,0.0,0.0,-0.0242334,-3.24889e-08,-1.98428e-06,0.0,0.00499774,0.00587247,-0.0109108,-0.0153818,-8.12223e-06,-0.00049607,0.0,0.0319373,-0.0931543,-0.0124639,0.00728125,0.0,0.101256,0.0109108,0.16108,0.34271,0.219329,0.253314,inf,inf,inf,inf,0,1,0,1,1,0,1,1,0,0,0
6804000,0,0.0,0.0,0.0,0.0,-0.0251001,-3.24889e-08,-1.98428e-06,0.0,0.00301004,0.00581177,-0.011197,-0.0148294,-8.12223e-06,-0.00049607,0.0,0.0186944,-0.0039578,0.0184858,0.00731032,0.0,0.103868,0.011197,0.157996,0.338153,0.214342,0.247644,inf,inf,inf,inf,0,1,0,1,1,0,1,1,0,0,0
6900000,0,0.0,0.0,0.0,0.0,-0.0254556,-3.24889e-08,-1.98428e-06,0.0,0.00354207,0.0051565,-0.0133613,-0.0156884,-8.12223e-06,-0.00049607,0.0,-0.0241043,0.00448115,-0.0269925,0.00730683,0.0,0.106561,0.0133613,0.158974,0.338504,0.213271,0.244606,inf,inf,inf,inf,0,1,0,1,1,0,1,1,0,0,0
6996000,0,0.0,0.0,0.0,0.0,-0.0250551,-3.24889e-08,-1.98428e-06,0.0,0.00350827,0.00437135,-0.0125179,-0.0128655,-8.12223e-06,-0.00049607,0.0,0.0237748,0.0516173,0.0474565,0.00734814,0.0,0.108491,0.0125179,0.159921,0.338792,0.212135,0.241574,inf,inf,inf,inf,0,1,0,1,1,0,1,1,0,0,0
7092000,0,0.0,0.0,0.0,0.0,-0.0247618,-3.24889e-08,-1.98428e-06,0.0,0.00389712,0.00354337,-0.0099,-0.00892259,-8.12223e-06,-0.00049607,0.0,-0.0560981,0.00688683,-0.0155857,0.00725405,0.0,0.103704,0.0099,0.15683,0.334254,0.207222,0.236133,inf,inf,inf,inf,0,1,0,1,1,0,1,1,0,0,0
7188000,0,0.0,0.0,0.0,0.0,-0.0247969,-3.24889e-08,-1.98428e-06,0.0,0.00190785,0.00272052,-0.00822701,-0.00656823,-8.12223e-06,-0.00049607,0.0,-0.00859941,0.033812,0.0294195,0.00713862,0.0,0.102967,0.00822701,0.157717,0.334464,0.205982,0.233177,inf,inf,inf,inf,0,1,0,1,1,0,1,1,0,0,0
7284000,0,0.0,0.0,0.0,0.0,-0.0238333,-3.24889e-08,-1.98428e-06,0.0,0.00097707,0.00243276,-0.00908089,-0.0059067,-8.12223e-06,-0.00049607,0.0,-0.0319459,-0.00142655,-0.0570901,0.00734694,0.0,0.10795,0.00908089,0.15857,0.334623,0.204691,0.230242,inf,inf,inf,inf,0,1,0,1,1,0,1,1,0,0,0
7380000,0,0.0,0.0,0.0,0.0,-0.0216374,-3.24889e-08,-1.98428e-06,0.0,0.00104999,0.00257389,-0.00751959,-0.00182498,-8.12223e-06,-0.00049607,0.0,-0.0598762,-0.0234472,-0.0137892,0.00727045,0.0,0.107372,0.00751959,0.155488,0.330139,0.199758,0.225072,inf,inf,inf,inf,0,1,0,1,1,0,1,1,0,0,0
7476000,0,0.0,0.0,0.0,0.0,-0.0202724,-3.24889e-08,-1.98428e-06,0.0,0.000128933,0.00062291,-0.00681893,0.000103832,-8.12223e-06,-0.00049607,0.0,-0.0486011,0.0191718,-0.0154357,0.0072877,0.0,0.104893,0.00681893,0.156226,0.330199,0.198424,0.22221,inf,inf,inf,inf,0,1,0,1,1,0,1,1,0,0,0
7572000,0,0.0,0.0,0.0,0.0,-0.020009,-3.24889e-08,-1.98428e-06,0.0,-6.01373e-05,0.000546155,-0.00664538,0.000215841,-8.12223e-06,-0.00049607,0.0,0.0556666,0.0238802,-0.00725035,0.00712284,0.0,0.101817,0.00664538,0.156945,0.33022,0.197051,0.219383,inf,inf,inf,inf,0,1,0,1,1,0,1,1,0,0,0
7668000,0,0.0,0.0,0.0,0.0,-0.0196329,-3.24889e-08,-1.98428e-06,0.0,-0.000822004,0.000787764,-0.00445288,0.00242668,-8.12223e-06,-0.00049607,0.0,0.053136,0.0709323,-0.00178069,0.0071883,0.0,0.104966,0.00445288,0.153867,0.325792,0.192279,0.21449,inf,inf,inf,inf,0,1,0,1,1,0,1,1,0,0,0
7764000,0,0.0,0.0,0.0,0.0,-0.0178335,-3.24889e-08,-1.98428e-06,0.0,-0.0018012,-0.00134422,-0.0031475,0.00500049,-8.12223e-06,-0.00049607,0.0,0.00702701,0.042103,-0.0122832,0.00730477,0.0,0.106556,0.0031475,0.15456,0.325779,0.19094,0.211782,inf,inf,inf,inf,0,1,0,1,1,0,1,1,0,0,0
7860000,0,0.0,0.0,0.0,0.0,-0.0149273,-3.24889e-08,-1.98428e-06,0.0,0.000117557,-0.00266528,-0.000268562,0.0100121,-8.12223e-06,-0.00049607,0.0,0.0531082,-0.0277426,0.034526,0.00697214,0.0,0.109658,0.000268562,0.155232,0.325732,0.189563,0.209114,inf,inf,inf,inf,0,1,0,1,1,0,1,1,0,0,0
7956000,0,0.0,0.0,0.0,0.0,-0.0104666,-3.24889e-08,-1.98428e-06,0.0,-0.000691677,-0.00219902,0.00298601,0.0162909,-8.12223e-06,-0.00049607,0.0,-0.0451607,0.0480592,0.0102287,0.00702724,0.0,0.107569,-0.00298601,0.152229,0.321421,0.185041,0.204531,inf,inf,inf,inf,0,1,0,1,1,0,1,1,0,0,0
8052000,0,0.0,0.0,0.0,0.0,-0.00683858,-3.24889e-08,-1.98428e-06,0.0,-0.000733152,-0.00297977,0.00478259,0.0196427,-8.12223e-06,-0.00049607,0.0,-0.0057732,0.0138389,0.028546,0.00724951,0.0,0.102675,-0.00478259,0.152877,0.321353,0.183711,0.201986,inf,inf,inf,inf,0,1,0,1,1,0,1,1,0,0,0
8148000,0,0.0,0.0,0.0,0.0,-0.00493536,-3.24889e-08,-1.98428e-06,0.0,-0.000960035,-0.00160026,0.0077155,0.0219944,-8.12223e-06,-0.00049607,0.0,0.0445074,0.0750032,0.0149477,0.00676496,0.0,0.101191,-0.0077155,0.150011,0.31719,0.179419,0.197647,inf,inf,inf,inf,0,1,0,1,1,0,1,1,0,0,0
8244000,0,0.0,0.0,0.0,0.0,-0.00329611,-3.24889e-08,-1.98428e-06,0.0,0.000689458,-0.00355689,0.00971568,0.0230655,-8.12223e-06,-0.00049607,0.0,0.0326867,-0.0651328,0.0710208,0.00701975,0.0,0.1,-0.00971568,0.150635,0.317105,0.178174,0.195224,inf,inf,inf,inf,0,1,0,1,1,0,1,1,0,0,0
8340000,0,0.0,0.0,0.0,0.0,-0.00179559,-3.24889e-08,-1.98428e-06,0.0,-0.000896867,-0.00450012,0.0100687,0.0223564,-8.12223e-06,-0.00049607,0.0,-0.039299,-0.0150862,-0.0114702,0.00680419,0.0,0.1,-0.0100687,0.151241,0.316995,0.176923,0.192843,inf,inf,inf,inf,0,1,0,1,1,0,1,1,0,0,0
8436000,0,0.0,0.0,0.0,0.0,0.000465695,-3.24889e-08,-1.98428e-06,0.0,-0.00137622,-0.00375965,0.010193,0.0223453,-8.12223e-06,-0.00049607,0.0,-0.0895377,0.0231433,-0.00720844,0.00636797,0.0,0.1,-0.010193,0.148447,0.312958,0.17287,0.188796,inf,inf,inf,inf,0,1,0,1,1,0,1,1,0,0,0
8532000,0,0.0,0.0,0.0,0.0,0.00275989,-3.24889e-08,-1.98428e-06,0.0,-0.00134739,-0.00300044,0.0100671,0.0221456,-8.12223e-06,-0.00049607,0.0,0.0284684,-0.0654062,0.00871532,0.00652413,0.0,0.1,-0.0100671,0.149035,0.312839,0.171724,0.186534,inf,inf,inf,inf,0,1,0,1,1,0,1,1,0,0,0
8628000,0,0.0,0.0,0.0,0.0,0.00450465,-3.24889e-08,-1.98428e-06,0.0,-0.00130142,-0.00288916,0.0101635,0.0216947,-8.12223e-06,-0.00049607,0.0,-0.0131045,0.00712859,0.0393717,0.00612659,0.0,0.1,-0.0101635,0.14961,0.312699,0.170585,0.184313,inf,inf,inf,inf,0,1,0,1,1,0,1,1,0,0,0
8724000,0,0.0,0.0,0.0,0.0,0.00655841,-3.24889e-08,-1.98428e-06,0.0,-0.000979546,-0.00277623,0.00964558,0.0209986,-8.12223e-06,-0.00049607,0.0,0.00556212,-0.060619,-0.0350829,0.0060466,0.0,0.102886,-0.00964558,0.146896,0.308792,0.166819,0.180544,inf,inf,inf,inf,0,1,0,1,1,0,1,1,0,0,0
8820000,0,0.0,0.0,0.0,0.0,0.00938973,-3.24889e-08,-1.98428e-06,0.0,-0.00121155,-0.00307256,0.0110917,0.0230357,-8.12223e-06,-0.00049607,0.0,0.0321296,-0.0683803,0.0138702,0.00606829,0.0,0.100809,-0.0110917,0.14746,0.30865,0.165751,0.178439,inf,inf,inf,inf,0,1,0,1,1,0,1,1,0,0,0
8916000,0,0.0,0.0,0.0,0.0,0.011919,-3.24889e-08,-1.98428e-06,0.0,-0.00234589,-0.0035094,0.0113701,0.0234671,-8.12223e-06,-0.00049607,0.0,0.084498,0.018335,-0.00866037,0.00626681,0.0,0.100363,-0.0113701,0.148012,0.30849,0.164708,0.176373,inf,inf,inf,inf,0,1,0,1,1,0,1,1,0,0,0
9012000,0,0.0,0.0,0.0,0.0,0.0124278,-3.24889e-08,-1.98428e-06,0.0,-0.00385866,-0.00310633,0.0112227,0.021331,-8.12223e-06,-0.00049607,0.0,-0.0588592,0.0168813,-0.0365525,0.0061615,0.0,0.1,-0.0112227,0.14538,0.304715,0.16115,0.172867,inf,inf,inf,inf,0,1,0,1,1,0,1,1,0,0,0
9108000,0,0.0,0.0,0.0,0.0,0.0124757,-3.24889e-08,-1.98428e-06,0.0,-0.00493954,-0.00363763,0.0114972,0.0194518,-8.12223e-06,-0.00049607,0.0,0.0286006,-0.00636532,-0.0153352,0.00623816,0.0,0.1,-0.0114972,0.145923,0.304557,0.160177,0.170911,inf,inf,inf,inf,0,1,0,1,1,0,1,1,0,0,0
9204000,0,0.0,0.0,0.0,0.0,0.0130079,-3.24889e-08,-1.98428e-06,0.0,-0.00406743,-0.00381645,0.0120627,0.0186461,-8.12223e-06,-0.00049607,0.0,-0.0306845,0.00512695,-0.0432581,0.00612311,0.0,0.1,-0.0120627,0.143454,0.300945,0.156888,0.167613,inf,inf,inf,inf,0,1,0,1,1,0,1,1,0,0,0
9300000,0,0.0,0.0,0.0,0.0,0.0134579,-3.24889e-08,-1.98428e-06,0.0,-0.00511367,-0.00280551,0.0119645,0.0172073,-8.12223e-06,-0.00049607,0.0,0.00383425,-0.0399359,-0.015405,0.00613425,0.0,0.1,-0.0119645,0.144024,0.300814,0.15602,0.165774,inf,inf,inf,inf,0,1,0,1,1,0,1,1,0,0,0
9396000,0,0.0,0.0,0.0,0.0,0.0127068,-3.24889e-08,-1.98428e-06,0.0,-0.00411271,-0.00279972,0.0110228,0.0139491,-8.12223e-06,-0.00049607,0.0,-0.0502384,-0.0104118,0.0392199,0.00596878,0.0,0.1,-0.0110228,0.14458,0.300669,0.155138,0.16397,inf,inf,inf,inf,0,1,0,1,1,0,1,1,0,0,0
9492000,0,0.0,0.0,0.0,0.0,0.0109405,-3.24889e-08,-1.98428e-06,0.0,-0.00456849,-0.00524439,0.0107954,0.010747,-8.12223e-06,-0.00049607,0.0,-0.0362921,0.00200257,-0.0551539,0.00616691,0.0,0.1,-0.0107954,0.142161,0.297173,0.152047,0.160897,inf,inf,inf,inf,0,1,0,1,1,0,1,1,0,0,0
9588000,0,0.0,0.0,0.0,0.0,0.00938147,-3.24889e-08,-1.98428e-06,0.0,-0.00381904,-0.00707286,0.010232,0.00789399,-8.12223e-06,-0.00049607,0.0,0.0110637,-0.074408,-0.00246428,0.00587741,0.0,0.1,-0.010232,0.142703,0.29703,0.151249,0.159189,inf,inf,inf,inf,0,1,0,1,1,0,1,1,0,0,0
9684000,0,0.0,0.0,0.0,0.0,0.00826048,-3.24889e-08,-1.98428e-06,0.0,-0.00321674,-0.00766017,0.00872435,0.00481605,-8.12223e-06,-0.00049607,0.0,0.00369782,-0.0406211,-0.0115642,0.0059694,0.0,0.1,-0.00872435,0.143234,0.296875,0.150463,0.157514,inf,inf,inf,inf,0,1,0,1,1,0,1,1,0,0,0
9780000,0,0.0,0.0,0.0,0.0,0.00724889,-3.24889e-08,-1.98428e-06,0.0,-0.00277123,-0.00832352,0.00646493,0.00141298,-8.12223e-06,-0.00049607,0.0,-0.014028,-0.0212479,-0.0477545,0.00609461,0.0,0.1,-0.00646493,0.140875,0.293496,0.147547,0.154652,inf,inf,inf,inf,0,1,0,1,1,0,1,1,0,0,0
9876000,0,0.0,0.0,0.0,0.0,0.00611479,-3.24889e-08,-1.98428e-06,0.0,-0.00187661,-0.00996234,0.00487574,-0.00109623,-8.12223e-06,-0.00049607,0.0,0.0633806,-0.0470833,0.00679307,0.00600427,0.0,0.1,-0.00487574,0.141397,0.293346,0.146829,0.153068,inf,inf,inf,inf,0,1,0,1,1,0,1,1,0,0,0
9972000,0,0.0,0.0,0.0,0.0,0.00526815,-3.24889e-08,-1.98428e-06,0.0,-0.00115215,-0.0107876,0.00326926,-0.00316674,-8.12223e-06,-0.00049607,0.0,0.029848,-0.0138738,0.000229105,0.00580845,0.0,0.1,-0.00326926,0.139139,0.290087,0.144133,0.150361,inf,inf,inf,inf,0,1,0,1,1,0,1,1,0,0,0
10068000,0,0.0,0.0,0.0,0.0,0.00467204,-3.24889e-08,-1.98428e-06,0.0,-0.000635189,-0.013134,0.00157433,-0.00483441,-8.12223e-06,-0.00049607,0.0,0.0225591,0.0132682,0.0352832,0.00595791,0.0,0.1,-0.00157433,0.139658,0.289944,0.143482,0.148862,inf,inf,inf,inf,0,1,0,1,1,0,1,1,0,0,0
10164000,0,0.0,0.0,0.0,0.0,0.00348968,-3.24889e-08,-1.98428e-06,0.0,0.000279119,-0.0129019,-0.000787449,-0.00758758,-8.12223e-06,-0.00049607,0.0,-0.0379348,-0.01294,-0.0194311,0.00604834,0.0,0.1,0.000787449,0.140171,0.289793,0.142859,0.147393,inf,inf,inf,inf,0,1,0,1,1,0,1,1,0,0,0
10260000,10216000,47.397742,8.545594,0.0,0.0,0.00257516,-3.24889e-08,-1.98428e-06,0.0,0.00113045,-0.0149223,-0.000754296,-0.00752747,-8.12223e-06,-0.00049607,0.0,0.0200776,0.0357096,-0.0428585,0.00208719,488.005,0.1,0.000754296,0.137948,0.286644,0.137209,0.144872,inf,inf,inf,inf,0,1,0,1,1,0,1,1,1,1,0
10356000,10216000,47.397742,8.545594,0.0,0.0,0.00233356,-3.24889e-08,-1.98428e-06,0.0,0.00197871,-0.0165876,-0.000211869,-0.00631682,-8.12223e-06,-0.00049607,0.0,-0.059871,-0.036165,0.010713,0.00230649,488.005,0.1,0.000211869,0.137983,0.286502,0.130262,0.143483,inf,inf,inf,inf,0,1,0,1,1,0,1,1,1,1,0
10452000,10216000,47.397742,8.545594,0.0,0.0,0.0017522,-3.24889e-08,-1.98428e-06,0.0,0.00269534,-0.0184987,0.000478074,-0.00551796,-8.12223e-06,-0.00049607,0.0,0.0461521,0.000684349,0.0360738,0.00242883,488.005,0.1,-0.000478074,0.137573,0.286353,0.128088,0.142124,inf,inf,inf,inf,0,1,0,1,1,0,1,1,1,1,0
10548000,10216000,47.397742,8.545594,0.0,0.0,0.00044268,-3.24889e-08,-1.98428e-06,0.0,0.00382448,-0.0205681,0.0014092,-0.0052893,-8.12223e-06,-0.00049607,0.0,0.00129529,-0.0322895,0.0133468,0.00271774,488.005,0.1,-0.0014092,0.134443,0.283312,0.129217,0.139775,inf,inf,inf,inf,0,1,0,1,1,0,1,1,1,1,0
10644000,10216000,47.397742,8.545594,0.0,0.0,-0.00106122,-3.24889e-08,-1.98428e-06,0.0,0.00354958,-0.021462,0.000255011,-0.00721309,-8.12223e-06,-0.00049607,0.0,0.0120002,-0.0381532,0.00893045,0.00259834,488.005,0.1,-0.000255011,0.133888,0.283173,0.135837,0.13849,inf,inf,inf,inf,0,1,0,1,1,0,1,1,1,1,0
10740000,10216000,47.397742,8.545594,0.0,0.0,-0.00327984,-3.24889e-08,-1.98428e-06,0.0,0.00491193,-0.0218809,0.000809467,-0.00805283,-8.12223e-06,-0.00049607,0.0,0.00523681,-0.0211291,-0.0545541,0.00259212,488.005,0.1,-0.000809467,0.131276,0.280255,0.144415,0.136274,inf,inf,inf,inf,0,1,0,1,1,0,1,1,1,1,0
10836000,10216000,47.397742,8.545594,0.0,0.0,-0.00513755,-3.24889e-08,-1.98428e-06,0.0,0.00450362,-0.0225043,-0.000289104,-0.00991699,-8.12223e-06,-0.00049607,0.0,-0.0245452,-0.013073,0.0157244,0.00259877,488.005,0.1,0.000289104,0.131462,0.280143,0.156247,0.13507,inf,inf,inf,inf,0,1,0,1,1,0,1,1,1,1,0
10932000,10216000,47.397742,8.545594,0.0,0.0,-0.00584775,-3.24889e-08,-1.98428e-06,0.0,0.00515513,-0.021756,-0.000138938,-0.00935063,-8.12223e-06,-0.00049607,0.0,0.0567743,-0.0121882,0.00336114,0.00272777,488.005,0.101564,0.000138938,0.132271,0.280026,0.169293,0.133894,inf,inf,inf,inf,0,1,0,1,1,0,1,1,1,1,0
11028000,10216000,47.397742,8.545594,0.0,0.0,-0.00635236,-3.24889e-08,-1.98428e-06,0.0,0.00567383,-0.021226,0.00152564,-0.00721328,-8.12223e-06,-0.00049607,0.0,0.0644546,-0.0437383,0.0251578,0.00304086,488.005,0.1,-0.00152564,0.13151,0.277201,0.181534,0.131836,inf,inf,inf,inf,0,1,0,1,1,0,1,1,1,1,0
11124000,10216000,47.397742,8.545594,0.0,0.0,-0.00620872,-3.24889e-08,-1.98428e-06,0.0,0.00512387,-0.0208819,0.000494402,-0.00716553,-8.12223e-06,-0.00049607,0.0,-0.0531217,-0.0345917,-0.0489661,0.00334779,488.005,0.104346,-0.000494402,0.13384,0.277094,0.194871,0.130737,inf,inf,inf,inf,0,1,0,1,1,0,1,1,1,1,0
11220000,10216000,47.397742,8.545594,0.0,0.0,-0.00493606,-3.24889e-08,-1.98428e-06,0.0,0.00530153,-0.0199822,0.00121287,-0.00437174,-8.12223e-06,-0.00049607,0.0,0.0157132,0.0113924,0.0414085,0.00381081,488.005,0.102265,-0.00121287,0.136897,0.276948,0.207451,0.129656,inf,inf,inf,inf,0,1,0,1,1,0,1,1,1,1,0
11316000,10216000,47.397742,8.545594,0.0,0.0,-0.00462523,-3.24889e-08,-1.98428e-06,0.0,0.00562097,-0.0187215,0.0014775,-0.00337066,-8.12223e-06,-0.00049607,0.0,-0.0242598,-0.0496926,0.0152634,0.00405828,488.005,0.1,-0.0014775,0.137972,0.274188,0.216853,0.12775,inf,inf,inf,inf,0,1,0,1,1,0,1,1,1,1,0
11412000,10216000,47.397742,8.545594,0.0,0.0,-0.00487539,-3.24889e-08,-1.98428e-06,0.0,0.00698062,-0.0172903,0.00245882,-0.002339,-8.12223e-06,-0.00049607,0.0,-0.0294373,0.0452859,-0.0556549,0.00423386,488.005,0.101684,-0.00245882,0.142124,0.27406,0.2266,0.126756,inf,inf,inf,inf,0,1,0,1,1,0,1,1,1,1,0
11508000,10216000,47.397742,8.545594,0.0,0.0,-0.00528368,-3.24889e-08,-1.98428e-06,0.0,0.00813643,-0.0147968,0.00391799,-0.00107793,-8.12223e-06,-0.00049607,0.0,0.0441082,0.0394954,-0.00847597,0.00416282,488.005,0.1,-0.00391799,0.14662,0.273932,0.234652,0.1258,inf,inf,inf,inf,0,1,0,1,1,0,1,1,1,1,0
11604000,10216000,47.397742,8.545594,0.0,0.0,-0.0067294,-3.24889e-08,-1.98428e-06,0.0,0.00746355,-0.0118599,0.0038142,-0.0024538,-8.12223e-06,-0.00049607,0.0,-0.0436394,0.0220853,-0.025698,0.00439588,488.005,0.1,-0.0038142,0.147903,0.271274,0.237544,0.124069,inf,inf,inf,inf,0,1,0,1,1,0,1,1,1,1,0
11700000,10216000,47.397742,8.545594,0.0,0.0,-0.00830578,-3.24889e-08,-1.98428e-06,0.0,0.00689216,-0.0095854,0.00334356,-0.00415637,-8.12223e-06,-0.00049607,0.0,-0.0373765,0.00604315,-0.0317432,0.00476767,488.005,0.1,-0.00334356,0.152221,0.271165,0.241443,0.123204,inf,inf,inf,inf,0,1,0,1,1,0,1,1,1,1,0
11796000,10216000,47.397742,8.545594,0.0,0.0,-0.0100618,-3.24889e-08,-1.98428e-06,0.0,0.00598838,-0.00782118,0.000564563,-0.00801236,-8.12223e-06,-0.00049607,0.0,0.0210073,0.0584776,-0.00428967,0.00480358,488.005,0.1,-0.000564563,0.156295,0.271058,0.24351,0.122377,inf,inf,inf,inf,0,1,0,1,1,0,1,1,1,1,0
11892000,10216000,47.397742,8.545594,0.0,0.0,-0.0103001,-3.24889e-08,-1.98428e-06,0.0,0.00601253,-0.00505609,0.000219682,-0.00771123,-8.12223e-06,-0.00049607,0.0,-0.0311448,0.0435276,-0.0625243,0.00495816,488.005,0.100628,-0.000219682,0.156055,0.268501,0.239772,0.120821,inf,inf,inf,inf,0,1,0,1,1,0,1,1,1,1,0
11988000,10216000,47.397742,8.545594,0.0,0.0,-0.0107722,-3.24889e-08,-1.98428e-06,0.0,0.00477396,-0.00287195,-6.17071e-05,-0.00758357,-8.12223e-06,-0.00049607,0.0,-0.0298969,0.00351104,0.0419179,0.00486384,488.005,0.100137,6.17071e-05,0.159152,0.268416,0.238504,0.120087,inf,inf,inf,inf,0,1,0,1,1,0,1,1,1,1,0
12084000,10216000,47.397742,8.545594,0.0,0.0,-0.011319,-3.24889e-08,-1.98428e-06,0.0,0.00253259,1.18576e-05,-4.52357e-05,-0.00724531,-8.12223e-06,-0.00049607,0.0,-0.00762356,-0.0763595,0.0113258,0.0050839,488.005,0.1,4.52357e-05,0.161793,0.268335,0.236015,0.119392,inf,inf,inf,inf,0,1,0,1,1,0,1,1,1,1,0
12180000,10216000,47.397742,8.545594,0.0,0.0,-0.0123114,-3.24889e-08,-1.98428e-06,0.0,0.00160308,0.00267836,-0.000399847,-0.00776161,-8.12223e-06,-0.00049607,0.0,0.00786893,0.0311502,0.0483356,0.00578609,488.005,0.100165,0.000399847,0.159735,0.265878,0.228196,0.118008,inf,inf,inf,inf,0,1,0,1,1,0,1,1,1,1,0
12276000,10216000,47.397742,8.545594,0.0,0.0,-0.0117488,-3.24889e-08,-1.98428e-06,0.0,0.0033027,0.00606958,0.000719822,-0.00530501,-8.12223e-06,-0.00049607,0.0,0.0717833,-0.0245945,-0.000108965,0.00567044,488.005,0.10207,-0.000719822,0.161421,0.265824,0.223992,0.117405,inf,inf,inf,inf,0,1,0,1,1,0,1,1,1,1,0
12372000,10216000,47.397742,8.545594,0.0,0.0,-0.0106586,-3.24889e-08,-1.98428e-06,0.0,0.00384984,0.00858389,-1.6462e-05,-0.00437156,-8.12223e-06,-0.00049607,0.0,0.0078728,-0.000526125,-0.0513373,0.00535007,488.005,0.105298,1.6462e-05,0.158582,0.263459,0.215171,0.116143,inf,inf,inf,inf,0,1,0,1,1,0,1,1,1,1,0
12468000,10216000,47.397742,8.545594,0.0,0.0,-0.00933412,-3.24889e-08,-1.98428e-06,0.0,0.000640708,0.0115265,0.000549996,-0.00207746,-8.12223e-06,-0.00049607,0.0,0.0535167,-0.0053971,-0.00391155,0.0054896,488.005,0.103381,-0.000549996,0.159548,0.263432,0.2102,0.115628,inf,inf,inf,inf,0,1,0,1,1,0,1,1,1,1,0
12564000,10216000,47.397742,8.545594,0.0,0.0,-0.00747874,-3.24889e-08,-1.98428e-06,0.0,-0.000271502,0.0126647,0.001856,0.00117735,-8.12223e-06,-0.00049607,0.0,0.0178607,0.0181429,0.0407491,0.00566248,488.005,0.104246,-0.001856,0.160233,0.263413,0.205048,0.115153,inf,inf,inf,inf,0,1,0,1,1,0,1,1,1,1,0
12660000,10216000,47.397742,8.545594,0.0,0.0,-0.0068735,-3.24889e-08,-1.98428e-06,0.0,0.000487584,0.0131385,0.00266686,0.00237779,-8.12223e-06,-0.00049607,0.0,0.0115808,0.0292483,0.0351034,0.00612632,488.005,0.100747,-0.00266686,0.156681,0.261149,0.196088,0.114049,inf,inf,inf,inf,0,1,0,1,1,0,1,1,1,1,0
12756000,10216000,47.397742,8.545594,0.0,0.0,-0.00622031,-3.24889e-08,-1.98428e-06,0.0,-0.000150004,0.0145219,0.00181255,0.00199836,-8.12223e-06,-0.00049607,0.0,-0.0543785,-0.00478346,0.0607613,0.00599123,488.005,0.103196,-0.00181255,0.156962,0.261161,0.190973,0.113659,inf,inf,inf,inf,0,1,0,1,1,0,1,1,1,1,0
12852000,10216000,47.397742,8.545594,0.0,0.0,-0.00603291,-3.24889e-08,-1.98428e-06,0.0,-0.000866142,0.0149026,0.00214486,0.00224226,-8.12223e-06,-0.00049607,0.0,-0.0397423,0.0173457,0.0195596,0.0065386,488.005,0.1,-0.00214486,0.157076,0.261185,0.185926,0.113305,inf,inf,inf,inf,0,1,0,1,1,0,1,1,1,1,0
12948000,10216000,47.397742,8.545594,0.0,0.0,-0.00727407,-3.24889e-08,-1.98428e-06,0.0,0.00068055,0.0155717,0.00159844,0.000201231,-8.12223e-06,-0.00049607,0.0,-0.0160649,-0.00292432,0.0287518,0.00634146,488.005,0.1,-0.00159844,0.153314,0.25902,0.177764,0.11235,inf,inf,inf,inf,0,1,0,1,1,0,1,1,1,1,0
13044000,10216000,47.397742,8.545594,0.0,0.0,-0.00877352,-3.24889e-08,-1.98428e-06,0.0,0.00192492,0.0167064,0.00222823,-0.000731641,-8.12223e-06,-0.00049607,0.0,-0.00042874,0.0594355,-0.00422355,0.00646886,488.005,0.1,-0.00222823,0.153131,0.259054,0.172992,0.112065,inf,inf,inf,inf,0,1,0,1,1,0,1,1,1,1,0
13140000,10216000,47.397742,8.545594,0.0,0.0,-0.00945231,-3.24889e-08,-1.98428e-06,0.0,0.00266747,0.01729,0.00284786,-0.000658529,-8.12223e-06,-0.00049607,0.0,0.0196388,0.0320665,-0.0135601,0.00688134,488.005,0.100229,-0.00284786,0.152927,0.259115,0.168475,0.11182,inf,inf,inf,inf,0,1,0,1,1,0,1,1,1,1,0
13236000,10216000,47.397742,8.545594,0.0,0.0,-0.00840951,-3.24889e-08,-1.98428e-06,0.0,0.0032725,0.0170344,0.00315884,0.00076199,-8.12223e-06,-0.00049607,0.0,0.0275005,0.0265776,-0.0638552,0.00686016,488.005,0.103719,-0.00315884,0.149168,0.257029,0.161345,0.110992,inf,inf,inf,inf,0,1,0,1,1,0,1,1,1,1,0
13332000,10216000,47.397742,8.545594,0.0,0.0,-0.00718241,-3.24889e-08,-1.98428e-06,0.0,0.00476528,0.017719,0.00304368,0.00183026,-8.12223e-06,-0.00049607,0.0,0.00484006,0.00940009,0.0101253,0.00688245,488.005,0.10274,-0.00304368,0.14887,0.257118,0.157309,0.110816,inf,inf,inf,inf,0,1,0,1,1,0,1,1,1,1,0
13428000,10216000,47.397742,8.545594,0.0,0.0,-0.00658523,-3.24889e-08,-1.98428e-06,0.0,0.00456175,0.018401,0.0032797,0.00243581,-8.12223e-06,-0.00049607,0.0,-0.0242496,-0.00711451,-0.00695791,0.00676523,488.005,0.101164,-0.0032797,0.148444,0.2572,0.153399,0.110662,inf,inf,inf,inf,0,1,0,1,1,0,1,1,1,1,0
13524000,10216000,47.397742,8.545594,0.0,0.0,-0.00466798,-3.24889e-08,-1.98428e-06,0.0,0.00444304,0.017419,0.00472679,0.0054279,-8.12223e-06,-0.00049607,0.0,-0.00789243,-0.0346592,0.0267941,0.00701725,488.005,0.104878,-0.00472679,0.144866,0.255197,0.147377,0.109949,inf,inf,inf,inf,0,1,0,1,1,0,1,1,1,1,0
13620000,10216000,47.397742,8.545594,0.0,0.0,-0.00278179,-3.24889e-08,-1.98428e-06,0.0,0.00554083,0.0158703,0.00586642,0.00780075,-8.12223e-06,-0.00049607,0.0,0.00778324,0.0402234,0.0182083,0.00695265,488.005,0.101263,-0.00586642,0.144489,0.255324,0.144039,0.109862,inf,inf,inf,inf,0,1,0,1,1,0,1,1,1,1,0
13716000,10216000,47.397742,8.545594,0.0,0.0,-0.00140617,-3.24889e-08,-1.98428e-06,0.0,0.00618311,0.0137733,0.00580906,0.00825011,-8.12223e-06,-0.00049607,0.0,0.0615362,0.0105566,0.0388101,0.00708833,488.005,0.101826,-0.00580906,0.144106,0.255471,0.140917,0.109805,inf,inf,inf,inf,0,1,0,1,1,0,1,1,1,1,0
13812000,10216000,47.397742,8.545594,0.0,0.0,0.000433642,-3.24889e-08,-1.98428e-06,0.0,0.00567022,0.014254,0.00721688,0.0105372,-8.12223e-06,-0.00049607,0.0,0.058071,-0.0285944,0.00533089,0.00689073,488.005,0.101337,-0.00721688,0.140842,0.253574,0.135993,0.109202,inf,inf,inf,inf,0,1,0,1,1,0,1,1,1,1,0
13908000,10216000,47.397742,8.545594,0.0,0.0,0.00166041,-3.24889e-08,-1.98428e-06,0.0,0.00597205,0.0135699,0.00738643,0.0107947,-8.12223e-06,-0.00049607,0.0,0.0422,-0.0372047,0.0446849,0.00688549,488.005,0.1,-0.00738643,0.140554,0.253778,0.133411,0.109208,inf,inf,inf,inf,0,1,0,1,1,0,1,1,1,1,0
14004000,10216000,47.397742,8.545594,0.0,0.0,0.00288034,-3.24889e-08,-1.98428e-06,0.0,0.00508249,0.0114456,0.00712283,0.0106963,-8.12223e-06,-0.00049607,0.0,-0.0308483,-0.0617722,0.0177883,0.00679954,488.005,0.101281,-0.00712283,0.140264,0.254,0.131013,0.109239,inf,inf,inf,inf,0,1,0,1,1,0,1,1,1,1,0
14100000,10216000,47.397742,8.545594,0.0,0.0,0.00403959,-3.24889e-08,-1.98428e-06,0.0,0.00595945,0.0112297,0.00862922,0.012164,-8.12223e-06,-0.00049607,0.0,-0.0153254,0.00829393,0.0117179,0.00663097,488.005,0.1,-0.00862922,0.137314,0.252213,0.127058,0.108734,inf,inf,inf,inf,0,1,0,1,1,0,1,1,1,1,0
14196000,10216000,47.397742,8.545594,0.0,0.0,0.00456599,-3.24889e-08,-1.98428e-06,0.0,0.00755827,0.0112055,0.00794885,0.0107785,-8.12223e-06,-0.00049607,0.0,0.0214732,0.0291,-0.0262763,0.00665298,488.005,0.1,-0.00794885,0.137084,0.252481,0.125101,0.108814,inf,inf,inf,inf,0,1,0,1,1,0,1,1,1,1,0
14292000,10216000,47.397742,8.545594,0.0,0.0,0.0055054,-3.24889e-08,-1.98428e-06,0.0,0.00931682,0.0120017,0.00836155,0.01103,-8.12223e-06,-0.00049607,0.0,-0.00813332,0.0108977,0.0492101,0.00712257,488.005,0.1,-0.00836155,0.13437,0.250774,0.121743,0.108368,inf,inf,inf,inf,0,1,0,1,1,0,1,1,1,1,0
14388000,10216000,47.397742,8.545594,0.0,0.0,0.00636967,-3.24889e-08,-1.98428e-06,0.0,0.0098881,0.013107,0.00743514,0.00983574,-8.12223e-06,-0.00049607,0.0,0.0330564,0.0296893,-0.0312738,0.00698757,488.005,0.1,-0.00743514,0.134204,0.251085,0.120198,0.10849,inf,inf,inf,inf,0,1,0,1,1,0,1,1,1,1,0
14484000,10216000,47.397742,8.545594,0.0,0.0,0.00665495,-3.24889e-08,-1.98428e-06,0.0,0.0113941,0.0140344,0.00750788,0.00920333,-8.12223e-06,-0.00049607,0.0,0.0449528,0.0178287,0.0331476,0.00681377,488.005,0.1,-0.00750788,0.134055,0.251417,0.118814,0.10863,inf,inf,inf,inf,0,1,0,1,1,0,1,1,1,1,0
14580000,10216000,47.397742,8.545594,0.0,0.0,0.00622681,-3.24889e-08,-1.98428e-06,0.0,0.011158,0.0137431,0.00586102,0.00632387,-8.12223e-06,-0.00049607,0.0,-0.0279851,-0.0306497,-0.00200421,0.00681888,488.005,0.1,-0.00586102,0.131585,0.249797,0.11619,0.108251,inf,inf,inf,inf,0,1,0,1,1,0,1,1,1,1,0
14676000,10216000,47.397742,8.545594,-0.00847893,-0.0101363,0.00553593,-0.0148278,-0.0204871,0.0,0.00184295,0.00322065,-0.000858236,0.0040557,-0.0108005,-0.0111336,-0.00589794,0.0180117,-0.0199965,0.0165785,0.00692075,488.005,0.1,0.000858236,0.6,0.250182,0.316228,0.237171,inf,inf,inf,inf,1,1,1,1,2,0,2,2,1,1,0
14772000,10216000,47.397742,8.545594,-0.00887275,-0.0113044,0.00420481,-0.0148278,-0.0204871,0.0,0.00385762,0.0045057,-0.00142265,0.000403357,-0.0108005,-0.0111336,-0.00589794,0.0143425,-0.0157186,-0.00660866,0.00673047,488.005,0.1,0.00142265,0.484624,0.243655,0.288826,0.226301,inf,inf,inf,inf,1,1,1,1,2,0,2,2,1,1,0
14868000,10216000,47.397742,8.545594,-0.00926829,-0.0145661,0.00216241,-0.0148278,-0.0204871,0.0,0.00477968,0.00689207,-0.00126819,-0.00234113,-0.0108005,-0.0111336,-0.00589794,0.0627638,0.0345911,0.0234079,0.00692196,488.005,0.1,0.00126819,0.486447,0.237889,0.289277,0.226386,inf,inf,inf,inf,1,1,1,1,2,0,2,2,1,1,0
14964000,10216000,47.397742,8.545594,-0.00851994,-0.0173307,0.000824678,-0.0148278,-0.0204871,0.0,0.00434777,0.00741789,-0.00100296,-0.00375436,-0.0108005,-0.0111336,-0.00589794,-0.0435533,-0.0267731,-0.0121901,0.00706602,488.005,0.1,0.00100296,0.418947,0.235399,0.267996,0.216708,inf,inf,inf,inf,1,1,1,1,2,0,2,2,1,1,0
15060000,10216000,47.397742,8.545594,-0.00723422,-0.0178076,0.000674159,-0.0148278,-0.0204871,0.0,0.0060425,0.00919197,-0.00237085,-0.00530156,-0.0108005,-0.0111336,-0.00589794,-0.0551486,0.0298818,-0.0175098,0.00724207,488.005,0.101933,0.00237085,0.373381,0.232465,0.250813,0.207892,inf,inf,inf,inf,1,1,1,1,2,0,2,2,1,1,0
15156000,10216000,47.397742,8.545594,-0.00589615,-0.0176268,0.000763011,-0.0148278,-0.0204871,0.0,0.00537056,0.00909642,-0.000922426,-0.00367214,-0.0108005,-0.0111336,-0.00589794,0.049822,-0.0436762,0.0415388,0.00774759,488.005,0.10141,0.000922426,0.340108,0.231956,0.236511,0.199983,inf,inf,inf,inf,1,1,1,1,2,0,2,2,1,1,0
15252000,10216000,47.397742,8.545594,-0.0045128,-0.0167656,0.000941423,-0.0148278,-0.0204871,0.0,0.00683457,0.00984664,0.000836094,-0.00171104,-0.0108005,-0.0111336,-0.00589794,-0.0382573,0.0543773,-0.0450592,0.00764438,488.005,0.1,-0.000836094,0.314629,0.232022,0.224405,0.192742,inf,inf,inf,inf,1,1,1,1,2,0,2,2,1,1,0
15348000,10216000,47.397742,8.545594,-0.00371611,-0.015121,0.000361382,-0.0148278,-0.0204871,0.0,0.00653614,0.0109175,-0.000989862,-0.00403126,-0.0108005,-0.0111336,-0.00589794,-0.0434141,0.0420156,0.00637118,0.00802604,488.005,0.1,0.000989862,0.294365,0.230935,0.213935,0.18578,inf,inf,inf,inf,1,1,1,1,2,0,2,2,1,1,0
15444000,10216000,47.397742,8.545594,-0.00343181,-0.0129974,-0.00172485,-0.0148278,-0.0204871,0.0,0.00643339,0.0124094,-0.00154018,-0.00636164,-0.0108005,-0.0111336,-0.00589794,0.0723616,-0.000807919,0.00124611,0.0080471,488.005,0.1,0.00154018,0.277879,0.231674,0.20482,0.179546,inf,inf,inf,inf,1,1,1,1,2,0,2,2,1,1,0
15540000,10216000,47.397742,8.545594,-0.00340288,-0.0103873,-0.00354866,-0.0148278,-0.0204871,0.0,0.0059242,0.0154606,-0.00209176,-0.00814358,-0.0108005,-0.0111336,-0.00589794,0.0485446,-0.00753576,0.0117086,0.00798933,488.005,0.1,0.00209176,0.264123,0.232588,0.196748,0.173731,inf,inf,inf,inf,1,1,1,1,2,0,2,2,1,1,0
15636000,10216000,47.397742,8.545594,-0.00366527,-0.00746035,-0.00528829,-0.0148278,-0.0204871,0.0,0.00496526,0.0164204,-0.00268046,-0.00965707,-0.0108005,-0.0111336,-0.00589794,-0.0405663,-0.00754579,-0.00524148,0.0079627,488.005,0.101407,0.00268046,0.252507,0.23203,0.189596,0.167913,inf,inf,inf,inf,1,1,1,1,2,0,2,2,1,1,0
15732000,10216000,47.397742,8.545594,-0.00425371,-0.00472281,-0.0054466,-0.0148278,-0.0204871,0.0,0.00542374,0.0177893,-0.00274491,-0.00890332,-0.0108005,-0.0111336,-0.00589794,-0.0294426,0.0205532,0.076307,0.00802056,488.005,0.10184,0.00274491,0.243054,0.23309,0.183221,0.162783,inf,inf,inf,inf,1,1,1,1,2,0,2,2,1,1,0
15828000,10216000,47.397742,8.545594,-0.00485966,-0.00236175,-0.00506344,-0.0148278,-0.0204871,0.0,0.00656282,0.0201993,-0.00197526,-0.00691922,-0.0108005,-0.0111336,-0.00589794,0.0742569,0.0211719,-0.0151144,0.00826851,488.005,0.102484,0.00197526,0.235323,0.234162,0.177578,0.15796,inf,inf,inf,inf,1,1,1,1,2,0,2,2,1,1,0
15924000,10216000,47.397742,8.545594,-0.00526655,-0.000342379,-0.00403859,-0.0148278,-0.0204871,0.0,0.00593964,0.0212283,-0.0010105,-0.00430589,-0.0108005,-0.0111336,-0.00589794,-0.0433534,0.0260227,0.0599483,0.00811262,488.005,0.104667,0.0010105,0.228876,0.233606,0.172509,0.152977,inf,inf,inf,inf,1,1,1,1,2,0,2,2,1,1,0
16020000,10216000,47.397742,8.545594,-0.0055963,0.00141503,-0.0030985,-0.0148278,-0.0204871,0.0,0.00579104,0.023096,0.000769168,-0.00130751,-0.0108005,-0.0111336,-0.00589794,-0.0740377,0.0538024,0.0044601,0.00821279,488.005,0.103024,-0.000769168,0.22351,0.234613,0.168015,0.148682,inf,inf,inf,inf,1,1,1,1,2,0,2,2,1,1,0
16116000,10216000,47.397742,8.545594,-0.00571809,0.00318531,-0.00214471,-0.0148278,-0.0204871,0.0,0.00520137,0.0252257,0.00173223,0.00062138,-0.0108005,-0.0111336,-0.00589794,0.0181466,-0.05678,-0.0275914,0.00843024,488.005,0.104841,-0.00173223,0.218955,0.233951,0.163976,0.14417,inf,inf,inf,inf,1,1,1,1,2,0,2,2,1,1,0
16212000,10216000,47.397742,8.545594,-0.00576204,0.00454797,-0.000847562,-0.0148278,-0.0204871,0.0,0.00487481,0.0255752,0.00162667,0.00168266,-0.0108005,-0.0111336,-0.00589794,0.0359811,0.0366958,0.0794576,0.00861785,488.005,0.100971,-0.00162667,0.215119,0.234836,0.160407,0.140341,inf,inf,inf,inf,1,1,1,1,2,0,2,2,1,1,0
16308000,10216000,47.397742,8.545594,-0.00569228,0.00537289,-0.000179899,-0.0148278,-0.0204871,0.0,0.00430718,0.0262946,0.00241171,0.00283682,-0.0108005,-0.0111336,-0.00589794,-0.046779,-0.056706,-0.00812579,0.00875324,488.005,0.101828,-0.00241171,0.211815,0.235653,0.15722,0.136729,inf,inf,inf,inf,1,1,1,1,2,0,2,2,1,1,0
16404000,10216000,47.397742,8.545594,-0.00541528,0.00579619,0.000830139,-0.0148278,-0.0204871,0.0,0.00203229,0.0264351,0.00305354,0.00410586,-0.0108005,-0.0111336,-0.00589794,-0.0550182,-0.0306141,0.0123996,0.00852411,488.005,0.100884,-0.00305354,0.209007,0.234765,0.154437,0.132848,inf,inf,inf,inf,1,1,1,1,2,0,2,2,1,1,0
16500000,10216000,47.397742,8.545594,-0.00489606,0.00615245,0.00103102,-0.0148278,-0.0204871,0.0,0.00267241,0.0259521,0.00168228,0.00255088,-0.0108005,-0.0111336,-0.00589794,0.00120044,0.039413,0.00594184,0.00845857,488.005,0.1,-0.00168228,0.206556,0.235433,0.151973,0.129638,inf,inf,inf,inf,1,1,1,1,2,0,2,2,1,1,0
16596000,10216000,47.397742,8.545594,-0.00443733,0.00624093,0.00126945,-0.0148278,-0.0204871,0.0,0.00222056,0.0250082,0.00318132,0.00394265,-0.0108005,-0.0111336,-0.00589794,0.0542812,-0.00889791,0.0709267,0.00813087,488.005,0.1,-0.00318132,0.204459,0.236029,0.149862,0.126618,inf,inf,inf,inf,1,1,1,1,2,0,2,2,1,1,0
16692000,10216000,47.397742,8.545594,-0.00400136,0.00640911,0.00120263,-0.0148278,-0.0204871,0.0,0.00171779,0.0262003,0.0040353,0.00425459,-0.0108005,-0.0111336,-0.00589794,0.0113258,0.0444322,-0.0310624,0.00826694,488.005,0.1,-0.0040353,0.202604,0.234916,0.14802,0.123305,inf,inf,inf,inf,1,1,1,1,2,0,2,2,1,1,0
16788000,10216000,47.397742,8.545594,-0.00355148,0.00683706,0.00120973,-0.0148278,-0.0204871,0.0,0.00236463,0.026728,0.00348246,0.0033159,-0.0108005,-0.0111336,-0.00589794,0.016622,0.071598,-0.0120085,0.00826652,488.005,0.1,-0.00348246,0.20101,0.235372,0.146473,0.120644,inf,inf,inf,inf,1,1,1,1,2,0,2,2,1,1,0
16884000,10216000,47.397742,8.545594,-0.00300208,0.0075429,0.00146799,-0.0148278,-0.0204871,0.0,0.0032415,0.0280145,0.00358633,0.00338489,-0.0108005,-0.0111336,-0.00589794,-0.019659,0.063045,0.00847224,0.00831058,488.005,0.1,-0.00358633,0.199582,0.235762,0.145159,0.118151,inf,inf,inf,inf,1,1,1,1,2,0,2,2,1,1,0
16980000,10216000,47.397742,8.545594,-0.00247444,0.00814837,0.000884001,-0.0148278,-0.0204871,0.0,0.00405994,0.0298545,0.00263384,0.00159163,-0.0108005,-0.0111336,-0.00589794,0.00687952,0.0414876,0.042404,0.00824632,488.005,0.1,-0.00263384,0.198351,0.234461,0.14411,0.115361,inf,inf,inf,inf,1,1,1,1,2,0,2,2,1,1,0
17076000,10216000,47.397742,8.545594,-0.00187637,0.00877662,-1.03498e-05,-0.0148278,-0.0204871,0.0,0.00571506,0.0305052,0.00353885,0.00138498,-0.0108005,-0.0111336,-0.00589794,-0.000972923,0.0316209,-0.000678003,0.00849191,488.005,0.1,-0.00353885,0.197236,0.234733,0.143238,0.113193,inf,inf,inf,inf,1,1,1,1,2,0,2,2,1,1,0
17172000,10216000,47.397742,8.545594,-0.00136071,0.00969332,-0.00151311,-0.0148278,-0.0204871,0.0,0.00830614,0.0309554,0.0023797,-0.00128776,-0.0108005,-0.0111336,-0.00589794,0.0853051,-0.00272456,0.00887643,0.00864069,488.005,0.1,-0.0023797,0.196274,0.233346,0.142587,0.110735,inf,inf,inf,inf,1,1,1,1,2,0,2,2,1,1,0
17268000,10216000,47.397742,8.545594,-0.000870562,0.0108881,-0.00299819,-0.0148278,-0.0204871,0.0,0.00941253,0.0292066,0.00153342,-0.00334396,-0.0108005,-0.0111336,-0.00589794,-0.0293658,-0.0368137,0.00165217,0.00883439,488.005,0.1,-0.00153342,0.205212,0.234982,0.147581,0.110041,inf,inf,inf,inf,1,1,1,1,2,0,2,2,1,1,0
17364000,10216000,47.397742,8.545594,-0.000764524,0.0125146,-0.00446126,-0.0148278,-0.0204871,0.0,0.0096811,0.0289215,0.00227876,-0.00364462,-0.0108005,-0.0111336,-0.00589794,-0.0101237,0.0402994,0.0882475,0.00869842,488.005,0.1,-0.00227876,0.204367,0.235069,0.147235,0.108267,inf,inf,inf,inf,1,1,1,1,2,0,2,2,1,1,0
17460000,10216000,47.397742,8.545594,-0.00132406,0.0140343,-0.00529191,-0.0148278,-0.0204871,0.0,0.00971742,0.0281223,0.00512064,-0.00129684,-0.0108005,-0.0111336,-0.00589794,0.0353232,-0.0435239,0.0742162,0.00871158,488.005,0.1,-0.00512064,0.203652,0.233508,0.147056,0.106204,inf,inf,inf,inf,1,1,1,1,2,0,2,2,1,1,0
17556000,10216000,47.397742,8.545594,-0.00201579,0.0153956,-0.00522547,-0.0148278,-0.0204871,0.0,0.00888082,0.0297824,0.00481405,-0.00129609,-0.0108005,-0.0111336,-0.00589794,-0.0241955,0.0192069,-0.00977982,0.00866736,488.005,0.1,-0.00481405,0.202987,0.233527,0.14695,0.104719,inf,inf,inf,inf,1,1,1,1,2,0,2,2,1,1,0
17652000,10216000,47.397742,8.545594,-0.00284252,0.0164293,-0.00532459,-0.0148278,-0.0204871,0.0,0.00838144,0.0310547,0.00438537,-0.00155878,-0.0108005,-0.0111336,-0.00589794,-0.0533853,-0.0515844,0.0231676,0.0084694,488.005,0.1,-0.00438537,0.202429,0.233522,0.146973,0.103371,inf,inf,inf,inf,1,1,1,1,2,0,2,2,1,1,0
17748000,10216000,47.397742,8.545594,-0.00333109,0.0172086,-0.00577462,-0.0148278,-0.0204871,0.0,0.00680703,0.0298148,0.00301538,-0.00304653,-0.0108005,-0.0111336,-0.00589794,0.011836,0.0597285,-0.0147568,0.00852481,488.005,0.1,-0.00301538,0.201902,0.231913,0.147053,0.10174,inf,inf,inf,inf,1,1,1,1,2,0,2,2,1,1,0
17844000,10216000,47.397742,8.545594,-0.00344419,0.0178246,-0.00611028,-0.0148278,-0.0204871,0.0,0.00749672,0.029906,0.00292789,-0.00310375,-0.0108005,-0.0111336,-0.00589794,-0.0768166,0.00323171,-0.0928212,0.00839678,488.005,0.1,-0.00292789,0.201468,0.231865,0.147232,0.100647,inf,inf,inf,inf,1,1,1,1,2,0,2,2,1,1,0
17940000,10216000,47.397742,8.545594,-0.00348877,0.0183902,-0.00649657,-0.0148278,-0.0204871,0.0,0.00898586,0.0293294,0.000862382,-0.00506644,-0.0108005,-0.0111336,-0.00589794,-0.0256369,0.0252962,0.00369083,0.00844277,488.005,0.1,-0.000862382,0.201049,0.230254,0.147414,0.0992821,inf,inf,inf,inf,1,1,1,1,2,0,2,2,1,1,0
18036000,10216000,47.397742,8.545594,-0.00348273,0.0189994,-0.00659635,-0.0148278,-0.0204871,0.0,0.00771202,0.0288173,-7.58411e-05,-0.00549758,-0.0108005,-0.0111336,-0.00589794,0.0366476,-0.00802666,0.000231899,0.00850696,488.005,0.101344,7.58411e-05,0.200708,0.230178,0.147653,0.0984231,inf,inf,inf,inf,1,1,1,1,2,0,2,2,1,1,0
18132000,10216000,47.397742,8.545594,-0.00360605,0.0191851,-0.00690707,-0.0148278,-0.0204871,0.0,0.0068219,0.0269237,0.000108286,-0.00505765,-0.0108005,-0.0111336,-0.00589794,0.0187326,-0.0122096,0.00418629,0.00859055,488.005,0.1,-0.000108286,0.200371,0.230088,0.147877,0.0976671,inf,inf,inf,inf,1,1,1,1,2,0,2,2,1,1,0
18228000,10216000,47.397742,8.545594,-0.00369432,0.0188462,-0.00660382,-0.0148278,-0.0204871,0.0,0.0090347,0.0264006,0.000511443,-0.00385143,-0.0108005,-0.0111336,-0.00589794,-0.00286244,0.00426867,0.0227112,0.00862782,488.005,0.101212,-0.000511443,0.200101,0.228484,0.148128,0.096649,inf,inf,inf,inf,1,1,1,1,2,0,2,2,1,1,0
18324000,10216000,47.397742,8.545594,-0.00378341,0.0184287,-0.0063585,-0.0148278,-0.0204871,0.0,0.0100325,0.0244325,0.00156921,-0.00220084,-0.0108005,-0.0111336,-0.00589794,-0.0276357,0.00864224,-0.0332994,0.00853803,488.005,0.100967,-0.00156921,0.199823,0.228388,0.148322,0.0960938,inf,inf,inf,inf,1,1,1,1,2,0,2,2,1,1,0
18420000,10216000,47.397742,8.545594,-0.00393794,0.0183278,-0.00708756,-0.0148278,-0.0204871,0.0,0.00907593,0.0251327,0.00147238,-0.00275952,-0.0108005,-0.0111336,-0.00589794,-0.00546047,0.0198189,0.024654,0.00863331,488.005,0.101696,-0.00147238,0.199603,0.228282,0.148533,0.0956255,inf,inf,inf,inf,1,1,1,1,2,0,2,2,1,1,0
18516000,10216000,47.397742,8.545594,-0.00396643,0.018494,-0.00788946,-0.0148278,-0.0204871,0.0,0.00781043,0.0253557,-0.000423457,-0.00502452,-0.0108005,-0.0111336,-0.00589794,0.0210701,-0.0389467,0.0201249,0.00865597,488.005,0.102498,0.000423457,0.199364,0.226705,0.148667,0.0948975,inf,inf,inf,inf,1,1,1,1,2,0,2,2,1,1,0
18612000,10216000,47.397742,8.545594,-0.00407117,0.0184448,-0.00789013,-0.0148278,-0.0204871,0.0,0.00802636,0.0242949,-0.000866517,-0.00495345,-0.0108005,-0.0111336,-0.00589794,-0.00680489,-0.05783,-0.000328757,0.00860027,488.005,0.102499,0.000866517,0.199175,0.226611,0.148812,0.0945975,inf,inf,inf,inf,1,1,1,1,2,0,2,2,1,1,0
18708000,10216000,47.397742,8.545594,-0.00452087,0.0182693,-0.0104432,-0.0148278,-0.0204871,0.0,0.00595753,0.0216102,-0.0653933,-0.0692723,-0.0108005,-0.0111336,-0.00589794,-0.0533074,-0.00928125,-1.14438,0.00876895,488.005,0.105052,0.0653933,0.198959,0.226522,0.148874,0.0943687,inf,inf,inf,inf,1,1,1,1,2,0,2,2,1,1,0
18804000,10216000,47.397742,8.545594,-0.00528399,0.0173598,-0.0228874,-0.0148278,-0.0204871,0.0,0.00322051,0.0132035,-0.184458,-0.18845,-0.0108005,-0.0111336,-0.00589794,-0.0481537,-0.0780336,-1.19101,0.00861495,488.005,0.117496,0.184458,0.198787,0.225005,0.148963,0.0938849,inf,inf,inf,inf,1,1,1,1,2,0,2,2,1,1,0
18900000,10216000,47.397742,8.545594,-0.00617549,0.0154363,-0.0469246,-0.0148278,-0.0204871,0.0,0.00243743,0.00302192,-0.311494,-0.315265,-0.0108005,-0.0111336,-0.00589794,0.0304085,-0.0433003,-1.28027,0.00859678,488.005,0.141533,0.311494,0.198583,0.224943,0.149588,0.0937917,inf,inf,inf,inf,1,1,1,1,2,0,2,2,1,1,0
18996000,10216000,47.397742,8.545594,-0.00717476,0.0128344,-0.0830317,-0.0148278,-0.0204871,0.0,0.00106399,-0.00369168,-0.436873,-0.440458,-0.0108005,-0.0111336,-0.00589794,-0.0494602,-0.0230397,-1.3479,0.00893839,488.005,0.17764,0.436873,0.198435,0.224894,0.150408,0.0937573,inf,inf,inf,inf,1,1,1,1,2,0,2,2,1,1,0
19092000,10216000,47.397742,8.545594,-0.00818747,0.0098717,-0.130128,-0.0148278,-0.0204871,0.0,-0.000517487,-0.00830446,-0.563833,-0.566102,-0.0108005,-0.0111336,-0.00589794,0.01458,0.00250833,-1.25554,0.00876829,488.005,0.224736,0.563833,0.198263,0.223451,0.151121,0.0934638,inf,inf,inf,inf,1,1,1,1,2,0,2,2,1,1,0
19188000,10216000,47.397742,8.545594,-0.00928005,0.00694189,-0.18794,-0.0148278,-0.0204871,0.0,-0.00100681,-0.0101267,-0.688313,-0.688204,-0.0108005,-0.0111336,-0.00589794,-0.0154524,-0.0473794,-1.29466,0.00833183,488.005,0.282548,0.688313,0.198141,0.22344,0.151767,0.0935341,inf,inf,inf,inf,1,1,1,1,2,0,2,2,1,1,0
19284000,10216000,47.397742,8.545594,-0.0100502,0.00372991,-0.257899,-0.0148278,-0.0204871,0.0,-0.000530199,-0.0104723,-0.816313,-0.814075,-0.0108005,-0.0111336,-0.00589794,0.0433829,0.0258681,-1.35124,0.00823646,488.005,0.352508,0.816313,0.197985,0.222064,0.15226,0.0933454,inf,inf,inf,inf,1,1,1,1,2,0,2,2,1,1,0
19380000,10216000,47.397742,8.545594,-0.0103811,0.000393814,-0.339653,-0.0148278,-0.0204871,0.0,-0.000574026,-0.00694586,-0.943294,-0.938791,-0.0108005,-0.0111336,-0.00589794,-0.0704371,0.0695651,-1.32796,0.007924,488.005,0.434261,0.943294,0.197872,0.222096,0.152679,0.0935012,inf,inf,inf,inf,1,1,1,1,2,0,2,2,1,1,0
19476000,10216000,47.397742,8.545594,-0.0105942,-0.00278691,-0.433306,-0.0148278,-0.0204871,0.0,0.000622024,-0.00421392,-1.07058,-1.06381,-0.0108005,-0.0111336,-0.00589794,0.0257865,0.0777495,-1.31423,0.00757252,488.005,0.527914,1.07058,0.197716,0.222147,0.152948,0.0936893,inf,inf,inf,inf,1,1,1,1,2,0,2,2,1,1,0
19572000,10216000,47.397742,8.545594,-0.0105981,-0.00570751,-0.537958,-0.0148278,-0.0204871,0.0,0.00305478,-0.00179481,-1.19786,-1.18787,-0.0108005,-0.0111336,-0.00589794,0.0879047,0.0348098,-1.26325,0.00762392,488.005,0.632566,1.19786,0.197596,0.220861,0.153155,0.0936169,inf,inf,inf,inf,1,1,1,1,2,0,2,2,1,1,0
19668000,10216000,47.397742,8.545594,-0.0103345,-0.00802326,-0.654201,-0.0148278,-0.0204871,0.0,0.00435947,-0.000182106,-1.3243,-1.31096,-0.0108005,-0.0111336,-0.00589794,-0.0196586,0.0236884,-1.39939,0.00792419,488.005,0.74881,1.3243,0.208433,0.221849,0.16049,0.0946116,inf,inf,inf,inf,1,1,1,1,2,0,2,2,1,1,0
19764000,10216000,47.397742,8.545594,-0.00994983,-0.0103093,-0.782928,-0.0148278,-0.0204871,0.0,0.00483066,0.0025512,-1.45221,-1.43618,-0.0108005,-0.0111336,-0.00589794,0.0155521,0.0345887,-1.37943,0.00802822,488.005,0.877536,1.45221,0.208285,0.221975,0.160468,0.0948897,inf,inf,inf,inf,1,1,1,1,2,0,2,2,1,1,0
19860000,10216000,47.397742,8.545594,-0.00934459,-0.0126827,-0.923815,-0.0148278,-0.0204871,0.0,0.00447771,0.00372209,-1.58064,-1.56208,-0.0108005,-0.0111336,-0.00589794,-0.0434756,0.0405098,-1.38535,0.00808133,488.005,1.01842,1.58064,0.208166,0.220769,0.160398,0.0948948,inf,inf,inf,inf,1,1,1,1,2,0,2,2,1,1,0
19956000,10216000,47.397742,8.545594,-0.00839825,-0.0150476,-1.07632,-0.0148278,-0.0204871,0.0,0.00440758,0.00497623,-1.70794,-1.68654,-0.0108005,-0.0111336,-0.00589794,-0.0363379,0.0405002,-1.4444,0.00808414,488.005,1.17093,1.70794,0.207981,0.220949,0.160184,0.0952105,inf,inf,inf,inf,1,1,1,1,2,0,2,2,1,1,0
20052000,10216000,47.397742,8.545594,-0.00739854,-0.0171643,-1.24217,-0.0148278,-0.0204871,0.0,0.00479358,0.00859822,-1.83793,-1.8149,-0.0108005,-0.0111336,-0.00589794,-0.0083071,0.0792765,-1.38696,0.00788388,488.005,1.33678,1.83793,0.207821,0.221154,0.159901,0.0955412,inf,inf,inf,inf,1,1,1,1,2,0,2,2,1,1,0
20148000,10216000,47.397742,8.545594,-0.00676702,-0.0189714,-1.42118,-0.0148278,-0.0204871,0.0,0.00383242,0.0107307,-1.96259,-1.93905,-0.0108005,-0.0111336,-0.00589794,-0.0522992,0.0509093,-1.3307,0.00802536,488.005,1.51579,1.96259,0.207592,0.220039,0.159499,0.0955879,inf,inf,inf,inf,1,1,1,1,2,0,2,2,1,1,0
20244000,10216000,47.397742,8.545594,-0.00623922,-0.0202933,-1.61318,-0.0148278,-0.0204871,0.0,0.00291644,0.0137858,-2.08864,-2.06553,-0.0108005,-0.0111336,-0.00589794,-0.0292712,0.0466222,-1.2874,0.00776121,488.005,1.70779,2.08864,0.207387,0.220295,0.159051,0.0959373,inf,inf,inf,inf,1,1,1,1,2,0,2,2,1,1,0
20340000,10216000,47.397742,8.545594,-0.0062913,-0.0208537,-1.81784,-0.0148278,-0.0204871,0.0,0.000754788,0.0155517,-2.2115,-2.18951,-0.0108005,-0.0111336,-0.00589794,0.00350483,0.0456329,-1.29267,0.00766166,488.005,1.91245,2.2115,0.207111,0.219246,0.15845,0.0959993,inf,inf,inf,inf,1,1,1,1,2,0,2,2,1,1,0
