timestamp,x,y,z,yaw,yawspeed,vx,vy,vz,acc_x,acc_y,acc_z,jerk_x,jerk_y,jerk_z,thrust[0],thrust[1],thrust[2]
18316000,-0.00322717,0.018493,-0.0864177,0.00823861,0.0,-0.00108178,-0.00519605,0.312,0.0,0.0,0.0,0.0,0.0,0.0,-0.00258002,-0.00582736,-0.294419
18412000,-0.00337253,0.0179914,-0.160498,0.00823861,0.0,-0.00108002,-0.00548621,0.189333,0.0,0.0,0.0,0.0,0.0,0.0,-0.0020692,-0.00610568,-0.363642
18504000,-0.00345451,0.0176103,-0.25739,0.00823861,0.0,0.00025617,-0.00326928,0.0717778,0.0,0.0,0.0,0.0,0.0,0.0,-0.00170672,-0.00625607,-0.430667
18596000,-0.00342269,0.0174032,-0.373478,0.00823861,0.0,0.000879066,-0.00371904,-0.0457778,0.0,0.0,0.0,0.0,0.0,0.0,-0.00165064,-0.00605144,-0.501044
18692000,-0.00339379,0.0171172,-0.508348,0.00823861,0.0,0.00104142,-0.00376276,-0.168444,0.0,0.0,0.0,0.0,0.0,0.0,-0.0010894,-0.00537475,-0.552147
18784000,-0.00336786,0.0168649,-0.644356,0.00823861,0.0,0.00164742,-0.00346302,-0.286,0.0,0.0,0.0,0.0,0.0,0.0,-0.000291589,-0.00305197,-0.556121
18876000,-0.00334196,0.0166126,-0.782054,0.00823861,0.0,0.00232294,-0.00228647,-0.403556,0.0,0.0,0.0,0.0,0.0,0.0,3.25217e-05,-0.000147617,-0.552815
18972000,-0.00331492,0.0163493,-0.926032,0.00823861,0.0,0.00310681,-0.000741708,-0.526222,0.0,0.0,0.0,0.0,0.0,0.0,0.000296204,0.000704281,-0.559468
19064000,-0.00328904,0.0160971,-1.06401,0.00823861,0.0,0.00388631,0.00144227,-0.643778,0.0,0.0,0.0,0.0,0.0,0.0,0.000914264,0.00230243,-0.555669
19156000,-0.00326318,0.0158449,-1.20199,0.00823861,0.0,0.00482606,0.0035115,-0.761333,0.0,0.0,0.0,0.0,0.0,0.0,0.00102137,0.00264949,-0.555494
19252000,-0.00323621,0.015582,-1.34597,0.00823861,0.0,0.00552439,0.00565225,-0.884,0.0,0.0,0.0,0.0,0.0,0.0,0.00111171,0.00288871,-0.560985
19344000,-0.00321039,0.01533,-1.48396,0.00823861,0.0,0.00591913,0.00812903,-1.00156,0.0,0.0,0.0,0.0,0.0,0.0,0.00120435,0.00252969,-0.557992
19436000,-0.00318459,0.0150782,-1.62194,0.00823861,0.0,0.00616058,0.0105693,-1.11911,0.0,0.0,0.0,0.0,0.0,0.0,0.00119516,0.00258396,-0.556056
19532000,-0.0031577,0.0148156,-1.76593,0.00823861,0.0,0.00625917,0.0126002,-1.24178,0.0,0.0,0.0,0.0,0.0,0.0,0.000641553,0.00260676,-0.562001
19624000,-0.00313194,0.0145639,-1.90391,0.00823861,0.0,0.00617898,0.0145006,-1.35933,0.0,0.0,0.0,0.0,0.0,0.0,4.12905e-05,0.00238404,-0.559904
19716000,-0.00310621,0.0143124,-2.0419,0.00823861,0.0,0.00591592,0.0161581,-1.47689,0.0,0.0,0.0,0.0,0.0,0.0,-0.000265605,0.00216353,-0.55853
19812000,-0.00307938,0.0140501,-2.18589,0.00823861,0.0,0.00556827,0.0176374,-1.59956,0.0,0.0,0.0,0.0,0.0,0.0,0.000105777,0.0023591,-0.564019
19904000,-0.00305369,0.0137988,-2.32388,0.00823861,0.0,0.00500798,0.0192934,-1.71711,0.0,0.0,0.0,0.0,0.0,0.0,0.000259618,0.00265898,-0.560892
19996000,-0.00302802,0.0135476,-2.46187,0.00823861,0.0,0.00423789,0.0209409,-1.83467,0.0,0.0,0.0,0.0,0.0,0.0,-0.000489024,0.00231973,-0.556985
20092000,-0.00300126,0.0132856,-2.60587,0.00823861,0.0,0.00359413,0.0221286,-1.95733,0.0,0.0,0.0,0.0,0.0,0.0,2.95852e-05,0.00177368,-0.562034
20184000,-0.00297563,0.0130346,-2.74386,0.00823861,0.0,0.00316778,0.0232842,-2.07489,0.0,0.0,0.0,0.0,0.0,0.0,0.000193428,0.00186232,-0.558338
20276000,-0.00295003,0.0127838,-2.88186,0.00823861,0.0,0.00282502,0.0239426,-2.19245,0.0,0.0,0.0,0.0,0.0,0.0,0.000300558,0.00134354,-0.555917
20372000,-0.00292333,0.0125221,-3.02586,0.00823861,0.0,0.00300793,0.0239869,-2.31511,0.0,0.0,0.0,0.0,0.0,0.0,0.00017847,0.000817592,-0.561758
20464000,-0.00289777,0.0122714,-3.16385,0.00823861,0.0,0.00350395,0.0237514,-2.43267,0.0,0.0,0.0,0.0,0.0,0.0,0.000546598,0.000237601,-0.558188
20556000,-0.00287224,0.0120324,-3.30185,0.00823861,0.0,0.00410841,0.0235217,-2.47779,0.0,0.0,0.0,0.0,0.0,0.0,9.98505e-05,-0.000355026,-0.511855
20652000,-0.00284561,0.0118017,-3.44585,0.00823861,0.0,0.00487876,0.0231543,-2.4003,0.0,0.0,0.0,0.0,0.0,0.0,-0.000108783,-4.3476e-05,-0.45386
20744000,-0.00282012,0.0115816,-3.58385,0.00823861,0.0,0.00534085,0.0229653,-2.30043,0.0,0.0,0.0,0.0,0.0,0.0,-0.000296224,0.000182802,-0.442704
20836000,-0.00279464,0.0113889,-3.72185,0.00823861,0.0,0.00547433,0.0230398,-2.20986,0.0,0.0,0.0,0.0,0.0,0.0,-0.00101983,0.0004305,-0.444111
20932000,-0.00276808,0.0111889,-3.86585,0.00823861,0.0,0.00544655,0.0227665,-2.15125,0.0,0.0,0.0,0.0,0.0,0.0,-0.000570622,1.10529e-05,-0.455004
21024000,-0.00274265,0.0109973,-4.00385,0.00823861,0.0,0.00553242,0.022267,-2.07411,0.0,0.0,0.0,0.0,0.0,0.0,0.000179896,0.000393104,-0.452623
21116000,-0.00271725,0.0108056,-4.14185,0.00823861,0.0,0.00567616,0.0216417,-2.00224,0.0,0.0,0.0,0.0,0.0,0.0,-0.000125741,-8.96633e-05,-0.450201
21212000,-0.00269075,0.0106056,-4.28586,0.00823861,0.0,0.00552358,0.0210438,-1.95914,0.0,0.0,0.0,0.0,0.0,0.0,-0.000289679,0.000130057,-0.459506
21304000,-0.00266539,0.010414,-4.42386,0.00823861,0.0,0.00501202,0.0202397,-1.89985,0.0,0.0,0.0,0.0,0.0,0.0,-0.000141584,-0.000847715,-0.458702
21396000,-0.00264005,0.0102223,-4.56186,0.00823861,0.0,0.00439169,0.0192375,-1.84665,0.0,0.0,0.0,0.0,0.0,0.0,-0.000109836,-0.000472738,-0.460091
21492000,-0.00261362,0.0100223,-4.70586,0.00823861,0.0,0.00372428,0.0184423,-1.82025,0.0,0.0,0.0,0.0,0.0,0.0,-6.88668e-05,-0.000400858,-0.469226
21584000,-0.00258832,0.00983065,-4.84386,0.00823861,0.0,0.00331807,0.0176772,-1.77693,0.0,0.0,0.0,0.0,0.0,0.0,-0.000138255,0.000180359,-0.468217
21676000,-0.00256305,0.00963899,-4.98186,0.00823861,0.0,0.00309479,0.0172388,-1.73812,0.0,0.0,0.0,0.0,0.0,0.0,-9.5678e-05,0.000373092,-0.468922
21772000,-0.00253669,0.009439,-5.12586,0.00823861,0.0,0.00307992,0.0170204,-1.72352,0.0,0.0,0.0,0.0,0.0,0.0,0.000335531,0.000833897,-0.477796
21864000,-0.00251146,0.00924734,-5.26386,0.00823861,0.0,0.00343515,0.0165947,-1.69213,0.0,0.0,0.0,0.0,0.0,0.0,0.000134457,0.00064922,-0.476262
21956000,-0.00248624,0.00905568,-5.40186,0.00823861,0.0,0.00382691,0.0162135,-1.66379,0.0,0.0,0.0,0.0,0.0,0.0,0.000445129,0.000765624,-0.474357
22052000,-0.00245995,0.00885569,-5.54586,0.00823861,0.0,0.00437381,0.0159346,-1.65724,0.0,0.0,0.0,0.0,0.0,0.0,0.000347184,0.000123238,-0.482098
22144000,-0.00243479,0.00866403,-5.68387,0.00823861,0.0,0.00495923,0.0155551,-1.6331,0.0,0.0,0.0,0.0,0.0,0.0,0.000279555,0.000461328,-0.480519
22236000,-0.00240964,0.00847238,-5.82187,0.00823861,0.0,0.00562529,0.0152085,-1.61143,0.0,0.0,0.0,0.0,0.0,0.0,0.000619876,0.00040758,-0.478508
22332000,-0.00238342,0.00834668,-5.96587,0.00823861,0.0,0.00625286,0.0164837,-1.6111,0.0,0.0,0.0,0.0,0.0,0.0,0.000806239,0.000116748,-0.487054
22424000,-0.00235957,0.00835421,-6.10261,0.00823861,0.0,0.00673303,0.0164511,-1.59237,0.0,0.0,0.0,0.0,0.0,0.0,0.00122201,0.000178712,-0.484572
22516000,-0.00236279,0.0083592,-6.23937,0.00823861,0.0,0.00718183,0.0157728,-1.57613,0.0,0.0,0.0,0.0,0.0,0.0,0.00057342,0.00121485,-0.483211
22612000,-0.0023688,0.00834556,-6.38337,0.00823861,0.0,0.00772439,0.015556,-1.58137,0.0,0.0,0.0,0.0,0.0,0.0,0.000917278,0.00133652,-0.491536
22704000,-0.00237607,0.00833101,-6.52137,0.00823861,0.0,0.00815364,0.0151854,-1.56872,0.0,0.0,0.0,0.0,0.0,0.0,0.000789189,0.0011858,-0.487658
22796000,-0.0023848,0.00831503,-6.65937,0.00823861,0.0,0.0084723,0.0146069,-1.55666,0.0,0.0,0.0,0.0,0.0,0.0,0.000411962,6.04503e-05,-0.485258
22892000,-0.00239547,0.00829681,-6.80337,0.00823861,0.0,0.00852012,0.0139808,-1.56406,0.0,0.0,0.0,0.0,0.0,0.0,0.000571475,-0.000455643,-0.493513
22984000,-0.00240719,0.00827789,-6.94137,0.00823861,0.0,0.0084087,0.0135457,-1.55399,0.0,0.0,0.0,0.0,0.0,0.0,0.000552577,0.000684351,-0.489127
23076000,-0.00242038,0.00825753,-7.07937,0.00823861,0.0,0.00813159,0.0133697,-1.5442,0.0,0.0,0.0,0.0,0.0,0.0,-0.000192245,0.000714131,-0.486449
23172000,-0.0024357,0.00823474,-7.22337,0.00823861,0.0,0.00778736,0.0134771,-1.55308,0.0,0.0,0.0,0.0,0.0,0.0,0.000300162,0.000762705,-0.493397
23264000,-0.00245189,0.00821144,-7.36137,0.00823861,0.0,0.00763551,0.0135081,-1.54327,0.0,0.0,0.0,0.0,0.0,0.0,-3.88316e-05,0.00101859,-0.489061
23356000,-0.00246954,0.0081867,-7.49938,0.00823861,0.0,0.00744483,0.013759,-1.53443,0.0,0.0,0.0,0.0,0.0,0.0,0.000778071,0.00125441,-0.488001
23452000,-0.00248952,0.00818404,-7.64338,0.00823861,0.0,0.00732625,0.0145477,-1.54407,0.0,0.0,0.0,0.0,0.0,0.0,0.000414834,0.0016816,-0.49492
23544000,-0.0025091,0.00818755,-7.78138,0.00823861,0.0,0.00744662,0.0154504,-1.53525,0.0,0.0,0.0,0.0,0.0,0.0,-0.000104769,0.00114865,-0.490405
23636000,-0.00250191,0.00819102,-7.91786,0.00823861,0.0,0.0075021,0.016329,-1.52585,0.0,0.0,0.0,0.0,0.0,0.0,-2.76419e-06,0.000200642,-0.487312
23732000,-0.00249184,0.00819464,-8.06023,0.00823861,0.0,0.00724839,0.0168925,-1.53475,0.0,0.0,0.0,0.0,0.0,0.0,-6.00762e-05,0.000740835,-0.493174
23824000,-0.00248074,0.00819811,-8.19663,0.00823861,0.0,0.00700817,0.0173139,-1.52553,0.0,0.0,0.0,0.0,0.0,0.0,0.000636032,0.000609833,-0.490768
23916000,-0.00246824,0.00820158,-8.33303,0.00823861,0.0,0.00663435,0.0175032,-1.51733,0.0,0.0,0.0,0.0,0.0,0.0,-0.000365501,0.000330641,-0.48793
24012000,-0.00245368,0.0082052,-8.47536,0.00823861,0.0,0.00582892,0.0175334,-1.52723,0.0,0.0,0.0,0.0,0.0,0.0,-0.00109653,0.000341529,-0.495502
24104000,-0.00243828,0.00820867,-8.61181,0.00823861,0.0,0.00469823,0.0171037,-1.51953,0.0,0.0,0.0,0.0,0.0,0.0,-0.00156313,-0.000317053,-0.491461
24196000,-0.00242146,0.00821214,-8.74835,0.00823861,0.0,0.00360812,0.0159942,-1.51222,0.0,0.0,0.0,0.0,0.0,0.0,-0.00117256,-0.000699891,-0.489225
24292000,-0.00240238,0.00821577,-8.89096,0.00823861,0.0,0.00274218,0.0146828,-1.52307,0.0,0.0,0.0,0.0,0.0,0.0,-0.00143636,-0.000948924,-0.496529
24384000,-0.00238263,0.00821925,-9.02777,0.00823861,0.0,0.00174431,0.0130449,-1.51593,0.0,0.0,0.0,0.0,0.0,0.0,-0.00130726,-0.00131932,-0.491408
24476000,-0.00236143,0.00822273,-9.16473,0.00823861,0.0,0.000688285,0.0112519,-1.50859,0.0,0.0,0.0,0.0,0.0,0.0,-0.00132342,-0.00151665,-0.488671
24572000,-0.0023622,0.00822637,-9.3078,0.00823861,0.0,-0.000408241,0.00991787,-1.51921,0.0,0.0,0.0,0.0,0.0,0.0,-0.0012077,-0.00103416,-0.49584
24664000,-0.00236973,0.00822986,-9.44501,0.00823861,0.0,-0.00105268,0.0086377,-1.51204,0.0,0.0,0.0,0.0,0.0,0.0,-0.00129622,-0.0015323,-0.492174
24756000,-0.00237815,0.00823335,-9.58234,0.00823861,0.0,-0.00154254,0.0070736,-1.50559,0.0,0.0,0.0,0.0,0.0,0.0,-0.00122875,-0.00228105,-0.489361
24852000,-0.00238789,0.008237,-9.72577,0.00823861,0.0,-0.00208468,0.0053193,-1.51652,0.0,0.0,0.0,0.0,0.0,0.0,-0.000699891,-0.00191104,-0.496065
24944000,-0.00239813,0.0082405,-9.86337,0.00823861,0.0,-0.00278681,0.00319228,-1.51011,0.0,0.0,0.0,0.0,0.0,0.0,-0.0017578,-0.00215988,-0.491686
25036000,-0.00240927,0.008244,-10.001,0.00823861,0.0,-0.0036041,0.00105476,-1.50383,0.0,0.0,0.0,0.0,0.0,0.0,-0.00186031,-0.00243441,-0.488136
25132000,-0.00242184,0.00824765,-10.1453,0.00823861,0.0,-0.00446905,-0.000789894,-1.53943,0.0,0.0,0.0,0.0,0.0,0.0,-0.00143916,-0.00211481,-0.509941
25224000,-0.00243478,0.00825115,-10.2885,0.00823861,0.0,-0.00534452,-0.00265899,-1.62767,0.0,0.0,0.0,0.0,0.0,0.0,-0.00174354,-0.0023355,-0.544132
25316000,-0.00244859,0.00825465,-10.4429,0.00823861,0.0,-0.00576153,-0.0043133,-1.78711,0.0,0.0,0.0,0.0,0.0,0.0,-0.000571927,-0.00165614,-0.576339
25412000,-0.00246394,0.00825829,-10.6225,0.00823861,0.0,-0.00574217,-0.00567775,-2.04999,0.0,0.0,0.0,0.0,0.0,0.0,-0.000425499,-0.00213999,-0.635031
25504000,-0.00247954,0.00826178,-10.8186,0.00823861,0.0,-0.00576644,-0.00713743,-2.35127,0.0,0.0,0.0,0.0,0.0,0.0,-0.00081858,-0.00207091,-0.661611
25596000,-0.00249601,0.00826527,-11.0409,0.00823861,0.0,-0.00597612,-0.00857001,-2.62534,0.0,0.0,0.0,0.0,0.0,0.0,-0.00100773,-0.00181942,-0.641854
25692000,-0.00251412,0.00826891,-11.2955,0.00823861,0.0,-0.00638035,-0.00978156,-2.87819,0.0,0.0,0.0,0.0,0.0,0.0,-0.000505477,-0.00209104,-0.63612
25784000,-0.00253131,0.00827239,-11.5557,0.00823861,0.0,-0.00703454,-0.0108255,-3.0,0.0,0.0,0.0,0.0,0.0,0.0,-0.0011365,-0.0021925,-0.573846
25876000,-0.0025222,0.0082759,-11.828,0.00823861,0.0,-0.00800519,-0.0119378,-3.0,0.0,0.0,0.0,0.0,0.0,0.0,-0.00149728,-0.0019936,-0.508325
25972000,-0.00251159,0.00827956,-12.1161,0.00823861,0.0,-0.00927243,-0.0127813,-3.0,0.0,0.0,0.0,0.0,0.0,0.0,-0.001894,-0.00250779,-0.500562
26064000,-0.00250142,0.00828307,-12.3921,0.00823861,0.0,-0.0111856,-0.0135334,-3.0,0.0,0.0,0.0,0.0,0.0,0.0,-0.00186457,-0.00181289,-0.500874
26156000,-0.00249126,0.00828658,-12.6682,0.00823861,0.0,-0.0131999,-0.0139904,-3.0,0.0,0.0,0.0,0.0,0.0,0.0,-0.00272748,-0.00105742,-0.499369
26252000,-0.00248065,0.00829024,-12.9562,0.00823861,0.0,-0.0153189,-0.0142318,-3.0,0.0,0.0,0.0,0.0,0.0,0.0,-0.00270054,-0.00103597,-0.497703
26344000,-0.00247048,0.00829375,-13.2323,0.00823861,0.0,-0.0173866,-0.0146864,-3.0,0.0,0.0,0.0,0.0,0.0,0.0,-0.00266085,-0.000788819,-0.495184
26436000,-0.00246032,0.00829725,-13.5083,0.00823861,0.0,-0.0191886,-0.0154031,-3.0,0.0,0.0,0.0,0.0,0.0,0.0,-0.00240593,-0.00194415,-0.494019
26532000,-0.00244971,0.00830091,-13.7964,0.00823861,0.0,-0.0207314,-0.0162082,-3.0,0.0,0.0,0.0,0.0,0.0,0.0,-0.00256951,-0.00136135,-0.493973
26624000,-0.00243954,0.00830442,-14.0725,0.00823861,0.0,-0.0225466,-0.0170222,-3.0,0.0,0.0,0.0,0.0,0.0,0.0,-0.00250295,-0.00178506,-0.493446
26716000,-0.00242938,0.00830793,-14.3485,0.00823861,0.0,-0.024263,-0.0176008,-3.0,0.0,0.0,0.0,0.0,0.0,0.0,-0.00283502,-0.00156572,-0.491883
26812000,-0.00241877,0.00831159,-14.6366,0.00823861,0.0,-0.0257812,-0.0178015,-3.0,0.0,0.0,0.0,0.0,0.0,0.0,-0.00261498,-0.00178645,-0.49166
26904000,-0.00240861,0.0083151,-14.9126,0.00823861,0.0,-0.0274084,-0.0178568,-3.0,0.0,0.0,0.0,0.0,0.0,0.0,-0.00228753,-0.00178855,-0.493034
26996000,-0.00239844,0.00831861,-15.1887,0.00823861,0.0,-0.0290031,-0.017983,-3.0,0.0,0.0,0.0,0.0,0.0,0.0,-0.00231863,-0.00207523,-0.491744
27092000,-0.00238783,0.00832227,-15.4768,0.00823861,0.0,-0.0302935,-0.0180578,-3.0,0.0,0.0,0.0,0.0,0.0,0.0,-0.00251866,-0.00189519,-0.492145
27184000,-0.00237767,0.00832578,-15.7528,0.00823861,0.0,-0.0315331,-0.0181765,-3.0,0.0,0.0,0.0,0.0,0.0,0.0,-0.0025524,-0.00160507,-0.493017
27276000,-0.0023675,0.00832929,-16.0289,0.00823861,0.0,-0.032436,-0.0182875,-3.0,0.0,0.0,0.0,0.0,0.0,0.0,-0.00300779,-0.00152586,-0.491792
27372000,-0.00235689,0.00833295,-16.3169,0.00823861,0.0,-0.0329789,-0.0182096,-3.0,0.0,0.0,0.0,0.0,0.0,0.0,-0.00274019,-0.0017527,-0.493136
27464000,-0.00234673,0.00833646,-16.593,0.00823861,0.0,-0.0332528,-0.0179544,-3.0,0.0,0.0,0.0,0.0,0.0,0.0,-0.00197295,-0.00167024,-0.494294
27556000,-0.00233656,0.00833996,-16.8691,0.00823861,0.0,-0.0331482,-0.0177673,-3.0,0.0,0.0,0.0,0.0,0.0,0.0,-0.00138135,-0.00165513,-0.495709
27652000,-0.00232595,0.00834362,-17.1571,0.00823861,0.0,-0.0330276,-0.0174632,-3.0,0.0,0.0,0.0,0.0,0.0,0.0,-0.00156368,-0.00176538,-0.494799
27744000,-0.00231579,0.00834713,-17.4332,0.00823861,0.0,-0.0327185,-0.0171744,-3.0,0.0,0.0,0.0,0.0,0.0,0.0,-0.00143929,-0.00124042,-0.49533
27836000,-0.00230562,0.00835064,-17.7092,0.00823861,0.0,-0.0323634,-0.0168229,-3.0,0.0,0.0,0.0,0.0,0.0,0.0,-0.00172389,-0.000989127,-0.494542
27932000,-0.00229501,0.0083543,-17.9973,0.00823861,0.0,-0.0320599,-0.0162632,-3.0,0.0,0.0,0.0,0.0,0.0,0.0,-0.00168003,-0.000697481,-0.494524
28024000,-0.00228485,0.00835781,-18.2734,0.00823861,0.0,-0.0317963,-0.0157074,-3.0,0.0,0.0,0.0,0.0,0.0,0.0,-0.00120877,-0.000911205,-0.496088
28116000,-0.00227468,0.00836132,-18.5494,0.00823861,0.0,-0.0316545,-0.0152285,-3.0,0.0,0.0,0.0,0.0,0.0,0.0,-0.00100429,-0.00169416,-0.496114
28212000,-0.00226407,0.00836498,-18.8375,0.00823861,0.0,-0.0316415,-0.0148583,-3.0,0.0,0.0,0.0,0.0,0.0,0.0,-0.00121335,-0.00147176,-0.495376
28304000,-0.00225391,0.00836849,-19.1135,0.00823861,0.0,-0.0315301,-0.0145073,-3.0,0.0,0.0,0.0,0.0,0.0,0.0,-0.00105168,-0.00165314,-0.496226
28396000,-0.00224374,0.008372,-19.3896,0.00823861,0.0,-0.0314195,-0.0144154,-3.0,0.0,0.0,0.0,0.0,0.0,0.0,-0.00190282,-0.00123391,-0.496478
28492000,-0.00223313,0.00837566,-19.6777,0.00823861,0.0,-0.0312328,-0.0144353,-3.0,0.0,0.0,0.0,0.0,0.0,0.0,-0.0019854,-0.00169711,-0.496402
28584000,-0.00222297,0.00837917,-19.9537,0.00823861,0.0,-0.0309449,-0.0142369,-3.0,0.0,0.0,0.0,0.0,0.0,0.0,-0.00106111,-0.00150762,-0.496648
28676000,-0.0022128,0.00838267,-20.2298,0.00823861,0.0,-0.0305315,-0.0135907,-3.0,0.0,0.0,0.0,0.0,0.0,0.0,-0.00131574,-0.00146556,-0.495549
28772000,-0.00220219,0.00838634,-20.5178,0.00823861,0.0,-0.0297331,-0.0129515,-3.0,0.0,0.0,0.0,0.0,0.0,0.0,-0.000470518,-0.000957218,-0.495053
28864000,-0.00219203,0.00838984,-20.7939,0.00823861,0.0,-0.028372,-0.0123987,-3.0,0.0,0.0,0.0,0.0,0.0,0.0,-0.000882433,-0.00103688,-0.496253
28960000,-0.00218249,0.0083935,-21.0819,0.00823861,0.0,-0.0268848,-0.0117458,-3.0,0.0,0.0,0.0,0.0,0.0,0.0,-0.000321592,-0.00154926,-0.495211
29052000,-0.00220107,0.00839695,-21.3531,0.00823861,0.0,-0.0256332,-0.0111621,-2.99386,0.0,0.0,0.0,0.0,0.0,0.0,-0.000700251,-0.00131917,-0.492192
29148000,-0.00222407,0.00840055,-21.6363,0.00823861,0.0,-0.0245275,-0.0106414,-3.0,0.0,0.0,0.0,0.0,0.0,0.0,-0.000542004,-0.00147815,-0.495956
29240000,-0.00224856,0.00840401,-21.9079,0.00823861,0.0,-0.0235566,-0.0100235,-2.99422,0.0,0.0,0.0,0.0,0.0,0.0,-0.000913328,-0.00120669,-0.495016
29332000,-0.00227544,0.00840746,-22.1797,0.00823861,0.0,-0.0228376,-0.0094721,-2.97822,0.0,0.0,0.0,0.0,0.0,0.0,-0.00129334,-0.000213272,-0.488928
29428000,-0.00230605,0.00841107,-22.4634,0.00823861,0.0,-0.0221028,-0.00890417,-2.99828,0.0,0.0,0.0,0.0,0.0,0.0,-0.000664482,-0.000235713,-0.501275
29520000,-0.00232015,0.00841453,-22.7356,0.00823861,0.0,-0.0208155,-0.00849126,-2.98353,0.0,0.0,0.0,0.0,0.0,0.0,-0.000500227,-0.00158779,-0.494686
29612000,-0.00232193,0.008418,-23.0085,0.00823861,0.0,-0.019638,-0.00854519,-2.97101,0.0,0.0,0.0,0.0,0.0,0.0,-0.000596852,-0.00114246,-0.488659
29708000,-0.00232183,0.00842166,-23.2965,0.00823861,0.0,-0.0184565,-0.00881704,-2.99764,0.0,0.0,0.0,0.0,0.0,0.0,-7.06021e-05,-0.00147537,-0.505219
29800000,-0.00231981,0.00842517,-23.5726,0.00823861,0.0,-0.0169745,-0.00940977,-2.98865,0.0,0.0,0.0,0.0,0.0,0.0,-0.000349019,-0.00236709,-0.499746
29892000,-0.00231593,0.00842868,-23.8487,0.00823861,0.0,-0.0153579,-0.010143,-2.97902,0.0,0.0,0.0,0.0,0.0,0.0,-0.000407996,-0.00326939,-0.492356
29988000,-0.00230987,0.00843234,-24.1367,0.00823861,0.0,-0.0140267,-0.0109597,-3.0,0.0,0.0,0.0,0.0,0.0,0.0,-0.000810219,-0.00247944,-0.502662
30080000,-0.00230216,0.00843585,-24.4128,0.00823861,0.0,-0.0128116,-0.0115948,-2.99273,0.0,0.0,0.0,0.0,0.0,0.0,-0.000530949,-0.00198678,-0.496414
30172000,-0.00229257,0.00843935,-24.6888,0.00823861,0.0,-0.0114703,-0.0116415,-2.98082,0.0,0.0,0.0,0.0,0.0,0.0,-0.000505321,-0.00158354,-0.489455
30268000,-0.00228057,0.00844301,-24.9769,0.00823861,0.0,-0.0104151,-0.0114342,-3.0,0.0,0.0,0.0,0.0,0.0,0.0,-0.000818565,-0.00120962,-0.501402
30360000,-0.00226822,0.00844652,-25.253,0.00823861,0.0,-0.00986397,-0.0110788,-2.99409,0.0,0.0,0.0,0.0,0.0,0.0,-0.00116289,-0.001399,-0.496623
30452000,-0.00228195,0.00845001,-25.5271,0.00823861,0.0,-0.00948278,-0.0101882,-2.98091,0.0,0.0,0.0,0.0,0.0,0.0,-0.00117803,-0.00117497,-0.489524
30548000,-0.00229736,0.00845364,-25.8128,0.00823861,0.0,-0.00901762,-0.00898392,-3.0,0.0,0.0,0.0,0.0,0.0,0.0,-0.000732715,-0.000290518,-0.501225
30640000,-0.00231214,0.00845712,-26.0868,0.00823861,0.0,-0.00867618,-0.007349,-2.98991,0.0,0.0,0.0,0.0,0.0,0.0,-6.40994e-06,-0.000138625,-0.495111
30732000,-0.00232692,0.00846061,-26.3611,0.00823861,0.0,-0.00841055,-0.00586871,-2.97674,0.0,0.0,0.0,0.0,0.0,0.0,0.000113129,-5.61883e-05,-0.489206
30828000,-0.00234236,0.00846425,-26.6474,0.00823861,0.0,-0.0081212,-0.00475462,-2.99968,0.0,0.0,0.0,0.0,0.0,0.0,-4.79972e-05,0.000114611,-0.502391
30920000,-0.00235717,0.00846774,-26.9219,0.00823861,0.0,-0.0078197,-0.00374228,-2.98661,0.0,0.0,0.0,0.0,0.0,0.0,0.000315664,-0.000287524,-0.494314
31016000,-0.00237262,0.00847138,-27.2085,0.00823861,0.0,-0.0075337,-0.0028747,-2.98582,0.0,0.0,0.0,0.0,0.0,0.0,-0.000590469,-0.000486317,-0.49626
31108000,-0.00238743,0.00847488,-27.4833,0.00823861,0.0,-0.00727065,-0.00204351,-2.97334,0.0,0.0,0.0,0.0,0.0,0.0,-0.000417123,-9.72857e-05,-0.48836
31204000,-0.0024029,0.00847852,-27.7701,0.00823861,0.0,-0.006888,-0.00117476,-2.9969,0.0,0.0,0.0,0.0,0.0,0.0,-5.2192e-05,-0.000260925,-0.503019
31296000,-0.00241772,0.00848202,-28.045,0.00823861,0.0,-0.00628295,-0.000200071,-2.98497,0.0,0.0,0.0,0.0,0.0,0.0,0.000296607,0.000237798,-0.495412
31388000,-0.00243256,0.00848551,-28.3201,0.00823861,0.0,-0.00563402,0.000767767,-2.97294,0.0,0.0,0.0,0.0,0.0,0.0,0.000373586,0.000630406,-0.488282
31484000,-0.00244804,0.00848916,-28.6072,0.00823861,0.0,-0.00516527,0.00144801,-2.99757,0.0,0.0,0.0,0.0,0.0,0.0,7.83224e-05,0.000509575,-0.504261
31576000,-0.00246288,0.00849266,-28.8824,0.00823861,0.0,-0.00443878,0.0021947,-2.98661,0.0,0.0,0.0,0.0,0.0,0.0,0.000288218,0.000294127,-0.497626
31668000,-0.00247772,0.00849616,-29.1576,0.00823861,0.0,-0.00356644,0.00273021,-2.97542,0.0,0.0,0.0,0.0,0.0,0.0,3.1023e-05,3.34987e-05,-0.48921
31764000,-0.00249321,0.00849982,-29.4449,0.00823861,0.0,-0.00290816,0.00336583,-3.0,0.0,0.0,0.0,0.0,0.0,0.0,0.000506821,0.000130954,-0.503992
31856000,-0.00250806,0.00850332,-29.7203,0.00823861,0.0,-0.00237377,0.00357973,-2.98853,0.0,0.0,0.0,0.0,0.0,0.0,5.72446e-05,-0.000410972,-0.496606
31948000,-0.0025229,0.00850682,-29.9956,0.00823861,0.0,-0.00213847,0.00321339,-2.97698,0.0,0.0,0.0,0.0,0.0,0.0,3.7039e-05,-0.00107877,-0.490154
32044000,-0.0025384,0.00851047,-30.2831,0.00823861,0.0,-0.00212071,0.00259859,-3.0,0.0,0.0,0.0,0.0,0.0,0.0,-0.00101838,-0.00146713,-0.502525
32136000,-0.00255326,0.00851398,-30.5586,0.00823861,0.0,-0.00234061,0.0019884,-2.9896,0.0,0.0,0.0,0.0,0.0,0.0,-0.00162357,-0.00156364,-0.495747
32228000,-0.00256812,0.00851748,-30.8342,0.00823861,0.0,-0.00270031,0.00134764,-2.97754,0.0,0.0,0.0,0.0,0.0,0.0,-0.00167196,-0.00218234,-0.488563
32324000,-0.00258362,0.00852114,-31.1217,0.00823861,0.0,-0.00313377,0.00080884,-3.0,0.0,0.0,0.0,0.0,0.0,0.0,-0.00208219,-0.00254633,-0.503384
32416000,-0.00259848,0.00852464,-31.3972,0.00823861,0.0,-0.00363593,0.000440243,-2.99031,0.0,0.0,0.0,0.0,0.0,0.0,-0.00165947,-0.00224139,-0.496699
32508000,-0.00261333,0.00852814,-31.6726,0.00823861,0.0,-0.00400834,0.000366066,-2.97885,0.0,0.0,0.0,0.0,0.0,0.0,-0.00169605,-0.00220431,-0.490328
32604000,-0.00262882,0.00853179,-31.96,0.00823861,0.0,-0.00422745,0.000590915,-3.0,0.0,0.0,0.0,0.0,0.0,0.0,-0.0010867,-0.00202488,-0.502622
32696000,-0.00264367,0.00851747,-32.2353,0.00823861,0.0,-0.0043718,0.000662254,-2.99113,0.0,0.0,0.0,0.0,0.0,0.0,-0.000864308,-0.0012413,-0.49645
32788000,-0.00265851,0.00849141,-32.5106,0.00823861,0.0,-0.00429133,0.00110272,-2.97972,0.0,0.0,0.0,0.0,0.0,0.0,-0.000726658,-0.00142083,-0.490784
32884000,-0.002674,0.00846383,-32.7979,0.00823861,0.0,-0.00405862,0.00126636,-3.0,0.0,0.0,0.0,0.0,0.0,0.0,-0.00098654,-0.00146422,-0.501731
32976000,-0.00268885,0.00843704,-33.0732,0.00823861,0.0,-0.00399956,0.00116136,-2.99144,0.0,0.0,0.0,0.0,0.0,0.0,-0.00141543,-0.00146668,-0.495403
33068000,-0.0027037,0.0084099,-33.3486,0.00823861,0.0,-0.00427498,0.0010295,-2.97974,0.0,0.0,0.0,0.0,0.0,0.0,-0.00193835,-0.00133497,-0.491123
33164000,-0.00271918,0.00838121,-33.6358,0.00823861,0.0,-0.00506143,0.000963474,-3.0,0.0,0.0,0.0,0.0,0.0,0.0,-0.00227552,-0.00201934,-0.502546
33256000,-0.00271623,0.00835331,-33.9114,0.00823861,0.0,-0.0056785,0.000659756,-2.99326,0.0,0.0,0.0,0.0,0.0,0.0,-0.00232176,-0.00107048,-0.497505
33348000,-0.00270182,0.00832501,-34.1875,0.00823861,0.0,-0.00681712,0.000220646,-2.9818,0.0,0.0,0.0,0.0,0.0,0.0,-0.0026446,-0.00133597,-0.48996
33444000,-0.00268679,0.0082951,-34.4756,0.00823861,0.0,-0.00813303,-0.000368034,-3.0,0.0,0.0,0.0,0.0,0.0,0.0,-0.00264705,-0.00183796,-0.501622
33536000,-0.00267239,0.00826607,-34.7516,0.00823861,0.0,-0.0094758,-0.00120843,-2.99401,0.0,0.0,0.0,0.0,0.0,0.0,-0.00240389,-0.0023866,-0.496657
33628000,-0.00265798,0.00824823,-35.0277,0.00823861,0.0,-0.0108163,-0.00187076,-2.9824,0.0,0.0,0.0,0.0,0.0,0.0,-0.00256633,-0.00272474,-0.491315
33724000,-0.00264295,0.0082482,-35.3158,0.00823861,0.0,-0.012087,-0.00268058,-3.0,0.0,0.0,0.0,0.0,0.0,0.0,-0.00320342,-0.0025811,-0.50142
33816000,-0.00262854,0.00824818,-35.5918,0.00823861,0.0,-0.0135045,-0.00338164,-2.99632,0.0,0.0,0.0,0.0,0.0,0.0,-0.00319418,-0.00343708,-0.498808
33908000,-0.00261414,0.00824816,-35.8679,0.00823861,0.0,-0.0148291,-0.00403484,-2.98539,0.0,0.0,0.0,0.0,0.0,0.0,-0.00268161,-0.00308169,-0.491436
34004000,-0.00259911,0.00824814,-36.1559,0.00823861,0.0,-0.015771,-0.0046566,-3.0,0.0,0.0,0.0,0.0,0.0,0.0,-0.00242293,-0.0021557,-0.499385
34096000,-0.0025847,0.00824812,-36.432,0.00823861,0.0,-0.0165055,-0.00521787,-2.99847,0.0,0.0,0.0,0.0,0.0,0.0,-0.00251211,-0.00182296,-0.498813
34188000,-0.0025703,0.0082481,-36.7081,0.00823861,0.0,-0.016978,-0.00594903,-2.98667,0.0,0.0,0.0,0.0,0.0,0.0,-0.00175242,-0.00120279,-0.490749
34284000,-0.00255526,0.00824807,-36.9961,0.00823861,0.0,-0.0168139,-0.00664846,-3.0,0.0,0.0,0.0,0.0,0.0,0.0,-0.00107596,-0.00125862,-0.498852
34376000,-0.00254086,0.00824805,-37.2722,0.00823861,0.0,-0.0165432,-0.00746292,-2.99844,0.0,0.0,0.0,0.0,0.0,0.0,-0.000633795,-0.00141431,-0.496739
34468000,-0.00252645,0.00824803,-37.5483,0.00823861,0.0,-0.0162365,-0.00819539,-2.9861,0.0,0.0,0.0,0.0,0.0,0.0,-0.00108145,-0.00141059,-0.489673
34564000,-0.00251142,0.00824801,-37.8363,0.00823861,0.0,-0.0163309,-0.00882861,-3.0,0.0,0.0,0.0,0.0,0.0,0.0,-0.00133173,-0.00206911,-0.499153
34656000,-0.00249702,0.00824799,-38.1124,0.00823861,0.0,-0.0164531,-0.0095632,-2.99759,0.0,0.0,0.0,0.0,0.0,0.0,-0.000448012,-0.00116461,-0.498134
34748000,-0.00248261,0.00824797,-38.3884,0.00823861,0.0,-0.0164177,-0.0103749,-2.98533,0.0,0.0,0.0,0.0,0.0,0.0,0.000138219,-0.000388135,-0.490087
34844000,-0.00246758,0.00824794,-38.6765,0.00823861,0.0,-0.0163827,-0.0111927,-3.0,0.0,0.0,0.0,0.0,0.0,0.0,0.000436807,-0.000933867,-0.498774
34936000,-0.00245318,0.00824792,-38.9526,0.00823861,0.0,-0.0161906,-0.0119323,-2.99766,0.0,0.0,0.0,0.0,0.0,0.0,0.000308644,-0.0011702,-0.496355
35028000,-0.00243877,0.0082479,-39.2286,0.00823861,0.0,-0.0159499,-0.0125304,-2.98673,0.0,0.0,0.0,0.0,0.0,0.0,0.000416923,-0.000489961,-0.491038
35124000,-0.00242374,0.00824788,-39.5167,0.00823861,0.0,-0.0158518,-0.0128851,-3.0,0.0,0.0,0.0,0.0,0.0,0.0,-3.50969e-05,-0.00021994,-0.498789
35216000,-0.00240933,0.00824786,-39.7928,0.00823861,0.0,-0.0157929,-0.0132637,-2.99952,0.0,0.0,0.0,0.0,0.0,0.0,1.67545e-06,-0.000361622,-0.496914
35308000,-0.00239493,0.00824783,-40.0688,0.00823861,0.0,-0.0155961,-0.0136932,-2.98807,0.0,0.0,0.0,0.0,0.0,0.0,-2.30396e-05,-0.000676642,-0.490678
35404000,-0.0023799,0.00824781,-40.3569,0.00823861,0.0,-0.0154946,-0.014107,-3.0,0.0,0.0,0.0,0.0,0.0,0.0,-0.000292583,5.50773e-05,-0.497804
35496000,-0.00236549,0.00824779,-40.6329,0.00823861,0.0,-0.0151601,-0.0147011,-3.0,0.0,0.0,0.0,0.0,0.0,0.0,9.24262e-06,-0.000115857,-0.498146
35588000,-0.00235109,0.00824777,-40.909,0.00823861,0.0,-0.0149018,-0.015732,-2.98942,0.0,0.0,0.0,0.0,0.0,0.0,-0.000179603,-0.000923782,-0.492018
35684000,-0.00233605,0.00824775,-41.1971,0.00823861,0.0,-0.0148348,-0.0166953,-3.0,0.0,0.0,0.0,0.0,0.0,0.0,0.000390287,-0.00128099,-0.498869
35776000,-0.00232165,0.00824773,-41.4731,0.00823861,0.0,-0.0147876,-0.017845,-3.0,0.0,0.0,0.0,0.0,0.0,0.0,-9.77452e-05,-0.000931277,-0.497149
35868000,-0.00230724,0.0082477,-41.7492,0.00823861,0.0,-0.0145705,-0.0186,-2.98875,0.0,0.0,0.0,0.0,0.0,0.0,0.000145669,-0.000121629,-0.491092
35964000,-0.00229221,0.00824768,-42.0373,0.00823861,0.0,-0.0144193,-0.0191508,-3.0,0.0,0.0,0.0,0.0,0.0,0.0,0.000911584,-0.000128233,-0.498196
36056000,-0.00227781,0.00824766,-42.3133,0.00823861,0.0,-0.0143992,-0.0196109,-3.0,0.0,0.0,0.0,0.0,0.0,0.0,0.00132149,0.000274304,-0.499737
36148000,-0.0022634,0.00824764,-42.5894,0.00823861,0.0,-0.0144345,-0.0196147,-2.98958,0.0,0.0,0.0,0.0,0.0,0.0,0.000837885,0.000186405,-0.49252
36244000,-0.00225472,0.00824762,-42.8765,0.00823861,0.0,-0.0147283,-0.0195163,-3.0,0.0,0.0,0.0,0.0,0.0,0.0,0.000305045,-0.000204153,-0.498099
36336000,-0.00227053,0.0082476,-43.1484,0.00823861,0.0,-0.014441,-0.0194926,-2.99687,0.0,0.0,0.0,0.0,0.0,0.0,-0.000142955,-0.000604894,-0.496169
36428000,-0.00228833,0.00824757,-43.4203,0.00823861,0.0,-0.0140753,-0.0196465,-2.98114,0.0,0.0,0.0,0.0,0.0,0.0,0.000329939,-0.000988604,-0.488039
36524000,-0.00230904,0.00824755,-43.7041,0.00823861,0.0,-0.0138816,-0.0197287,-3.0,0.0,0.0,0.0,0.0,0.0,0.0,-0.000204334,-0.000786993,-0.501345
36616000,-0.00233093,0.00824753,-43.976,0.00823861,0.0,-0.0137919,-0.0197567,-2.98796,0.0,0.0,0.0,0.0,0.0,0.0,-0.000271133,-0.000585762,-0.495081
36708000,-0.00235483,0.00824751,-44.2479,0.00823861,0.0,-0.0136801,-0.0197872,-2.97418,0.0,0.0,0.0,0.0,0.0,0.0,-5.4393e-05,-0.000917078,-0.489074
36804000,-0.00237574,0.00824749,-44.5317,0.00823861,0.0,-0.0132461,-0.0198653,-2.99604,0.0,0.0,0.0,0.0,0.0,0.0,-0.000164845,-0.000852161,-0.502269
36896000,-0.00237315,0.00824746,-44.8078,0.00823861,0.0,-0.0131268,-0.0198863,-2.98629,0.0,0.0,0.0,0.0,0.0,0.0,-2.77745e-05,-0.00100861,-0.496172
36988000,-0.0023686,0.00824744,-45.0838,0.00823861,0.0,-0.0133408,-0.0198651,-2.97618,0.0,0.0,0.0,0.0,0.0,0.0,-0.000113641,-0.00106391,-0.490128
37084000,-0.00236177,0.00824742,-45.3719,0.00823861,0.0,-0.0137571,-0.0196326,-3.0,0.0,0.0,0.0,0.0,0.0,0.0,-0.000285773,-0.000475662,-0.504112
37176000,-0.00235321,0.0082474,-45.6479,0.00823861,0.0,-0.0145211,-0.0191773,-2.99189,0.0,0.0,0.0,0.0,0.0,0.0,-0.000167865,-0.000398867,-0.497015
37268000,-0.00234269,0.00824738,-45.924,0.00823861,0.0,-0.0152229,-0.0181812,-2.97993,0.0,0.0,0.0,0.0,0.0,0.0,-0.00120159,-0.000191836,-0.490024
37364000,-0.00232962,0.00824736,-46.2121,0.00823861,0.0,-0.0161558,-0.016982,-3.0,0.0,0.0,0.0,0.0,0.0,0.0,-0.00158595,-0.000204577,-0.50117
37456000,-0.0023151,0.00824733,-46.4881,0.00823861,0.0,-0.0173747,-0.0155381,-2.99155,0.0,0.0,0.0,0.0,0.0,0.0,-0.00148065,-0.000327955,-0.495303
37548000,-0.00229861,0.00824731,-46.7642,0.00823861,0.0,-0.0186627,-0.0139608,-2.97995,0.0,0.0,0.0,0.0,0.0,0.0,-0.00184231,0.000182166,-0.490006
37644000,-0.00230405,0.00824729,-47.0498,0.00823861,0.0,-0.0203149,-0.0124363,-3.0,0.0,0.0,0.0,0.0,0.0,0.0,-0.00262893,0.000344854,-0.501372
37736000,-0.00231521,0.00824727,-47.3217,0.00823861,0.0,-0.0217206,-0.0107265,-2.98617,0.0,0.0,0.0,0.0,0.0,0.0,-0.00270554,-0.000262559,-0.492929
37828000,-0.00232637,0.00824725,-47.5935,0.00823861,0.0,-0.0230035,-0.00917049,-2.97085,0.0,0.0,0.0,0.0,0.0,0.0,-0.00215228,0.000388747,-0.486044
37924000,-0.00233802,0.00824723,-47.8771,0.00823861,0.0,-0.0241344,-0.00774663,-2.99134,0.0,0.0,0.0,0.0,0.0,0.0,-0.00279771,0.000732418,-0.499495
38016000,-0.00234917,0.0082472,-48.1487,0.00823861,0.0,-0.0255191,-0.00629006,-2.97614,0.0,0.0,0.0,0.0,0.0,0.0,-0.00269277,0.000419619,-0.493143
38108000,-0.00236031,0.00824718,-48.4202,0.00823861,0.0,-0.0265246,-0.00509717,-2.96184,0.0,0.0,0.0,0.0,0.0,0.0,-0.000921102,0.000847366,-0.488762
38204000,-0.00237194,0.00824716,-48.7034,0.00823861,0.0,-0.0269913,-0.00436522,-2.98298,0.0,0.0,0.0,0.0,0.0,0.0,-0.000988689,0.000164227,-0.501553
38296000,-0.00238308,0.00824714,-48.9747,0.00823861,0.0,-0.0274172,-0.00392732,-2.96822,0.0,0.0,0.0,0.0,0.0,0.0,-0.00153874,-6.77718e-05,-0.493287
38388000,-0.00239422,0.00824712,-49.246,0.00823861,0.0,-0.0280533,-0.00382349,-2.95371,0.0,0.0,0.0,0.0,0.0,0.0,-0.00152746,-0.00104829,-0.487121
38484000,-0.00240584,0.0082471,-49.5289,0.00823861,0.0,-0.0285936,-0.00398357,-2.97494,0.0,0.0,0.0,0.0,0.0,0.0,-0.00177388,-0.00102537,-0.500903
38576000,-0.00241696,0.00824707,-49.7999,0.00823861,0.0,-0.0292507,-0.00435729,-2.96104,0.0,0.0,0.0,0.0,0.0,0.0,-0.00212129,-0.00159013,-0.493864
38668000,-0.00242808,0.00824705,-50.0708,0.00823861,0.0,-0.0302253,-0.00476391,-2.94735,0.0,0.0,0.0,0.0,0.0,0.0,-0.00231908,-0.00192829,-0.488518
38764000,-0.00243968,0.00824703,-50.3532,0.00823861,0.0,-0.0311171,-0.00449922,-2.96935,0.0,0.0,0.0,0.0,0.0,0.0,-0.00156632,-0.00072027,-0.502255
38856000,-0.00245079,0.00824701,-50.6238,0.00823861,0.0,-0.0319231,-0.00387449,-2.95545,0.0,0.0,0.0,0.0,0.0,0.0,-0.00200502,-0.000900604,-0.493131
38948000,-0.0024619,0.00824699,-50.8943,0.00823861,0.0,-0.0325964,-0.00340851,-2.94126,0.0,0.0,0.0,0.0,0.0,0.0,-0.001771,-0.000731117,-0.486799
39044000,-0.00247348,0.00824696,-51.1764,0.00823861,0.0,-0.0331921,-0.00293304,-2.96275,0.0,0.0,0.0,0.0,0.0,0.0,-0.00169931,-0.000326851,-0.500222
39136000,-0.00248458,0.00824694,-51.4467,0.00823861,0.0,-0.0336978,-0.00260186,-2.94955,0.0,0.0,0.0,0.0,0.0,0.0,-0.00176427,-0.000241459,-0.494242
39228000,-0.00249567,0.00824692,-51.7169,0.00823861,0.0,-0.0342067,-0.00265175,-2.937,0.0,0.0,0.0,0.0,0.0,0.0,-0.00139162,-5.18542e-05,-0.488876
39324000,-0.00250725,0.0082469,-51.9987,0.00823861,0.0,-0.0343662,-0.0029107,-2.96038,0.0,0.0,0.0,0.0,0.0,0.0,-0.00152478,-0.000196763,-0.502499
39416000,-0.00251834,0.00824688,-52.2689,0.00823861,0.0,-0.0342145,-0.00327871,-2.94882,0.0,0.0,0.0,0.0,0.0,0.0,-0.000951174,-0.000388557,-0.495605
39508000,-0.00252943,0.00824686,-52.5391,0.00823861,0.0,-0.0339218,-0.00365871,-2.93708,0.0,0.0,0.0,0.0,0.0,0.0,-0.000388323,-0.000845008,-0.489868
39604000,-0.00254101,0.00824683,-52.821,0.00823861,0.0,-0.0337594,-0.00425772,-2.96045,0.0,0.0,0.0,0.0,0.0,0.0,-0.000431964,-0.00144277,-0.504165
39696000,-0.0025521,0.00824681,-53.0913,0.00823861,0.0,-0.0335745,-0.00511608,-2.94807,0.0,0.0,0.0,0.0,0.0,0.0,-0.000779112,-0.00154031,-0.495876
39788000,-0.0025632,0.00824679,-53.3615,0.00823861,0.0,-0.0336436,-0.00573954,-2.9356,0.0,0.0,0.0,0.0,0.0,0.0,-0.00115895,-0.00190694,-0.489201
39884000,-0.00257477,0.00824677,-53.6434,0.00823861,0.0,-0.0338908,-0.00580915,-2.95795,0.0,0.0,0.0,0.0,0.0,0.0,-0.00173736,-0.0017248,-0.502081
39976000,-0.00258586,0.00824675,-53.9135,0.00823861,0.0,-0.0344548,-0.00539444,-2.94457,0.0,0.0,0.0,0.0,0.0,0.0,-0.00201244,-0.00117106,-0.494684
40068000,-0.00259695,0.00824673,-54.1834,0.00823861,0.0,-0.0352333,-0.00483351,-2.931,0.0,0.0,0.0,0.0,0.0,0.0,-0.00148199,-0.00110816,-0.488049
40164000,-0.00260851,0.0082467,-54.465,0.00823861,0.0,-0.0361215,-0.00442823,-2.95337,0.0,0.0,0.0,0.0,0.0,0.0,-0.00206236,-0.000969446,-0.501505
40256000,-0.00261958,0.00824668,-54.7347,0.00823861,0.0,-0.036977,-0.0039475,-2.94108,0.0,0.0,0.0,0.0,0.0,0.0,-0.00223646,-0.00108407,-0.49514
40348000,-0.00263065,0.00824666,-55.0044,0.00823861,0.0,-0.0372733,-0.00350504,-2.92913,0.0,0.0,0.0,0.0,0.0,0.0,-0.00180127,-0.00146874,-0.490177
40444000,-0.0026422,0.00824664,-55.2857,0.00823861,0.0,-0.0373912,-0.00327773,-2.95188,0.0,0.0,0.0,0.0,0.0,0.0,-0.00104285,-0.000569139,-0.502484
40536000,-0.00265327,0.00824662,-55.5553,0.00823861,0.0,-0.0374006,-0.00309973,-2.93926,0.0,0.0,0.0,0.0,0.0,0.0,-0.00123799,-0.00119939,-0.494856
40628000,-0.00266434,0.0082466,-55.8249,0.00823861,0.0,-0.037652,-0.00310782,-2.92686,0.0,0.0,0.0,0.0,0.0,0.0,-0.00158354,-0.00110317,-0.488164
40724000,-0.00267589,0.00824657,-56.1061,0.00823861,0.0,-0.0378519,-0.00304484,-2.94959,0.0,0.0,0.0,0.0,0.0,0.0,-0.00159356,-0.000861375,-0.502092
40816000,-0.00268696,0.00824655,-56.3757,0.00823861,0.0,-0.0378236,-0.00256381,-2.937,0.0,0.0,0.0,0.0,0.0,0.0,-0.000925005,-0.000727155,-0.495075
40908000,-0.00269803,0.00824653,-56.6453,0.00823861,0.0,-0.0373711,-0.00184234,-2.92422,0.0,0.0,0.0,0.0,0.0,0.0,-0.00145379,-0.000905673,-0.488695
41004000,-0.00270958,0.00824651,-56.9267,0.00823861,0.0,-0.036669,-0.00120175,-2.94738,0.0,0.0,0.0,0.0,0.0,0.0,-0.000923861,-0.000937411,-0.503873
41096000,-0.00272066,0.00824649,-57.1965,0.00823861,0.0,-0.0357836,-0.000656552,-2.93629,0.0,0.0,0.0,0.0,0.0,0.0,-0.00091285,-0.00150073,-0.49677
41188000,-0.00273174,0.00824647,-57.4665,0.00823861,0.0,-0.0351412,-3.8681e-06,-2.92564,0.0,0.0,0.0,0.0,0.0,0.0,-0.0009421,-0.000325364,-0.490894
41284000,-0.00274332,0.00824644,-57.7483,0.00823861,0.0,-0.0343981,0.000788508,-2.94951,0.0,0.0,0.0,0.0,0.0,0.0,-0.000736899,-0.00108125,-0.502915
41376000,-0.00275441,0.00824642,-58.0186,0.00823861,0.0,-0.0335987,0.0015722,-2.93834,0.0,0.0,0.0,0.0,0.0,0.0,-0.00082172,-0.000306076,-0.495707
41468000,-0.00276551,0.0082464,-58.2889,0.00823861,0.0,-0.0330239,0.00235312,-2.92653,0.0,0.0,0.0,0.0,0.0,0.0,-0.0010947,4.91359e-05,-0.489014
41564000,-0.0027771,0.00824638,-58.5711,0.00823861,0.0,-0.0323512,0.0031017,-2.94966,0.0,0.0,0.0,0.0,0.0,0.0,-0.00091301,0.000108016,-0.50331
41656000,-0.0027882,0.00824636,-58.8416,0.00823861,0.0,-0.0314506,0.00374563,-2.93816,0.0,0.0,0.0,0.0,0.0,0.0,-0.000378201,0.000477754,-0.495352
41748000,-0.00279932,0.00824634,-59.1123,0.00823861,0.0,-0.0305673,0.00434181,-2.92785,0.0,0.0,0.0,0.0,0.0,0.0,-0.000265054,7.94744e-05,-0.491952
41844000,-0.00281092,0.00824631,-59.3949,0.00823861,0.0,-0.029746,0.00506582,-2.95287,0.0,0.0,0.0,0.0,0.0,0.0,-9.12212e-05,6.46862e-05,-0.503731
41936000,-0.00282205,0.00824629,-59.6659,0.00823861,0.0,-0.0283948,0.00594445,-2.94184,0.0,0.0,0.0,0.0,0.0,0.0,0.000283996,0.00110203,-0.496077
42028000,-0.00283318,0.00824627,-59.9371,0.00823861,0.0,-0.0267441,0.00702458,-2.93041,0.0,0.0,0.0,0.0,0.0,0.0,0.00163139,0.00174629,-0.489745
42124000,-0.00284481,0.00824625,-60.2203,0.00823861,0.0,-0.0250648,0.00805963,-2.94822,0.0,0.0,0.0,0.0,0.0,0.0,0.0011393,0.00186961,-0.499533
42216000,-0.00285597,0.00824623,-60.4892,0.00823861,0.0,-0.0231326,0.0090873,-2.87696,0.0,0.0,0.0,0.0,0.0,0.0,0.0013087,0.00179759,-0.46407
42308000,-0.00285597,0.0082462,-60.7532,0.00823861,0.0,-0.0208825,0.0100078,-2.78343,0.0,0.0,0.0,0.0,0.0,0.0,0.00151639,0.00163615,-0.44781
42404000,-0.00283776,0.00824618,-61.0238,0.00823861,0.0,-0.0191295,0.0109924,-2.72696,0.0,0.0,0.0,0.0,0.0,0.0,0.00162799,0.00318374,-0.458672
42496000,-0.00282031,0.00824616,-61.2758,0.00823861,0.0,-0.0173403,0.0121936,-2.63591,0.0,0.0,0.0,0.0,0.0,0.0,0.00181155,0.00243518,-0.45196
42588000,-0.00280286,0.00824614,-61.5206,0.00823861,0.0,-0.0157397,0.0134618,-2.54751,0.0,0.0,0.0,0.0,0.0,0.0,0.0021405,0.00274743,-0.445978
42684000,-0.00278465,0.00824612,-61.7687,0.00823861,0.0,-0.0142691,0.0145847,-2.4889,0.0,0.0,0.0,0.0,0.0,0.0,0.00219502,0.00244679,-0.454825
42776000,-0.0027672,0.0082461,-61.9994,0.00823861,0.0,-0.012581,0.0155724,-2.40351,0.0,0.0,0.0,0.0,0.0,0.0,0.00268729,0.00251435,-0.452031
42868000,-0.00274975,0.00824607,-62.2237,0.00823861,0.0,-0.0110593,0.0163193,-2.32433,0.0,0.0,0.0,0.0,0.0,0.0,0.00229975,0.00290007,-0.45206
42964000,-0.00273154,0.00824605,-62.4511,0.00823861,0.0,-0.00991938,0.0167148,-2.27218,0.0,0.0,0.0,0.0,0.0,0.0,0.00285299,0.00237174,-0.459178
43056000,-0.00271409,0.00824603,-62.6629,0.00823861,0.0,-0.00836461,0.0170629,-2.19644,0.0,0.0,0.0,0.0,0.0,0.0,0.00256686,0.00223428,-0.454368
43148000,-0.00269664,0.00824601,-62.8686,0.00823861,0.0,-0.00684607,0.0173018,-2.1232,0.0,0.0,0.0,0.0,0.0,0.0,0.00251988,0.00246863,-0.452775
43244000,-0.00267843,0.00824599,-63.0771,0.00823861,0.0,-0.0054438,0.017386,-2.07351,0.0,0.0,0.0,0.0,0.0,0.0,0.00239743,0.00234431,-0.459614
43336000,-0.00266098,0.00824597,-63.2711,0.00823861,0.0,-0.00390484,0.017251,-2.00434,0.0,0.0,0.0,0.0,0.0,0.0,0.0019452,0.00253133,-0.457113
43428000,-0.00264353,0.00824594,-63.4595,0.00823861,0.0,-0.00248686,0.016998,-1.93734,0.0,0.0,0.0,0.0,0.0,0.0,0.00212228,0.00233864,-0.456608
43524000,-0.00262532,0.00824592,-63.6504,0.00823861,0.0,-0.00128249,0.0168816,-1.89415,0.0,0.0,0.0,0.0,0.0,0.0,0.00220203,0.00237588,-0.464528
43616000,-0.00260787,0.0082459,-63.8281,0.00823861,0.0,2.01199e-05,0.0169453,-1.83387,0.0,0.0,0.0,0.0,0.0,0.0,0.00297759,0.00235098,-0.462233
43708000,-0.00259061,0.00824588,-63.9989,0.00823861,0.0,0.00146562,0.0172156,-1.77441,0.0,0.0,0.0,0.0,0.0,0.0,0.00399726,0.00300883,-0.461409
43804000,-0.0025726,0.00824586,-64.1721,0.00823861,0.0,0.00286649,0.0177467,-1.73742,0.0,0.0,0.0,0.0,0.0,0.0,0.00412656,0.00357939,-0.469937
43896000,-0.00255535,0.00824584,-64.3332,0.00823861,0.0,0.00431306,0.0185582,-1.6838,0.0,0.0,0.0,0.0,0.0,0.0,0.0041071,0.00398052,-0.467883
43988000,-0.00253812,0.00824581,-64.4896,0.00823861,0.0,0.00567456,0.0196152,-1.63192,0.0,0.0,0.0,0.0,0.0,0.0,0.00366866,0.00376818,-0.467505
44084000,-0.00252015,0.00824579,-64.6481,0.00823861,0.0,0.00677012,0.0204263,-1.59767,0.0,0.0,0.0,0.0,0.0,0.0,0.00353298,0.00369955,-0.472184
44176000,-0.00250294,0.00824577,-64.7955,0.00823861,0.0,0.00771906,0.0211548,-1.54907,0.0,0.0,0.0,0.0,0.0,0.0,0.00310565,0.00359591,-0.469923
44268000,-0.00248574,0.00824575,-64.9388,0.00823861,0.0,0.00837162,0.0217475,-1.50186,0.0,0.0,0.0,0.0,0.0,0.0,0.00211434,0.00366179,-0.469364
44364000,-0.0024678,0.00824573,-65.0839,0.00823861,0.0,0.00874389,0.0224569,-1.46996,0.0,0.0,0.0,0.0,0.0,0.0,0.00318893,0.00386906,-0.473563
44456000,-0.00245062,0.0082457,-65.219,0.00823861,0.0,0.00908953,0.0232294,-1.42528,0.0,0.0,0.0,0.0,0.0,0.0,0.00257762,0.00388216,-0.472289
44548000,-0.00243344,0.00824568,-65.3503,0.00823861,0.0,0.00921547,0.023604,-1.38122,0.0,0.0,0.0,0.0,0.0,0.0,0.00180196,0.00280279,-0.469681
44644000,-0.00241552,0.00824566,-65.4835,0.00823861,0.0,0.00896404,0.0234791,-1.35163,0.0,0.0,0.0,0.0,0.0,0.0,0.00144581,0.00212854,-0.473421
44736000,-0.00239834,0.00824564,-65.6075,0.00823861,0.0,0.00845888,0.0229753,-1.30874,0.0,0.0,0.0,0.0,0.0,0.0,0.00159195,0.00130197,-0.47127
44828000,-0.00238115,0.00824562,-65.7282,0.00823861,0.0,0.00778509,0.0225065,-1.26773,0.0,0.0,0.0,0.0,0.0,0.0,0.000557596,0.000999292,-0.470355
44924000,-0.00236321,0.0082456,-65.8506,0.00823861,0.0,0.00711059,0.0221493,-1.24077,0.0,0.0,0.0,0.0,0.0,0.0,0.000800211,0.000532191,-0.474297
45016000,-0.00234601,0.00824557,-65.9646,0.00823861,0.0,0.00632425,0.0217858,-1.20228,0.0,0.0,0.0,0.0,0.0,0.0,0.000428993,0.00109369,-0.473298
45108000,-0.0023288,0.00824555,-66.0754,0.00823861,0.0,0.00552788,0.0216132,-1.16683,0.0,0.0,0.0,0.0,0.0,0.0,0.0012741,0.000949392,-0.473695
45204000,-0.00231085,0.00824553,-66.188,0.00823861,0.0,0.00494598,0.0215752,-1.14139,0.0,0.0,0.0,0.0,0.0,0.0,0.00147677,0.00157475,-0.474947
45296000,-0.00229364,0.00824551,-66.2927,0.00823861,0.0,0.00455393,0.0216149,-1.10563,0.0,0.0,0.0,0.0,0.0,0.0,0.000919026,0.00209977,-0.474898
45388000,-0.00227643,0.00824549,-66.3946,0.00823861,0.0,0.00430095,0.0217453,-1.07277,0.0,0.0,0.0,0.0,0.0,0.0,0.000702633,0.00144151,-0.475865
45484000,-0.00225847,0.00824547,-66.4978,0.00823861,0.0,0.00385191,0.0218474,-1.04913,0.0,0.0,0.0,0.0,0.0,0.0,0.000815621,0.00173426,-0.478345
45576000,-0.00224126,0.00824544,-66.5938,0.00823861,0.0,0.00321045,0.021902,-1.01641,0.0,0.0,0.0,0.0,0.0,0.0,0.00104734,0.00142307,-0.47701
45668000,-0.00222405,0.00824542,-66.687,0.00823861,0.0,0.00253659,0.0219682,-0.985743,0.0,0.0,0.0,0.0,0.0,0.0,0.000747428,0.00143999,-0.475445
45764000,-0.00220609,0.0082454,-66.7817,0.00823861,0.0,0.00186504,0.0218188,-0.964916,0.0,0.0,0.0,0.0,0.0,0.0,0.000553815,0.0017095,-0.477684
45856000,-0.00218991,0.00824538,-66.8699,0.00823861,0.0,0.000982785,0.0219229,-0.934304,0.0,0.0,0.0,0.0,0.0,0.0,0.000864565,0.00175983,-0.476971
45948000,-0.00220073,0.00824536,-66.9562,0.00823861,0.0,-0.000187881,0.0221231,-0.908246,0.0,0.0,0.0,0.0,0.0,0.0,0.000566375,0.00264276,-0.47908
46044000,-0.00221489,0.00824533,-67.0432,0.00823861,0.0,-0.00135233,0.0223521,-0.892429,0.0,0.0,0.0,0.0,0.0,0.0,0.000639942,0.00233095,-0.482748
46136000,-0.00223026,0.00824531,-67.1242,0.00823861,0.0,-0.00255688,0.0227289,-0.866029,0.0,0.0,0.0,0.0,0.0,0.0,0.000186359,0.00242108,-0.480443
46228000,-0.00224742,0.00824529,-67.203,0.00823861,0.0,-0.00358975,0.0232295,-0.839005,0.0,0.0,0.0,0.0,0.0,0.0,0.000107578,0.00193428,-0.478279
46324000,-0.0022672,0.00824527,-67.2827,0.00823861,0.0,-0.00446925,0.0235415,-0.821713,0.0,0.0,0.0,0.0,0.0,0.0,0.000670584,0.00256613,-0.480693
46416000,-0.00228797,0.00824525,-67.357,0.00823861,0.0,-0.005744,0.0237748,-0.798517,0.0,0.0,0.0,0.0,0.0,0.0,0.000129343,0.00174051,-0.481035
46508000,-0.00231051,0.00824523,-67.4294,0.00823861,0.0,-0.00716031,0.023838,-0.774096,0.0,0.0,0.0,0.0,0.0,0.0,2.7401e-05,0.00215052,-0.478884
46604000,-0.00233591,0.0082452,-67.5027,0.00823861,0.0,-0.00833859,0.0240304,-0.757239,0.0,0.0,0.0,0.0,0.0,0.0,0.000801638,0.00199156,-0.480884
46696000,-0.00234449,0.00824518,-67.5714,0.00823861,0.0,-0.00902031,0.0242957,-0.732341,0.0,0.0,0.0,0.0,0.0,0.0,0.000690515,0.00230114,-0.479184
46788000,-0.00234045,0.00824516,-67.6386,0.00823861,0.0,-0.00986277,0.0243,-0.711656,0.0,0.0,0.0,0.0,0.0,0.0,9.29488e-05,0.00181992,-0.481988
46884000,-0.00233398,0.00824514,-67.707,0.00823861,0.0,-0.0103626,0.0238778,-0.698615,0.0,0.0,0.0,0.0,0.0,0.0,0.000230158,0.00143155,-0.482819
46976000,-0.00232563,0.00824512,-67.7707,0.00823861,0.0,-0.0106763,0.0234881,-0.677471,0.0,0.0,0.0,0.0,0.0,0.0,0.000599154,0.0011093,-0.481064
47068000,-0.00231517,0.0082451,-67.8326,0.00823861,0.0,-0.0110799,0.0235155,-0.656144,0.0,0.0,0.0,0.0,0.0,0.0,0.000585693,0.00101382,-0.479249
47164000,-0.002302,0.00824507,-67.8953,0.00823861,0.0,-0.0115586,0.0237391,-0.641287,0.0,0.0,0.0,0.0,0.0,0.0,6.74897e-05,0.000780961,-0.480768
47256000,-0.00228723,0.00824505,-67.9536,0.00823861,0.0,-0.0126547,0.0241076,-0.623225,0.0,0.0,0.0,0.0,0.0,0.0,-0.000246849,0.000672059,-0.481476
47348000,-0.00227034,0.00824503,-68.0104,0.00823861,0.0,-0.0139359,0.0244614,-0.601885,0.0,0.0,0.0,0.0,0.0,0.0,-0.000837494,0.00101233,-0.47816
47444000,-0.00225689,0.00824501,-68.0679,0.00823861,0.0,-0.0155372,0.0249674,-0.587434,0.0,0.0,0.0,0.0,0.0,0.0,-0.00103768,0.00109301,-0.479187
47536000,-0.00226623,0.00824499,-68.1206,0.00823861,0.0,-0.0171195,0.0250609,-0.568076,0.0,0.0,0.0,0.0,0.0,0.0,-0.00108435,0.000852762,-0.480515
47628000,-0.00227557,0.00824497,-68.1717,0.00823861,0.0,-0.0188031,0.0244492,-0.550372,0.0,0.0,0.0,0.0,0.0,0.0,-0.00124422,0.000403486,-0.481137
47724000,-0.00228532,0.00824494,-68.2237,0.00823861,0.0,-0.0201712,0.0236683,-0.538196,0.0,0.0,0.0,0.0,0.0,0.0,-0.00137682,0.000341472,-0.482568
47816000,-0.00229466,0.00824492,-68.272,0.00823861,0.0,-0.0212598,0.0228973,-0.521892,0.0,0.0,0.0,0.0,0.0,0.0,-0.000646194,-6.77502e-05,-0.482875
47908000,-0.002304,0.0082449,-68.3191,0.00823861,0.0,-0.0218773,0.0221182,-0.504193,0.0,0.0,0.0,0.0,0.0,0.0,-0.000645538,-0.000194788,-0.481733
48004000,-0.00231374,0.00824488,-68.3667,0.00823861,0.0,-0.0221901,0.021367,-0.496044,0.0,0.0,0.0,0.0,0.0,0.0,-0.000478568,-0.000871064,-0.484917
48096000,-0.00232309,0.00824486,-68.4113,0.00823861,0.0,-0.0224301,0.0203412,-0.481558,0.0,0.0,0.0,0.0,0.0,0.0,-0.000749338,-0.000889441,-0.483427
48188000,-0.00233243,0.00824484,-68.4546,0.00823861,0.0,-0.022772,0.0193967,-0.467534,0.0,0.0,0.0,0.0,0.0,0.0,-0.000265096,0.000435265,-0.484108
48284000,-0.00234219,0.00824481,-68.4985,0.00823861,0.0,-0.023031,0.0190388,-0.458151,0.0,0.0,0.0,0.0,0.0,0.0,0.000113421,0.000814533,-0.485326
48376000,-0.00235153,0.00824479,-68.5394,0.00823861,0.0,-0.0234984,0.0188234,-0.443983,0.0,0.0,0.0,0.0,0.0,0.0,-0.000465942,0.000234825,-0.484902
48468000,-0.00236088,0.00824477,-68.579,0.00823861,0.0,-0.0237744,0.0182693,-0.430952,0.0,0.0,0.0,0.0,0.0,0.0,-0.000685302,0.000245934,-0.483929
48564000,-0.00237063,0.00824475,-68.6194,0.00823861,0.0,-0.0239793,0.017397,-0.423549,0.0,0.0,0.0,0.0,0.0,0.0,-0.00066001,-0.000459666,-0.485509
48656000,-0.00237998,0.00824473,-68.6569,0.00823861,0.0,-0.0236197,0.0161639,-0.411627,0.0,0.0,0.0,0.0,0.0,0.0,-0.000501284,-0.0010702,-0.485605
48748000,-0.00238934,0.00824471,-68.6935,0.00823861,0.0,-0.0236449,0.0146789,-0.398649,0.0,0.0,0.0,0.0,0.0,0.0,-0.000879045,-0.000533664,-0.483389
48844000,-0.00239911,0.00824468,-68.7306,0.00823861,0.0,-0.0233961,0.0130953,-0.389027,0.0,0.0,0.0,0.0,0.0,0.0,8.97257e-05,-0.000795858,-0.484153
48936000,-0.00240848,0.00824466,-68.7652,0.00823861,0.0,-0.0226953,0.011397,-0.377089,0.0,0.0,0.0,0.0,0.0,0.0,0.000484692,-0.000496284,-0.484511
49028000,-0.00241786,0.00824464,-68.7988,0.00823861,0.0,-0.0219075,0.0101426,-0.363758,0.0,0.0,0.0,0.0,0.0,0.0,0.000552852,-0.000668173,-0.482972
49124000,-0.00242765,0.00824462,-68.833,0.00823861,0.0,-0.0212472,0.00912629,-0.356799,0.0,0.0,0.0,0.0,0.0,0.0,0.000147589,-0.00107689,-0.485887
49216000,-0.00243704,0.0082446,-68.8649,0.00823861,0.0,-0.0206412,0.00816664,-0.346481,0.0,0.0,0.0,0.0,0.0,0.0,0.000710656,-0.000797246,-0.486004
49308000,-0.00244644,0.00824458,-68.8959,0.00823861,0.0,-0.0196788,0.00729819,-0.33651,0.0,0.0,0.0,0.0,0.0,0.0,0.000722493,-0.00102525,-0.485966
49404000,-0.00245625,0.00824455,-68.9274,0.00823861,0.0,-0.0185563,0.00646756,-0.33064,0.0,0.0,0.0,0.0,0.0,0.0,-0.000357173,-0.000554465,-0.486128
49496000,-0.00246567,0.00824453,-68.9567,0.00823861,0.0,-0.0173792,0.00544914,-0.321074,0.0,0.0,0.0,0.0,0.0,0.0,7.74626e-05,-0.000371286,-0.485907
49588000,-0.00247509,0.00824451,-68.9853,0.00823861,0.0,-0.0160901,0.00437817,-0.312975,0.0,0.0,0.0,0.0,0.0,0.0,0.000295662,-0.00150148,-0.486605
49684000,-0.00248493,0.00824449,-69.0143,0.00823861,0.0,-0.014718,0.00344528,-0.308278,0.0,0.0,0.0,0.0,0.0,0.0,0.000766498,-0.000928934,-0.48853
49776000,-0.00249437,0.00824447,-69.0415,0.00823861,0.0,-0.0127561,0.00219338,-0.300053,0.0,0.0,0.0,0.0,0.0,0.0,0.000998528,-0.000885769,-0.486639
49868000,-0.00250383,0.00824444,-69.0678,0.00823861,0.0,-0.0104383,0.00100633,-0.290932,0.0,0.0,0.0,0.0,0.0,0.0,0.00142045,-0.00129258,-0.485772
49964000,-0.00251371,0.00824442,-69.0946,0.00823861,0.0,-0.00849144,-0.000123998,-0.28459,0.0,0.0,0.0,0.0,0.0,0.0,0.00107996,-0.00107658,-0.486352
50056000,-0.00252319,0.0082444,-69.1196,0.00823861,0.0,-0.00663858,-0.00144296,-0.276414,0.0,0.0,0.0,0.0,0.0,0.0,0.00145903,-0.00136843,-0.485374
50148000,-0.00253268,0.00824438,-69.144,0.00823861,0.0,-0.00503536,-0.00285135,-0.26836,0.0,0.0,0.0,0.0,0.0,0.0,0.00139584,-0.00146191,-0.487133
50244000,-0.00254258,0.00824436,-69.1686,0.00823861,0.0,-0.00396216,-0.00430052,-0.262405,0.0,0.0,0.0,0.0,0.0,0.0,0.00143397,-0.00171342,-0.487689
50336000,-0.00255207,0.00824434,-69.1916,0.00823861,0.0,-0.00274805,-0.00593355,-0.255266,0.0,0.0,0.0,0.0,0.0,0.0,0.000782942,-0.00196177,-0.487468
50428000,-0.00256155,0.00824431,-69.214,0.00824173,0.0,-0.00125611,-0.00748276,-0.24923,0.0,0.0,0.0,0.0,0.0,0.0,0.00118473,-0.00182385,-0.486758
50524000,-0.00257145,0.00824429,-69.2366,0.00824173,0.0,0.000126969,-0.00887805,-0.244469,0.0,0.0,0.0,0.0,0.0,0.0,0.000869091,-0.00193761,-0.4876
50616000,-0.00258097,0.00824427,-69.2579,0.00824173,0.0,0.00152041,-0.0104375,-0.237837,0.0,0.0,0.0,0.0,0.0,0.0,0.0015588,-0.00188024,-0.488521
50708000,-0.0025905,0.00824425,-69.2785,0.00824173,0.0,0.00284525,-0.0117897,-0.230503,0.0,0.0,0.0,0.0,0.0,0.0,0.00131772,-0.00158239,-0.486477
50804000,-0.00260044,0.00824423,-69.2994,0.00824173,0.0,0.00409144,-0.0127781,-0.225598,0.0,0.0,0.0,0.0,0.0,0.0,0.00145281,-0.00114463,-0.487478
50896000,-0.00260996,0.00824421,-69.3188,0.00824173,0.0,0.00549817,-0.0136121,-0.218494,0.0,0.0,0.0,0.0,0.0,0.0,0.00146449,-0.00117881,-0.487543
50988000,-0.00261949,0.00824418,-69.3377,0.00824173,0.0,0.00691778,-0.0141175,-0.213274,0.0,0.0,0.0,0.0,0.0,0.0,0.00119194,-0.00214898,-0.487945
51084000,-0.00262942,0.00824416,-69.357,0.00824173,0.0,0.0081169,-0.0144559,-0.208621,0.0,0.0,0.0,0.0,0.0,0.0,0.00130005,-0.0016972,-0.487379
51176000,-0.00263895,0.00824414,-69.3748,0.00824173,0.0,0.00937876,-0.0147478,-0.201325,0.0,0.0,0.0,0.0,0.0,0.0,0.00133171,-0.000902381,-0.486038
51268000,-0.00264847,0.00824412,-69.3921,0.00824173,0.0,0.0106666,-0.0148461,-0.196502,0.0,0.0,0.0,0.0,0.0,0.0,0.000453524,-0.00129223,-0.488477
51364000,-0.00265841,0.0082441,-69.4097,0.00824173,0.0,0.0120716,-0.0149282,-0.191971,0.0,0.0,0.0,0.0,0.0,0.0,0.00159411,-0.000906123,-0.488124
51456000,-0.00266794,0.00824407,-69.4261,0.00824173,0.0,0.013656,-0.0150055,-0.186728,0.0,0.0,0.0,0.0,0.0,0.0,0.00129761,-0.00113708,-0.488066
51548000,-0.00267746,0.00824405,-69.4421,0.00824173,0.0,0.014885,-0.0150063,-0.181394,0.0,0.0,0.0,0.0,0.0,0.0,0.000891708,-0.00150822,-0.486637
51644000,-0.0026874,0.00824403,-69.4582,0.00824173,0.0,0.0161281,-0.0148328,-0.176679,0.0,0.0,0.0,0.0,0.0,0.0,0.00110007,-0.00084051,-0.487311
51736000,-0.00267903,0.00824401,-69.4731,0.00824173,0.0,0.0177849,-0.0145559,-0.171644,0.0,0.0,0.0,0.0,0.0,0.0,0.000737289,-0.00155227,-0.487172
51828000,-0.00265776,0.00824399,-69.4876,0.00824173,0.0,0.0187409,-0.0139365,-0.165573,0.0,0.0,0.0,0.0,0.0,0.0,0.000543854,-0.000734275,-0.487261
51924000,-0.0026336,0.00824397,-69.5022,0.00824173,0.0,0.0192718,-0.0130536,-0.160686,0.0,0.0,0.0,0.0,0.0,0.0,0.00136205,-0.000460952,-0.48719
52016000,-0.00260856,0.00824394,-69.5158,0.00824173,0.0,0.0197853,-0.0119631,-0.155308,0.0,0.0,0.0,0.0,0.0,0.0,0.00123606,0.000211302,-0.487968
52108000,-0.00258167,0.00824392,-69.529,0.00824173,0.0,0.020463,-0.0108904,-0.15029,0.0,0.0,0.0,0.0,0.0,0.0,0.00139651,-0.000421998,-0.488077
52204000,-0.00255164,0.0082439,-69.5424,0.00824173,0.0,0.0212117,-0.00998432,-0.148369,0.0,0.0,0.0,0.0,0.0,0.0,0.00146971,0.000350662,-0.489374
52296000,-0.00253861,0.00824388,-69.5549,0.00824173,0.0,0.0216121,-0.00896889,-0.142409,0.0,0.0,0.0,0.0,0.0,0.0,0.00148765,4.79687e-05,-0.487863
52388000,-0.00253799,0.00824386,-69.5672,0.00824173,0.0,0.0221652,-0.007877,-0.138687,0.0,0.0,0.0,0.0,0.0,0.0,0.00113594,0.000401999,-0.488525
52484000,-0.00253936,0.00824384,-69.5797,0.00824173,0.0,0.0227007,-0.0069289,-0.134801,0.0,0.0,0.0,0.0,0.0,0.0,0.00101774,0.000849255,-0.488206
52576000,-0.00254263,0.00824381,-69.5913,0.00824173,0.0,0.0236261,-0.00608338,-0.131783,0.0,0.0,0.0,0.0,0.0,0.0,0.00107084,0.000355538,-0.48956
52668000,-0.00254783,0.00824379,-69.6028,0.00824173,0.0,0.0240335,-0.00517104,-0.128156,0.0,0.0,0.0,0.0,0.0,0.0,0.000854475,0.000744895,-0.488925
52764000,-0.00255529,0.00824377,-69.6143,0.00824173,0.0,0.0242776,-0.00451043,-0.123532,0.0,0.0,0.0,0.0,0.0,0.0,0.000739669,0.00114096,-0.487805
52856000,-0.00256439,0.00824375,-69.625,0.00824173,0.0,0.0246125,-0.00409169,-0.120772,0.0,0.0,0.0,0.0,0.0,0.0,0.000510894,0.000158809,-0.487609
52948000,-0.00257542,0.00824373,-69.6354,0.00824173,0.0,0.0249856,-0.00376371,-0.115651,0.0,0.0,0.0,0.0,0.0,0.0,0.0011142,-0.000459724,-0.487742
53044000,-0.034017,0.0129027,-39.633,0.0,0.0,0.000529951,3.796e-05,1.0,0.0,0.0,0.0,0.0,0.0,0.0,-0.0037812,2.59207e-05,-0.12
53136000,-0.034017,0.0129027,-39.633,0.0,0.0,0.00138045,0.00020033,1.0,0.0,0.0,0.0,0.0,0.0,0.0,-0.00128844,0.000146674,-0.34997
53228000,-0.034017,0.0129027,-39.633,0.0,0.0,0.00297728,0.000553684,1.0,0.0,0.0,0.0,0.0,0.0,0.0,0.00215958,0.000371269,-0.485294
53324000,-0.034017,0.0129027,-39.633,0.0,0.0,0.00496169,0.00098559,1.0,0.0,0.0,0.0,0.0,0.0,0.0,0.00319356,0.000673,-0.488437
53416000,-0.034017,0.0129027,-39.633,0.0,0.0,0.00719391,0.00154381,1.0,0.0,0.0,0.0,0.0,0.0,0.0,0.00358029,0.000332719,-0.486096
53512000,-0.034017,0.0129027,-39.633,0.0,0.0,0.00901773,0.00204916,1.0,0.0,0.0,0.0,0.0,0.0,0.0,0.00320452,0.000416718,-0.486387
53604000,-0.034017,0.0129027,-39.633,0.0,0.0,0.0101672,0.00247561,1.0,0.0,0.0,0.0,0.0,0.0,0.0,0.00206407,-0.000132594,-0.487325
53700000,-0.034017,0.0129027,-39.633,0.0,0.0,0.0106348,0.00271236,1.0,0.0,0.0,0.0,0.0,0.0,0.0,0.00198607,0.000383933,-0.487885
53792000,-0.034017,0.0129027,-39.633,0.0,0.0,0.0106937,0.00298961,1.0,0.0,0.0,0.0,0.0,0.0,0.0,0.000963245,0.000961909,-0.488508
53884000,-0.034017,0.0129027,-39.633,0.0,0.0,0.010713,0.0032613,1.0,0.0,0.0,0.0,0.0,0.0,0.0,0.00110737,0.000815022,-0.489776
53980000,-0.034017,0.0129027,-39.633,0.0,0.0,0.0109046,0.00334348,1.0,0.0,0.0,0.0,0.0,0.0,0.0,0.00135044,0.00116617,-0.489701
54072000,-0.034017,0.0129027,-39.633,0.0,0.0,0.0114586,0.00322301,1.0,0.0,0.0,0.0,0.0,0.0,0.0,0.00169047,0.000742265,-0.488938
54164000,-0.034017,0.0129027,-39.633,0.0,0.0,0.0122602,0.00292505,1.0,0.0,0.0,0.0,0.0,0.0,0.0,0.000719998,0.000335933,-0.48867
54260000,-0.034017,0.0129027,-39.633,0.0,0.0,0.0126684,0.00296756,1.0,0.0,0.0,0.0,0.0,0.0,0.0,0.00108268,0.000384089,-0.489341
54352000,-0.034017,0.0129027,-39.633,0.0,0.0,0.0127568,0.00276157,1.0,0.0,0.0,0.0,0.0,0.0,0.0,0.000310369,0.000244133,-0.489564
54444000,-0.034017,0.0129027,-39.633,0.0,0.0,0.0123963,0.00217009,1.0,0.0,0.0,0.0,0.0,0.0,0.0,0.000414601,-0.000364304,-0.489216
54540000,-0.034017,0.0129027,-39.633,0.0,0.0,0.0121503,0.00134971,1.0,0.0,0.0,0.0,0.0,0.0,0.0,0.000597081,-0.000414869,-0.489593
54632000,-0.034017,0.0129027,-39.633,0.0,0.0,0.0120933,0.000309631,1.0,0.0,0.0,0.0,0.0,0.0,0.0,0.00101258,-0.00125413,-0.490992
54724000,-0.034017,0.0129027,-39.633,0.0,0.0,0.0120658,-0.00076178,1.0,0.0,0.0,0.0,0.0,0.0,0.0,0.000700998,-0.000898849,-0.489657
54820000,-0.034017,0.0129027,-39.633,0.0,0.0,0.0118035,-0.00178487,1.0,0.0,0.0,0.0,0.0,0.0,0.0,0.000826409,-0.00107798,-0.489643
54912000,-0.034017,0.0129027,-39.633,0.0,0.0,0.0113806,-0.00309629,1.0,0.0,0.0,0.0,0.0,0.0,0.0,0.000832038,-0.00111495,-0.490496
55004000,-0.034017,0.0129027,-39.633,0.0,0.0,0.0109148,-0.00467389,1.0,0.0,0.0,0.0,0.0,0.0,0.0,0.000561524,-0.00129973,-0.491135
55100000,-0.034017,0.0129027,-39.633,0.0,0.0,0.0104033,-0.006077,1.0,0.0,0.0,0.0,0.0,0.0,0.0,-0.000134872,-0.00121877,-0.490573
55192000,-0.034017,0.0129027,-39.633,0.0,0.0,0.00987997,-0.00724019,1.0,0.0,0.0,0.0,0.0,0.0,0.0,0.000369529,-0.000727632,-0.490485
55284000,-0.034017,0.0129027,-39.633,0.0,0.0,0.0094073,-0.00775829,1.0,0.0,0.0,0.0,0.0,0.0,0.0,0.00011634,-0.00046538,-0.491137
55380000,-0.034017,0.0129027,-39.633,0.0,0.0,0.00870332,-0.00787636,1.0,0.0,0.0,0.0,0.0,0.0,0.0,0.000278486,-0.000585096,-0.490858
55472000,-0.034017,0.0129027,-39.633,0.0,0.0,0.0076672,-0.00801464,1.0,0.0,0.0,0.0,0.0,0.0,0.0,0.00012228,0.000114579,-0.490934
55564000,-0.034017,0.0129027,-39.633,0.0,0.0,0.00676306,-0.00850952,1.0,0.0,0.0,0.0,0.0,0.0,0.0,0.000863186,0.000497,-0.490391
55660000,-0.034017,0.0129027,-39.633,0.0,0.0,0.00616087,-0.00865614,1.0,0.0,0.0,0.0,0.0,0.0,0.0,0.000196767,-0.000271354,-0.490439
55752000,-0.034017,0.0129027,-39.633,0.0,0.0,0.0055656,-0.00864232,1.0,0.0,0.0,0.0,0.0,0.0,0.0,0.000226091,-0.000457406,-0.489984
55844000,-0.034017,0.0129027,-39.633,0.0,0.0,0.00501933,-0.00877721,1.0,0.0,0.0,0.0,0.0,0.0,0.0,-9.12437e-05,-0.000471787,-0.490062
55940000,-0.034017,0.0129027,-39.633,0.0,0.0,0.00424104,-0.00898649,1.0,0.0,0.0,0.0,0.0,0.0,0.0,-0.00014023,-0.000236726,-0.490216
56032000,-0.034017,0.0129027,-39.633,0.0,0.0,0.00326618,-0.00924293,1.0,0.0,0.0,0.0,0.0,0.0,0.0,-0.000192219,-0.000319047,-0.490233
56124000,-0.034017,0.0129027,-39.633,0.0,0.0,0.00220919,-0.00975808,1.0,0.0,0.0,0.0,0.0,0.0,0.0,-7.8005e-06,0.000221577,-0.490439
56220000,-0.034017,0.0129027,-39.633,0.0,0.0,0.00130217,-0.0102909,1.0,0.0,0.0,0.0,0.0,0.0,0.0,-0.000228859,7.729e-05,-0.490378
56312000,-0.034017,0.0129027,-39.633,0.0,0.0,0.00030407,-0.0109021,1.0,0.0,0.0,0.0,0.0,0.0,0.0,-0.00126335,-0.000860617,-0.489806
56404000,-0.034017,0.0129027,-39.633,0.0,0.0,-0.000751993,-0.0117774,1.0,0.0,0.0,0.0,0.0,0.0,0.0,-0.000470287,-0.00067329,-0.49007
56500000,-0.034017,0.0129027,-39.633,0.0,0.0,-0.0015011,-0.0126207,1.0,0.0,0.0,0.0,0.0,0.0,0.0,-0.000243934,-0.000375689,-0.489804
56592000,-0.034017,0.0129027,-39.633,0.0,0.0,-0.00205879,-0.0136442,1.0,0.0,0.0,0.0,0.0,0.0,0.0,0.000239656,-0.00103006,-0.489724
56688000,-0.034017,0.0129027,-39.633,0.0,0.0,-0.00230948,-0.0148507,1.0,0.0,0.0,0.0,0.0,0.0,0.0,-0.000111183,-0.00141514,-0.488629
56780000,-0.034017,0.0129027,-39.633,0.0,0.0,-0.00235599,-0.0162457,1.0,0.0,0.0,0.0,0.0,0.0,0.0,0.000295452,-0.00126999,-0.489947
56876000,-0.034017,0.0129027,-39.633,0.0,0.0,-0.00210867,-0.0171798,1.0,0.0,0.0,0.0,0.0,0.0,0.0,9.30515e-05,-0.000912914,-0.490081
56968000,-0.034017,0.0129027,-39.633,0.0,0.0,-0.00200683,-0.0178048,1.0,0.0,0.0,0.0,0.0,0.0,0.0,0.000712274,-0.000830104,-0.490212
57060000,-0.034017,0.0129027,-39.633,0.0,0.0,-0.00210387,-0.0183351,1.0,0.0,0.0,0.0,0.0,0.0,0.0,0.000242972,-0.000197999,-0.489638
57156000,-0.034017,0.0129027,-39.633,0.0,0.0,-0.00219139,-0.0187113,1.0,0.0,0.0,0.0,0.0,0.0,0.0,0.000657507,-0.00060055,-0.489513
57248000,-0.034017,0.0129027,-39.633,0.0,0.0,-0.00228737,-0.0192976,1.0,0.0,0.0,0.0,0.0,0.0,0.0,0.000267477,-0.00106845,-0.489744
57340000,-0.034017,0.0129027,-39.633,0.0,0.0,-0.00227393,-0.0195942,1.0,0.0,0.0,0.0,0.0,0.0,0.0,4.28101e-05,-0.000838602,-0.489774
57436000,-0.034017,0.0129027,-39.633,0.0,0.0,-0.00204925,-0.0197509,1.0,0.0,0.0,0.0,0.0,0.0,0.0,0.000352857,-0.000975985,-0.489556
57528000,-0.034017,0.0129027,-39.633,0.0,0.0,-0.00147829,-0.0198418,1.0,0.0,0.0,0.0,0.0,0.0,0.0,0.000491354,-0.000349449,-0.489642
