timestamp,rollspeed,pitchspeed,yawspeed,rollspeed_integ,pitchspeed_integ,yawspeed_integ,additional_integ1
72000,-0.00247547,0.00230727,0.00186187,0.0,0.0,0.0,0.0
100000,-0.00692657,-0.00063127,-0.0031342,0.0,0.0,0.0,0.0
132000,0.00473024,-0.00122538,0.0018184,0.0,0.0,0.0,0.0
160000,0.000723945,0.0057828,0.00468509,0.0,0.0,0.0,0.0
192000,0.00571875,0.00444642,0.00203178,0.0,0.0,0.0,0.0
224000,-0.000948148,0.00748313,0.00414013,0.0,0.0,0.0,0.0
252000,-0.00115851,0.00171744,-0.00908654,0.0,0.0,0.0,0.0
280000,-0.00886086,-0.00219708,0.00120934,0.0,0.0,0.0,0.0
312000,-0.000410038,0.00760404,0.00132868,0.0,0.0,0.0,0.0
340000,0.00382539,-0.00631168,0.00768395,0.0,0.0,0.0,0.0
368000,0.00744051,-0.00718652,-0.000377131,0.0,0.0,0.0,0.0
400000,0.0107665,0.000818205,-0.00481797,0.0,0.0,0.0,0.0
432000,-0.00821184,0.000148354,0.00803358,0.0,0.0,0.0,0.0
460000,0.00438726,-0.00102063,0.000708667,0.0,0.0,0.0,0.0
488000,0.00140853,-0.00085408,0.0047917,0.0,0.0,0.0,0.0
516000,-0.003801,-0.00833229,0.000390447,0.0,0.0,0.0,0.0
544000,-0.00612773,-0.00509656,-0.00250803,0.0,0.0,0.0,0.0
576000,0.00499292,0.00527126,0.00717368,0.0,0.0,0.0,0.0
608000,-0.00942977,-0.00467546,0.000155158,0.0,0.0,0.0,0.0
640000,-0.000357786,-0.00377391,-0.00548335,0.0,0.0,0.0,0.0
668000,-0.00475553,-0.00617567,0.00153125,0.0,0.0,0.0,0.0
700000,-0.000823485,0.00585586,-0.00399254,0.0,0.0,0.0,0.0
728000,-0.00226435,0.00416943,0.00161349,0.0,0.0,0.0,0.0
756000,0.00456428,-0.00782888,0.00506639,0.0,0.0,0.0,0.0
788000,-0.00605201,-0.00250356,0.00873166,0.0,0.0,0.0,0.0
820000,0.00435091,0.000440473,0.00534668,0.0,0.0,0.0,0.0
848000,0.0015572,-0.000880603,0.00259346,0.0,0.0,0.0,0.0
876000,-0.00243546,-0.000835192,0.00139463,0.0,0.0,0.0,0.0
904000,0.00475893,-0.00353823,0.0042903,0.0,0.0,0.0,0.0
932000,-0.00167661,0.00679576,0.0044668,0.0,0.0,0.0,0.0
964000,-0.000520695,0.000788736,0.00154382,0.0,0.0,0.0,0.0
992000,0.000595323,0.0104955,-0.00257975,0.0,0.0,0.0,0.0
1020000,-0.0100854,0.00671657,-0.000219216,0.0,0.0,0.0,0.0
1048000,-0.00377387,-0.00224406,-0.00740016,0.0,0.0,0.0,0.0
1076000,0.0038117,-0.00372351,0.000697582,0.0,0.0,0.0,0.0
1108000,0.00284218,-0.00117459,0.00108862,0.0,0.0,0.0,0.0
1136000,0.00473367,-0.00934109,0.00563963,0.0,0.0,0.0,0.0
1164000,0.0021091,0.00355315,-0.0104438,0.0,0.0,0.0,0.0
1196000,0.00324236,-0.00422682,0.00895544,0.0,0.0,0.0,0.0
1228000,0.00261275,0.00430295,-1.3063e-05,0.0,0.0,0.0,0.0
1260000,-0.00376819,-0.00961474,-0.0119252,0.0,0.0,0.0,0.0
1292000,0.00328319,-0.00571232,0.00182462,0.0,0.0,0.0,0.0
1324000,0.000618688,-0.00209593,0.00339488,0.0,0.0,0.0,0.0
1356000,-0.00155765,-0.000549054,0.0123289,0.0,0.0,0.0,0.0
1388000,-0.00300631,-0.00131263,0.00607753,0.0,0.0,0.0,0.0
1416000,0.00403965,0.00365144,0.00282284,0.0,0.0,0.0,0.0
1444000,-0.000924426,-0.00272713,-0.00558538,0.0,0.0,0.0,0.0
1476000,0.00482734,-0.00359812,-0.00926107,0.0,0.0,0.0,0.0
1504000,0.00275036,-0.00330858,0.00550581,0.0,0.0,0.0,0.0
1532000,0.00379397,5.4491e-05,0.00320413,0.0,0.0,0.0,0.0
1564000,0.00934555,-0.00088191,0.00180137,0.0,0.0,0.0,0.0
1596000,-0.0106418,-0.00533322,0.00401501,0.0,0.0,0.0,0.0
1624000,-0.000119782,0.00284784,0.00754351,0.0,0.0,0.0,0.0
1652000,0.000776208,0.00676188,0.00547822,0.0,0.0,0.0,0.0
1680000,0.00327684,-0.00515452,-0.00626687,0.0,0.0,0.0,0.0
1712000,0.00372259,0.0118344,-0.000350719,0.0,0.0,0.0,0.0
1744000,-0.00199171,0.00190064,6.88054e-05,0.0,0.0,0.0,0.0
1772000,0.00774972,0.00140717,0.00325543,0.0,0.0,0.0,0.0
1800000,-0.0102133,0.000602726,-0.00267697,0.0,0.0,0.0,0.0
1828000,0.00615699,0.00574122,0.00831934,0.0,0.0,0.0,0.0
1856000,0.00269245,-0.00178597,0.00248714,0.0,0.0,0.0,0.0
1884000,-0.00525631,0.00303122,-0.0021514,0.0,0.0,0.0,0.0
1916000,-0.00208885,0.00157038,-0.00195915,0.0,0.0,0.0,0.0
1944000,0.00465405,-0.00133876,-0.00446367,0.0,0.0,0.0,0.0
1976000,0.000916343,-0.0034048,0.00131392,0.0,0.0,0.0,0.0
2004000,-6.06442e-05,0.00217249,0.00211575,0.0,0.0,0.0,0.0
2032000,-0.00376144,0.00095793,-0.000597739,0.0,0.0,0.0,0.0
2060000,0.000544812,-0.00907853,-0.00478959,0.0,0.0,0.0,0.0
2092000,0.0039956,0.000904609,-0.00313015,0.0,0.0,0.0,0.0
2124000,-0.00401114,0.00189544,0.000619435,0.0,0.0,0.0,0.0
2152000,-0.00130079,0.00794225,7.34573e-05,0.0,0.0,0.0,0.0
2180000,0.00130849,0.000127273,0.00328813,0.0,0.0,0.0,0.0
2212000,0.00301373,-0.00181096,-0.00564388,0.0,0.0,0.0,0.0
2244000,0.00293154,-0.00218874,0.00194225,0.0,0.0,0.0,0.0
2276000,-0.00579713,0.00108919,0.0063508,0.0,0.0,0.0,0.0
2308000,0.00474097,0.00373032,0.0010148,0.0,0.0,0.0,0.0
2336000,-0.00560779,0.00201419,0.00177884,0.0,0.0,0.0,0.0
2364000,-0.000219864,-0.00211386,-0.00217755,0.0,0.0,0.0,0.0
2396000,-0.00714123,-0.000818405,-0.00754744,0.0,0.0,0.0,0.0
2424000,0.000792257,-0.00630583,0.00398355,0.0,0.0,0.0,0.0
2456000,-0.000261999,0.00484194,-0.00575275,0.0,0.0,0.0,0.0
2488000,0.0102669,-0.00180492,-0.00347428,0.0,0.0,0.0,0.0
2516000,-0.000915432,-0.00685201,0.000722292,0.0,0.0,0.0,0.0
2544000,0.0120808,7.33257e-05,-0.000713405,0.0,0.0,0.0,0.0
2572000,-0.0137242,0.00307581,-0.00267476,0.0,0.0,0.0,0.0
2600000,0.00047332,0.00195263,0.00712076,0.0,0.0,0.0,0.0
2628000,0.00538663,-0.00127334,0.0098026,0.0,0.0,0.0,0.0
2660000,-0.00326684,-0.00196743,-0.000615424,0.0,0.0,0.0,0.0
2692000,-2.6663e-05,0.00687894,-0.00369707,0.0,0.0,0.0,0.0
2724000,0.00137315,-0.000290671,0.00516449,0.0,0.0,0.0,0.0
2752000,0.00571415,0.00403514,-0.00244499,0.0,0.0,0.0,0.0
2780000,0.00449282,0.00166972,-0.00141718,0.0,0.0,0.0,0.0
2808000,0.00449942,0.00302303,-0.00204838,0.0,0.0,0.0,0.0
2836000,-0.00426306,0.00678303,-0.0105876,0.0,0.0,0.0,0.0
2864000,-0.00250287,-0.00317872,0.000932701,0.0,0.0,0.0,0.0
2896000,-0.0037497,0.00533645,0.00229649,0.0,0.0,0.0,0.0
2928000,-0.00422479,-0.00709217,-0.00378725,0.0,0.0,0.0,0.0
2960000,-0.00148547,-0.00425911,-0.00395692,0.0,0.0,0.0,0.0
2992000,-0.00352316,-0.00497868,-0.00635338,0.0,0.0,0.0,0.0
3024000,0.000217877,0.00131561,0.00293353,0.0,0.0,0.0,0.0
3056000,0.00164541,0.003612,0.0047454,0.0,0.0,0.0,0.0
3088000,0.00133716,0.00615703,0.00112782,0.0,0.0,0.0,0.0
3116000,0.00317777,-0.00304344,-0.000799174,0.0,0.0,0.0,0.0
3144000,-0.000837272,0.00107105,-0.0032082,0.0,0.0,0.0,0.0
3172000,0.00222649,0.00136057,0.00468924,0.0,0.0,0.0,0.0
3200000,0.00115947,-0.00465672,0.000787729,0.0,0.0,0.0,0.0
3228000,-0.00273854,-0.00883338,-0.00570571,0.0,0.0,0.0,0.0
3260000,-3.22938e-05,0.000370054,-0.000300402,0.0,0.0,0.0,0.0
3292000,-0.00156411,-0.000779573,-0.00570097,0.0,0.0,0.0,0.0
3324000,0.00829589,-0.00419605,-4.84069e-05,0.0,0.0,0.0,0.0
3352000,-0.00631545,-0.000654838,-0.00743775,0.0,0.0,0.0,0.0
3380000,-0.00413172,0.00683749,0.00106365,0.0,0.0,0.0,0.0
3408000,0.00348021,0.00113326,0.00391025,0.0,0.0,0.0,0.0
3436000,0.000478412,-0.00139031,0.00466864,0.0,0.0,0.0,0.0
3464000,-0.00822225,0.00880253,0.00888639,0.0,0.0,0.0,0.0
3496000,0.00484836,-0.00175798,0.000979176,0.0,0.0,0.0,0.0
3524000,-0.000236701,0.00380499,0.000103601,0.0,0.0,0.0,0.0
3556000,0.00658194,-0.00162037,0.00372576,0.0,0.0,0.0,0.0
3588000,0.00140012,-0.00480242,0.000441426,0.0,0.0,0.0,0.0
3616000,0.00072802,0.00561717,-0.00220404,0.0,0.0,0.0,0.0
3644000,-0.00165801,0.00264094,0.00383932,0.0,0.0,0.0,0.0
3676000,0.000518072,0.00711598,0.00462508,0.0,0.0,0.0,0.0
3708000,-0.00467405,-0.00034068,-0.00226701,0.0,0.0,0.0,0.0
3736000,0.00109013,-0.00354117,0.0123631,0.0,0.0,0.0,0.0
3764000,-0.00733279,0.0102909,0.00457334,0.0,0.0,0.0,0.0
3796000,0.000953446,-0.00160627,-0.000575932,0.0,0.0,0.0,0.0
3824000,0.00536791,-0.00224232,-0.00402072,0.0,0.0,0.0,0.0
3852000,-0.00255094,-0.00218831,-0.00251057,0.0,0.0,0.0,0.0
3884000,-0.00474036,-0.00178896,0.0079992,0.0,0.0,0.0,0.0
3912000,-0.00221181,-0.00512779,-0.00220176,0.0,0.0,0.0,0.0
3944000,-0.00402354,0.00513965,0.00800177,0.0,0.0,0.0,0.0
3976000,-0.00235283,9.40554e-06,-0.00186209,0.0,0.0,0.0,0.0
4004000,-0.00154433,-0.00756688,0.00452094,0.0,0.0,0.0,0.0
4032000,-0.00604803,0.00118646,-0.00354168,0.0,0.0,0.0,0.0
4060000,-0.000121683,0.00481808,-0.00911059,0.0,0.0,0.0,0.0
4092000,0.00098623,-0.000347309,0.000708024,0.0,0.0,0.0,0.0
4124000,0.00591748,0.000730831,-0.0100133,0.0,0.0,0.0,0.0
4156000,0.00466761,-0.00162369,-0.00164444,0.0,0.0,0.0,0.0
4188000,-0.00343416,-0.0076694,0.00447938,0.0,0.0,0.0,0.0
4220000,-0.00524273,-0.0026034,-0.00593511,0.0,0.0,0.0,0.0
4248000,0.000907048,-0.000517453,0.00205908,0.0,0.0,0.0,0.0
4276000,0.00269768,0.00769858,-0.00730411,0.0,0.0,0.0,0.0
4308000,0.00548973,0.000191314,-0.00256636,0.0,0.0,0.0,0.0
4336000,0.000291711,-0.00340076,-0.00472741,0.0,0.0,0.0,0.0
4368000,-0.00512228,-0.0036997,-0.00954263,0.0,0.0,0.0,0.0
4396000,0.00124026,0.000111061,0.00939244,0.0,0.0,0.0,0.0
4424000,0.000386173,0.00812045,-0.00693453,0.0,0.0,0.0,0.0
4456000,0.00227215,0.00127452,0.00657417,0.0,0.0,0.0,0.0
4484000,-0.000606708,-0.0040517,-0.00326861,0.0,0.0,0.0,0.0
4512000,-0.00283571,0.00320237,-0.00717734,0.0,0.0,0.0,0.0
4544000,-0.00077467,-0.00307148,-0.000920597,0.0,0.0,0.0,0.0
4576000,0.00350952,-0.00356311,-0.000243188,0.0,0.0,0.0,0.0
4608000,-0.00396703,0.000789714,0.004472,0.0,0.0,0.0,0.0
4640000,0.00515418,0.00104531,0.00305376,0.0,0.0,0.0,0.0
4668000,-0.00346581,0.00793756,0.00665952,0.0,0.0,0.0,0.0
4696000,0.00225249,-0.00824315,-6.67087e-05,0.0,0.0,0.0,0.0
4724000,0.00222685,-0.00215653,0.00548519,0.0,0.0,0.0,0.0
4756000,0.00113253,-0.00454025,-0.00950886,0.0,0.0,0.0,0.0
4784000,0.00396794,0.00359449,-0.00191379,0.0,0.0,0.0,0.0
4812000,-0.00221565,0.00442978,0.00896612,0.0,0.0,0.0,0.0
4844000,-0.0016322,0.0117248,0.00988912,0.0,0.0,0.0,0.0
4876000,-0.0122206,-0.00116603,-0.00210475,0.0,0.0,0.0,0.0
4904000,0.00689412,0.00073299,0.00323132,0.0,0.0,0.0,0.0
4936000,0.00416443,0.00154831,-0.00411523,0.0,0.0,0.0,0.0
4964000,0.00292568,0.00246619,0.0100193,0.0,0.0,0.0,0.0
4996000,0.00339107,-0.00623358,0.0106822,0.0,0.0,0.0,0.0
5028000,0.00109316,-0.00125036,-0.0015367,0.0,0.0,0.0,0.0
5060000,0.00454928,0.00135287,0.00255968,0.0,0.0,0.0,0.0
5088000,-0.00487839,6.58388e-05,0.000634869,0.0,0.0,0.0,0.0
5120000,-0.00557663,-0.00804712,0.00182926,0.0,0.0,0.0,0.0
5152000,-0.00948211,-0.00361429,-0.00167406,0.0,0.0,0.0,0.0
5184000,0.00606751,-0.00476687,-0.00129075,0.0,0.0,0.0,0.0
5216000,0.00145519,0.0100434,0.00190852,0.0,0.0,0.0,0.0
5248000,-0.00167332,-0.00245462,-0.00327237,0.0,0.0,0.0,0.0
5276000,-0.00206542,0.00929645,-0.00322918,0.0,0.0,0.0,0.0
5308000,-0.00373843,0.0059091,0.000867084,0.0,0.0,0.0,0.0
5340000,-0.00746748,0.0032864,-0.00972215,0.0,0.0,0.0,0.0
5368000,0.0016776,0.00131043,0.00287659,0.0,0.0,0.0,0.0
5396000,-0.00463398,-0.00134441,-0.00171226,0.0,0.0,0.0,0.0
5428000,-0.00520524,0.00710976,0.0102087,0.0,0.0,0.0,0.0
5456000,-0.00439334,-0.00321899,0.00593241,0.0,0.0,0.0,0.0
5488000,-0.00156944,-0.00252171,0.00247602,0.0,0.0,0.0,0.0
5516000,-0.00508164,0.00790105,0.00194125,0.0,0.0,0.0,0.0
5548000,0.00707677,-0.00402858,-0.0034201,0.0,0.0,0.0,0.0
5580000,0.00222507,-0.00693247,-0.000827088,0.0,0.0,0.0,0.0
5612000,0.000437888,0.00115432,0.0027418,0.0,0.0,0.0,0.0
5644000,0.0067186,-0.00389452,0.00389283,0.0,0.0,0.0,0.0
5676000,-0.000744896,0.00368027,0.00164826,0.0,0.0,0.0,0.0
5708000,-0.0063289,-0.000105967,-0.00271941,0.0,0.0,0.0,0.0
5740000,-0.00219903,0.00381777,0.00634076,0.0,0.0,0.0,0.0
5772000,-0.00646519,0.00438313,-0.00325177,0.0,0.0,0.0,0.0
5804000,0.00140976,-0.000516307,0.000607518,0.0,0.0,0.0,0.0
5836000,0.00481108,0.00358798,-0.000917846,0.0,0.0,0.0,0.0
5868000,-0.00175596,0.00313161,-0.000348865,0.0,0.0,0.0,0.0
5896000,0.000336367,-0.00158201,-0.00714564,0.0,0.0,0.0,0.0
5924000,0.00840938,0.000717293,0.000609644,0.0,0.0,0.0,0.0
5952000,-0.00380277,0.00340579,-0.00121175,0.0,0.0,0.0,0.0
5984000,0.00217255,-0.000696159,-0.00577672,0.0,0.0,0.0,0.0
6016000,0.00141917,0.00243054,-0.00185375,0.0,0.0,0.0,0.0
6044000,0.00127168,0.00234254,0.0172829,0.0,0.0,0.0,0.0
6076000,-0.00479901,-0.00896634,-0.00787008,0.0,0.0,0.0,0.0
6108000,-0.00823797,0.00497287,0.00315416,0.0,0.0,0.0,0.0
6140000,-0.00579726,0.00104229,-0.00562048,0.0,0.0,0.0,0.0
6172000,0.00721265,-0.00116395,-0.00195833,0.0,0.0,0.0,0.0
6200000,-0.00385771,-0.00818276,-0.0105271,0.0,0.0,0.0,0.0
6232000,0.00236502,0.00718724,0.00120248,0.0,0.0,0.0,0.0
6264000,0.00459236,-0.00449981,-0.000638598,0.0,0.0,0.0,0.0
6292000,0.00510857,0.00193276,0.00806544,0.0,0.0,0.0,0.0
6320000,0.00397913,0.00212258,0.00975409,0.0,0.0,0.0,0.0
6348000,0.00820518,-0.00208871,-0.000300771,0.0,0.0,0.0,0.0
6380000,0.00613422,0.00204965,0.000892163,0.0,0.0,0.0,0.0
6408000,0.00362052,-0.012419,-0.00226492,0.0,0.0,0.0,0.0
6440000,0.00128094,0.00507765,-0.0025915,0.0,0.0,0.0,0.0
6472000,-0.00382053,-0.00243708,-0.00179662,0.0,0.0,0.0,0.0
6504000,-0.00101516,0.00536354,0.00430223,0.0,0.0,0.0,0.0
6532000,0.0018748,0.00707868,0.00731435,0.0,0.0,0.0,0.0
6564000,-0.00343959,-0.0111878,-0.00476109,0.0,0.0,0.0,0.0
6592000,0.00775031,0.00993168,-0.004364,0.0,0.0,0.0,0.0
6620000,0.00106155,-0.00471394,-0.00195716,0.0,0.0,0.0,0.0
6648000,-0.00468967,-0.00278776,0.00300687,0.0,0.0,0.0,0.0
6676000,-0.00389133,0.00550253,-0.0014779,0.0,0.0,0.0,0.0
6708000,-0.00278994,-0.0061075,-0.00105112,0.0,0.0,0.0,0.0
6736000,0.00260715,-0.00361686,0.00115069,0.0,0.0,0.0,0.0
6764000,-0.00829016,0.00965425,0.00517833,0.0,0.0,0.0,0.0
6792000,0.00237218,-0.00160592,0.00217641,0.0,0.0,0.0,0.0
6820000,0.00274301,0.00681104,0.00611709,0.0,0.0,0.0,0.0
6852000,0.000584096,-0.000560663,0.00680135,0.0,0.0,0.0,0.0
6880000,0.015026,-0.00867503,-0.00628894,0.0,0.0,0.0,0.0
6908000,-0.00160626,-0.000397267,0.0018094,0.0,0.0,0.0,0.0
6940000,-0.00163363,0.00384131,0.000995942,0.0,0.0,0.0,0.0
6972000,-0.00170181,0.000179183,-0.00617644,0.0,0.0,0.0,0.0
7004000,-0.00799515,-0.00485318,2.08727e-05,0.0,0.0,0.0,0.0
7036000,-0.00254793,-0.00845216,-0.000254556,0.0,0.0,0.0,0.0
7068000,-0.00784946,-8.9272e-05,0.00235116,0.0,0.0,0.0,0.0
7096000,0.00277661,-0.00168513,-0.00195627,0.0,0.0,0.0,0.0
7124000,-0.00650944,-0.00210035,-0.00827119,0.0,0.0,0.0,0.0
7152000,-0.00509343,-0.00659198,-0.000549783,0.0,0.0,0.0,0.0
7184000,-0.00375627,-0.00451877,0.00187222,0.0,0.0,0.0,0.0
7212000,-0.00272899,0.000785111,0.0126332,0.0,0.0,0.0,0.0
7240000,0.00119653,-0.00614937,-0.00827043,0.0,0.0,0.0,0.0
7268000,-0.0026856,0.00112887,0.00303404,0.0,0.0,0.0,0.0
7300000,0.00298997,-0.00510392,-0.00376372,0.0,0.0,0.0,0.0
7328000,-0.00104747,0.00831342,0.0102451,0.0,0.0,0.0,0.0
7360000,-0.000193656,-0.00497324,0.00165536,0.0,0.0,0.0,0.0
7388000,0.00189097,0.00743271,-0.00658462,0.0,0.0,0.0,0.0
7420000,-0.000684081,-0.00236076,-0.000538335,0.0,0.0,0.0,0.0
7452000,0.00493964,-0.00727905,-0.00156707,0.0,0.0,0.0,0.0
7484000,-0.005698,0.000446705,-0.00108892,0.0,0.0,0.0,0.0
7516000,0.00277312,-0.00353154,-0.00125466,0.0,0.0,0.0,0.0
7548000,0.00265223,-0.00235893,0.00220718,0.0,0.0,0.0,0.0
7580000,-0.00320162,0.00145814,0.00108545,0.0,0.0,0.0,0.0
7608000,-0.000562963,-0.0022209,-0.00321896,0.0,0.0,0.0,0.0
7640000,0.00681477,0.00431247,-0.00608679,0.0,0.0,0.0,0.0
7668000,0.00313475,0.00338996,0.00508793,0.0,0.0,0.0,0.0
7696000,-0.00126544,0.0082268,-0.000171152,0.0,0.0,0.0,0.0
7728000,-0.000978688,-0.00372024,-0.00381588,0.0,0.0,0.0,0.0
7760000,-0.000537916,0.00657625,0.0102046,0.0,0.0,0.0,0.0
7792000,0.0094004,0.00722884,-0.00540402,0.0,0.0,0.0,0.0
7824000,-0.00230409,0.00618217,-0.00075988,0.0,0.0,0.0,0.0
7856000,0.00256182,0.00934503,-0.00160775,0.0,0.0,0.0,0.0
7888000,0.000444646,0.00482637,0.00317371,0.0,0.0,0.0,0.0
7920000,-0.00156316,-0.00482891,0.00634405,0.0,0.0,0.0,0.0
7952000,0.00366797,-0.0032404,6.11789e-05,0.0,0.0,0.0,0.0
7984000,0.00329673,-0.00357492,0.00633023,0.0,0.0,0.0,0.0
8016000,0.00650921,0.00361656,-0.00246673,0.0,0.0,0.0,0.0
8044000,0.00268184,-0.00397071,0.00637773,0.0,0.0,0.0,0.0
8076000,0.00465275,-0.000544183,-0.0108334,0.0,0.0,0.0,0.0
8104000,-0.00787823,-0.00313741,-0.00635331,0.0,0.0,0.0,0.0
8136000,-0.00283692,0.000234913,-0.003137,0.0,0.0,0.0,0.0
8168000,-0.00721098,0.00701049,0.000678805,0.0,0.0,0.0,0.0
8200000,-0.00167187,0.00210776,0.0109064,0.0,0.0,0.0,0.0
8232000,0.00632507,0.00499522,-0.00396354,0.0,0.0,0.0,0.0
8264000,0.000999381,-0.0127139,0.00101188,0.0,0.0,0.0,0.0
8296000,0.00223613,0.00465253,-0.00519962,0.0,0.0,0.0,0.0
8328000,0.00461222,0.00834756,-0.00199902,0.0,0.0,0.0,0.0
8356000,-0.00526472,-0.00324229,-0.00323971,0.0,0.0,0.0,0.0
8384000,-0.00356865,0.00204706,-0.00936189,0.0,0.0,0.0,0.0
8412000,0.0024168,-0.00837748,-0.00364936,0.0,0.0,0.0,0.0
8444000,-0.00293641,0.00909683,0.00573215,0.0,0.0,0.0,0.0
8476000,0.00400375,0.000221575,-0.00586448,0.0,0.0,0.0,0.0
8508000,0.00255326,-0.00424767,0.00470625,0.0,0.0,0.0,0.0
8540000,-0.00587395,-0.00164489,-0.00661744,0.0,0.0,0.0,0.0
8572000,0.0037302,0.00794823,-0.00583867,0.0,0.0,0.0,0.0
8604000,-0.00354329,-0.000355863,-0.00535153,0.0,0.0,0.0,0.0
8636000,-0.00234676,-0.00748315,0.00247212,0.0,0.0,0.0,0.0
8664000,-0.00728925,0.00604919,0.00379633,0.0,0.0,0.0,0.0
8696000,0.00481198,0.00139744,-0.00925081,0.0,0.0,0.0,0.0
8724000,0.00178037,0.00689852,0.0074368,0.0,0.0,0.0,0.0
8752000,0.00169041,0.00915403,0.000317886,0.0,0.0,0.0,0.0
8784000,0.00352727,-0.00494879,0.00791035,0.0,0.0,0.0,0.0
8812000,-0.0083988,0.00302592,-0.000393387,0.0,0.0,0.0,0.0
8840000,0.00787249,-0.00455881,-0.00183295,0.0,0.0,0.0,0.0
8868000,0.00136694,-0.00634285,0.00557672,0.0,0.0,0.0,0.0
8900000,0.00534307,0.00401801,0.00213422,0.0,0.0,0.0,0.0
8932000,0.00206913,-0.00321491,-0.00359789,0.0,0.0,0.0,0.0
8964000,-0.00298104,-0.00275291,-0.000229707,0.0,0.0,0.0,0.0
8996000,-0.00250249,0.00309991,0.00247303,0.0,0.0,0.0,0.0
9024000,0.00612835,0.000790968,-0.00724807,0.0,0.0,0.0,0.0
9056000,-0.00324832,-0.00890132,0.00343922,0.0,0.0,0.0,0.0
9084000,-0.00270846,-0.00388363,-0.00630132,0.0,0.0,0.0,0.0
9116000,-0.00223008,0.00106118,0.00276348,0.0,0.0,0.0,0.0
9144000,0.000583154,0.00125614,-0.00163431,0.0,0.0,0.0,0.0
9176000,-0.0088634,-0.000303057,0.00194142,0.0,0.0,0.0,0.0
9204000,-0.00116562,-0.00789735,-0.00541134,0.0,0.0,0.0,0.0
9236000,-0.00367394,-0.00324054,-0.00641049,0.0,0.0,0.0,0.0
9268000,-0.000174751,0.000406905,0.0035656,0.0,0.0,0.0,0.0
9296000,0.000623696,-0.000996731,0.001473,0.0,0.0,0.0,0.0
9328000,-0.00233006,-0.00573142,0.00210572,0.0,0.0,0.0,0.0
9360000,0.00632083,-0.00557572,-0.00427207,0.0,0.0,0.0,0.0
9388000,-0.00353066,0.00457979,0.00157665,0.0,0.0,0.0,0.0
9420000,-0.00157718,-0.00334225,0.00333818,0.0,0.0,0.0,0.0
9452000,0.00352727,0.00362362,0.00402353,0.0,0.0,0.0,0.0
9484000,-0.00545795,-0.00346387,0.00425832,0.0,0.0,0.0,0.0
9516000,0.00357859,-0.00395646,-0.00529662,0.0,0.0,0.0,0.0
9548000,0.00422285,-0.00230454,-0.0130575,0.0,0.0,0.0,0.0
9580000,-0.00667801,0.000455189,0.00238576,0.0,0.0,0.0,0.0
9612000,-0.00679317,-0.00231592,0.0108935,0.0,0.0,0.0,0.0
9644000,0.000859181,-0.00103884,0.00412654,0.0,0.0,0.0,0.0
9676000,0.00552159,-0.000530921,-0.00171623,0.0,0.0,0.0,0.0
9708000,0.00155625,-0.00247949,0.00399219,0.0,0.0,0.0,0.0
9736000,0.00732423,3.95211e-05,0.000106261,0.0,0.0,0.0,0.0
9768000,-0.00294173,-0.011071,0.00294928,0.0,0.0,0.0,0.0
9800000,-0.00577562,0.00368024,0.00122648,0.0,0.0,0.0,0.0
9832000,0.00231772,-0.00728437,-0.00165793,0.0,0.0,0.0,0.0
9864000,-0.00249037,-0.00163328,0.00580733,0.0,0.0,0.0,0.0
9892000,-0.00131384,-0.00600216,0.00171878,0.0,0.0,0.0,0.0
9920000,-0.00887297,-0.0100378,0.00297843,0.0,0.0,0.0,0.0
9948000,-0.00282779,0.000914405,-0.00416656,0.0,0.0,0.0,0.0
9980000,-0.00379505,-0.00368041,0.00513317,0.0,0.0,0.0,0.0
10012000,0.00437433,0.0015247,1.83967e-06,0.0,0.0,0.0,0.0
10044000,0.00137375,-0.00245124,-0.00181271,0.0,0.0,0.0,0.0
10072000,-0.00985418,0.0108278,-0.0039264,0.0,0.0,0.0,0.0
10104000,0.000759808,0.00795832,0.00298085,0.0,0.0,0.0,0.0
10136000,0.00655359,-0.00271576,-0.0044832,0.0,0.0,0.0,0.0
10164000,-0.000166181,-0.000653161,-0.00210808,0.0,0.0,0.0,0.0
10196000,-0.00332694,-0.00110755,-0.00391594,0.0,0.0,0.0,0.0
10224000,0.00333338,0.00155799,-0.00128542,0.0,0.0,0.0,0.0
10256000,0.000189893,0.0044637,-0.00321802,0.0,0.0,0.0,0.0
10288000,0.00489374,-0.0110074,0.00801558,0.0,0.0,0.0,0.0
10320000,0.00295603,0.0005108,0.00443727,0.0,0.0,0.0,0.0
10348000,0.00717054,0.00271932,0.00805961,0.0,0.0,0.0,0.0
10376000,0.00647303,0.00383874,-0.00418651,0.0,0.0,0.0,0.0
10408000,-0.008011,0.00458553,-0.000113619,0.0,0.0,0.0,0.0
10436000,-0.00135685,-0.00538224,0.000810166,0.0,0.0,0.0,0.0
10468000,-0.000755827,0.00630982,0.00180235,0.0,0.0,0.0,0.0
10500000,0.00220864,0.00367951,-0.00384512,0.0,0.0,0.0,0.0
10532000,-0.00178747,0.00634168,0.00193214,0.0,0.0,0.0,0.0
10560000,0.00335564,-0.000764348,-0.0048833,0.0,0.0,0.0,0.0
10588000,-0.00995443,0.00424431,-0.00645775,0.0,0.0,0.0,0.0
10616000,-0.00683321,-0.00945614,-0.00172592,0.0,0.0,0.0,0.0
10644000,0.00380407,0.00164553,0.0024183,0.0,0.0,0.0,0.0
10672000,0.00370236,0.0030899,0.00521539,0.0,0.0,0.0,0.0
10700000,-0.00152173,0.00134395,-0.00110746,0.0,0.0,0.0,0.0
10732000,-0.00422675,-0.00247604,0.00151564,0.0,0.0,0.0,0.0
10764000,0.00855581,0.00495125,-0.00217348,0.0,0.0,0.0,0.0
10796000,0.00112369,0.000854079,-0.00169706,0.0,0.0,0.0,0.0
10828000,-0.00105866,-0.00355209,0.00208762,0.0,0.0,0.0,0.0
10860000,0.00323236,0.00172155,-0.000667556,0.0,0.0,0.0,0.0
10892000,0.00179733,-0.00242597,-0.00997528,0.0,0.0,0.0,0.0
10920000,-0.00503841,-0.00174508,0.00644772,0.0,0.0,0.0,0.0
10948000,0.000104069,0.0089417,0.00394583,0.0,0.0,0.0,0.0
10980000,-0.00288914,0.00308561,0.00223808,0.0,0.0,0.0,0.0
11008000,0.00302684,-0.00329314,-0.00261307,0.0,0.0,0.0,0.0
11036000,0.00136562,-0.00043962,0.000494648,0.0,0.0,0.0,0.0
11068000,0.00387152,-0.000505522,0.00111762,0.0,0.0,0.0,0.0
11100000,-0.00372412,0.00607164,-0.00470163,0.0,0.0,0.0,0.0
11128000,0.00155231,0.00484995,-0.00540666,0.0,0.0,0.0,0.0
11156000,0.00480142,-0.00342514,0.00528634,0.0,0.0,0.0,0.0
11188000,0.00542528,-0.00923576,0.00204271,0.0,0.0,0.0,0.0
11220000,-0.00284327,-0.00451338,0.00058329,0.0,0.0,0.0,0.0
11248000,-0.000445691,0.00413932,-0.00515152,0.0,0.0,0.0,0.0
11280000,0.00173556,-0.00419142,-0.000975848,0.0,0.0,0.0,0.0
11312000,-0.00277202,-0.00782186,-0.000939773,0.0,0.0,0.0,0.0
11344000,0.00330659,-0.00177719,-0.00399705,0.0,0.0,0.0,0.0
11376000,0.00539426,-0.00220767,-0.00186296,0.0,0.0,0.0,0.0
11408000,-0.00407877,0.0027391,-0.00210636,0.0,0.0,0.0,0.0
11436000,0.00122606,-0.0133482,0.00302716,0.0,0.0,0.0,0.0
11468000,0.00159829,0.00732021,-0.00140821,0.0,0.0,0.0,0.0
11500000,-0.00409814,0.00320452,-0.00926128,0.0,0.0,0.0,0.0
11532000,-0.00309161,-8.69188e-05,0.00449427,0.0,0.0,0.0,0.0
11564000,0.00408802,-0.00278097,0.00161202,0.0,0.0,0.0,0.0
11596000,-0.00604009,-0.0102225,0.00130525,0.0,0.0,0.0,0.0
11624000,0.00258685,0.0058487,0.00124754,0.0,0.0,0.0,0.0
11656000,0.00158794,0.00490676,-0.000167849,0.0,0.0,0.0,0.0
11688000,0.00252619,-0.0032645,0.0027718,0.0,0.0,0.0,0.0
11720000,0.0115174,-0.00618251,-0.00365265,0.0,0.0,0.0,0.0
11752000,-0.00107702,-0.00183476,-0.00495609,0.0,0.0,0.0,0.0
11784000,-0.000919844,-0.000780196,0.00147702,0.0,0.0,0.0,0.0
11816000,0.00350374,0.00136189,0.00407442,0.0,0.0,0.0,0.0
11848000,0.00578133,0.00803908,-0.00484844,0.0,0.0,0.0,0.0
11880000,-3.61602e-05,0.000351562,-5.49629e-05,0.0,0.0,0.0,0.0
11912000,0.00142799,0.0034795,-0.00611843,0.0,0.0,0.0,0.0
11944000,-0.0012398,0.003743,0.00716968,0.0,0.0,0.0,0.0
11976000,-0.000408296,-0.00976881,-0.001164,0.0,0.0,0.0,0.0
12004000,-0.00174013,-0.00559113,-0.00542519,0.0,0.0,0.0,0.0
12036000,0.00544834,3.28606e-05,0.00695513,0.0,0.0,0.0,0.0
12068000,0.000636663,-0.00653736,0.00298294,0.0,0.0,0.0,0.0
12100000,-0.0034725,-0.000342527,0.0191767,0.0,0.0,0.0,0.0
12132000,0.00280438,0.00539015,0.00134511,0.0,0.0,0.0,0.0
12160000,0.00561502,-0.00586358,-0.00183573,0.0,0.0,0.0,0.0
12192000,0.00634164,-0.00638906,-0.00296997,0.0,0.0,0.0,0.0
12224000,-0.00248058,-0.00312133,-0.00590113,0.0,0.0,0.0,0.0
12256000,0.00424003,0.00360357,-0.0048733,0.0,0.0,0.0,0.0
12284000,-0.000321686,0.000812232,-0.0147156,0.0,0.0,0.0,0.0
12316000,0.00371726,0.00600784,-0.00652686,0.0,0.0,0.0,0.0
12344000,0.00377598,0.00135042,-0.00749077,0.0,0.0,0.0,0.0
12376000,-0.00313026,-0.00320517,-0.00483324,0.0,0.0,0.0,0.0
12408000,-0.00271363,0.00276183,0.0036755,0.0,0.0,0.0,0.0
12440000,-0.005746,0.00443152,-0.000537098,0.0,0.0,0.0,0.0
12472000,-0.000969914,0.000388674,0.00491136,0.0,0.0,0.0,0.0
12500000,0.000678061,-0.00342353,0.0003006,0.0,0.0,0.0,0.0
12528000,-0.0061125,0.00112208,-0.00505082,0.0,0.0,0.0,0.0
12560000,-0.00285279,-0.00125655,-0.00153807,0.0,0.0,0.0,0.0
12592000,0.000711937,0.000929023,0.00711575,0.0,0.0,0.0,0.0
12624000,0.000415835,0.00386807,0.00503212,0.0,0.0,0.0,0.0
12656000,0.002244,-0.00117196,0.00152518,0.0,0.0,0.0,0.0
12688000,-0.00670233,0.00179895,0.00261485,0.0,0.0,0.0,0.0
12716000,-0.000618428,-0.0053759,-0.00806491,0.0,0.0,0.0,0.0
12748000,0.00530839,-0.00161238,-0.00623234,0.0,0.0,0.0,0.0
12780000,0.00162066,-0.00236834,0.007801,0.0,0.0,0.0,0.0
12808000,-0.00204803,0.000589942,-0.00206327,0.0,0.0,0.0,0.0
12840000,0.00170942,-0.00674463,0.00819147,0.0,0.0,0.0,0.0
12868000,-0.00741678,0.00464998,-0.00937149,0.0,0.0,0.0,0.0
12900000,-0.000113542,-0.00785397,-0.00205447,0.0,0.0,0.0,0.0
12932000,-0.000771784,0.00372943,-0.00185922,0.0,0.0,0.0,0.0
12964000,0.00344101,-0.00614583,0.00745206,0.0,0.0,0.0,0.0
12996000,-0.00233619,-0.00607322,-0.000401682,0.0,0.0,0.0,0.0
13028000,-0.00500425,0.00177729,-3.64077e-05,0.0,0.0,0.0,0.0
13060000,0.00237355,-0.00327014,0.00172253,0.0,0.0,0.0,0.0
13092000,0.0012096,-0.00477908,0.00748653,0.0,0.0,0.0,0.0
13124000,-0.00304567,0.00564784,0.00178984,0.0,0.0,0.0,0.0
13156000,-0.00169238,0.00481879,-0.00428161,0.0,0.0,0.0,0.0
13184000,-0.00447063,-0.00247728,-0.00105864,0.0,0.0,0.0,0.0
13212000,-0.00323607,0.00423201,0.00318099,0.0,0.0,0.0,0.0
13244000,0.00384072,-0.00651352,0.000698545,0.0,0.0,0.0,0.0
13276000,0.00209525,-0.00167716,-0.00417806,0.0,0.0,0.0,0.0
13304000,0.00800177,-0.00015085,-0.00345862,0.0,0.0,0.0,0.0
13332000,-0.00519044,-0.00427318,0.00471997,0.0,0.0,0.0,0.0
13360000,-0.000572331,0.00291449,-0.00879352,0.0,0.0,0.0,0.0
13392000,-0.0100635,-0.00643981,-0.00270243,0.0,0.0,0.0,0.0
13424000,0.00626988,0.00367233,0.00282736,0.0,0.0,0.0,0.0
13456000,-0.00199526,-0.0105815,0.00262985,0.0,0.0,0.0,0.0
13484000,-0.00462106,-0.0037398,0.00395672,0.0,0.0,0.0,0.0
13516000,0.00465067,-1.78887e-05,-0.0042208,0.0,0.0,0.0,0.0
13548000,0.00457105,-0.00319011,-0.00420119,0.0,0.0,0.0,0.0
13580000,-0.00264427,0.00210406,0.00208617,0.0,0.0,0.0,0.0
13612000,0.00316041,0.00153166,0.00225778,0.0,0.0,0.0,0.0
13644000,-0.00167235,-0.00924853,0.00423521,0.0,0.0,0.0,0.0
13676000,-0.000678703,-0.00124038,-0.00366024,0.0,0.0,0.0,0.0
13704000,-0.00106397,0.00588528,0.00367661,0.0,0.0,0.0,0.0
13736000,0.00473723,-0.00619529,-0.00476438,0.0,0.0,0.0,0.0
13768000,0.00391378,0.00367965,-0.00246919,0.0,0.0,0.0,0.0
13796000,-0.00442087,-0.000312816,-0.00493278,0.0,0.0,0.0,0.0
13828000,0.000491435,0.00106059,-0.00117045,0.0,0.0,0.0,0.0
13860000,-0.00645585,0.00873745,-0.0024617,0.0,0.0,0.0,0.0
13892000,0.00880411,0.00569,0.00702883,0.0,0.0,0.0,0.0
13920000,0.00448794,-0.00356232,0.00106747,0.0,0.0,0.0,0.0
13952000,-0.000364585,0.00209687,-0.000810562,0.0,0.0,0.0,0.0
13980000,0.00374635,-0.00713741,-0.00910924,0.0,0.0,0.0,0.0
14012000,-0.00167485,0.00356558,-0.00590614,0.0,0.0,0.0,0.0
14040000,0.00792754,-0.00883683,0.00106185,0.0,0.0,0.0,0.0
14072000,0.0062026,-0.00860475,0.00475469,0.0,0.0,0.0,0.0
14104000,0.00838322,0.00326735,-0.009703,0.0,0.0,0.0,0.0
14132000,0.00567852,-0.0052472,-0.000140318,0.0,0.0,0.0,0.0
14164000,-0.0103436,0.00112076,0.00507479,0.0,0.0,0.0,0.0
14196000,-0.00284366,-0.000241099,0.00236562,0.0,0.0,0.0,0.0
14228000,0.00467014,-0.00190792,0.00904368,0.0,0.0,0.0,0.0
14260000,0.000689586,-0.00227729,-0.00223191,0.0,0.0,0.0,0.0
14292000,-0.00371825,0.000584544,0.00375714,0.0,0.0,0.0,0.0
14320000,-0.0112119,0.00695277,-0.00619526,0.0,0.0,0.0,0.0
14348000,-0.00270331,-0.0061549,-0.00318293,0.0,0.0,0.0,0.0
14376000,-0.00499032,0.0019251,-0.000674599,0.0,0.0,0.0,0.0
14408000,-0.000890011,0.00231143,0.00731907,0.0,0.0,0.0,0.0
14440000,-0.0021654,0.00310685,-0.00265917,0.0,0.0,0.0,0.0
14472000,0.0018598,0.00518921,-0.00142557,0.0,0.0,0.0,0.0
14500000,-0.000167958,0.000643352,0.004721,0.0,0.0,0.0,0.0
14532000,0.00068307,-0.00473015,-0.0026444,0.0,0.0,0.0,0.0
14564000,-0.00145504,-0.0098719,-0.000656811,0.0,0.0,0.0,0.0
14592000,0.00646996,0.00838071,-0.00272383,0.0,0.0,0.0,0.0
14624000,-0.00320362,0.0108179,-0.000205024,0.0,0.0,0.0,0.0
14652000,-0.00120695,0.00582591,-0.00141565,0.0,0.0,0.0,0.0
14684000,-0.000345361,-0.000456356,0.000622181,0.0,0.0,0.0,0.0
14716000,0.00878131,-0.00580929,0.00284701,0.0,0.0,0.0,0.0
14748000,0.00262673,0.00500522,0.00784696,0.0,0.0,0.0,0.0
14776000,0.00493502,0.00146501,-0.00523683,0.0,0.0,0.0,0.0
14808000,0.00519285,0.00206365,-0.000839567,0.0,0.0,0.0,0.0
14840000,0.00333927,-0.00948916,0.0072333,0.0,0.0,0.0,0.0
14868000,-0.00651252,-0.00584173,0.00293351,0.0,0.0,0.0,0.0
14896000,0.00103807,0.00121079,-0.00394517,0.0,0.0,0.0,0.0
14928000,-0.0003895,0.00348256,0.00452894,0.0,0.0,0.0,0.0
14956000,0.00559452,0.00241824,0.00727657,0.0,0.0,0.0,0.0
14988000,-0.00692879,0.00182368,0.00184259,0.0,0.0,0.0,0.0
15020000,-0.00179983,-0.00125592,0.00142672,0.0,0.0,0.0,0.0
15052000,-0.00492986,0.00450069,0.00387841,0.0,0.0,0.0,0.0
15080000,-0.00491249,-0.00408431,0.00766577,0.0,0.0,0.0,0.0
15112000,0.00297125,0.00445715,0.00177785,0.0,0.0,0.0,0.0
15140000,-0.00179032,0.00661131,-0.0014996,0.0,0.0,0.0,0.0
15172000,-0.000467238,0.00113622,-0.00420539,0.0,0.0,0.0,0.0
15204000,-0.00152278,-0.00904261,-0.006746,0.0,0.0,0.0,0.0
15236000,0.00136004,0.00548923,0.00318802,0.0,0.0,0.0,0.0
15268000,0.00112397,0.0135252,0.000693059,0.0,0.0,0.0,0.0
15300000,-0.000255535,-0.00431818,0.0035366,0.0,0.0,0.0,0.0
15332000,0.00431278,-0.00112287,0.00205155,0.0,0.0,0.0,0.0
15360000,0.00946467,0.00119357,-0.000272586,0.0,0.0,0.0,0.0
15388000,0.00122793,0.0124188,0.00117835,0.0,0.0,0.0,0.0
15416000,0.00326858,0.00248957,0.00190521,0.0,0.0,0.0,0.0
15444000,-0.00915689,-0.00568793,0.00372726,0.0,0.0,0.0,0.0
15472000,0.00457452,-0.00107182,-0.00266167,0.0,0.0,0.0,0.0
15500000,0.00656367,0.00136643,0.000795488,0.0,0.0,0.0,0.0
15532000,0.0086503,-0.00255771,-0.00200053,0.0,0.0,0.0,0.0
15560000,0.000507338,-0.00774427,0.00495949,0.0,0.0,0.0,0.0
15592000,0.00538628,-0.00836052,0.00407779,0.0,0.0,0.0,0.0
15624000,-0.00171482,0.00601022,-0.00115004,0.0,0.0,0.0,0.0
15652000,0.00264027,0.00407674,-0.000295159,0.0,0.0,0.0,0.0
15680000,0.00107916,0.0101158,0.00464628,0.0,0.0,0.0,0.0
15712000,0.00650288,-0.00373439,-0.00594918,0.0,0.0,0.0,0.0
15744000,-0.00229947,-0.000525109,0.00103696,0.0,0.0,0.0,0.0
15776000,0.00394304,0.000591688,0.00194121,0.0,0.0,0.0,0.0
15804000,-0.00108426,0.000314001,0.00525281,0.0,0.0,0.0,0.0
15832000,0.00470249,-0.000959733,-0.000234112,0.0,0.0,0.0,0.0
15864000,0.00535448,0.00424079,0.00237647,0.0,0.0,0.0,0.0
15896000,0.00891387,0.00437892,-0.00764525,0.0,0.0,0.0,0.0
15928000,-0.00758303,0.00301324,0.00215402,0.0,0.0,0.0,0.0
15956000,0.00283233,-0.0121805,-0.000766699,0.0,0.0,0.0,0.0
15988000,0.00700405,0.00119523,-0.00114563,0.0,0.0,0.0,0.0
16020000,0.00499713,0.0029965,-0.00292816,0.0,0.0,0.0,0.0
16052000,0.000701843,0.00331277,-0.00532261,0.0,0.0,0.0,0.0
16084000,-0.00255765,0.00563127,0.00475634,0.0,0.0,0.0,0.0
16112000,0.00157673,-0.000874366,-0.00193654,0.0,0.0,0.0,0.0
16140000,0.00151114,0.00853638,0.0109499,0.0,0.0,0.0,0.0
16168000,-0.00356079,-0.00205148,0.00720457,0.0,0.0,0.0,0.0
16196000,0.00541122,-0.00448027,-0.00170693,0.0,0.0,0.0,0.0
16228000,-0.00359043,0.00155593,0.00273509,0.0,0.0,0.0,0.0
16256000,0.00341047,0.0078129,0.00384236,0.0,0.0,0.0,0.0
16284000,-0.0027814,0.00513946,-0.00194945,0.0,0.0,0.0,0.0
16316000,0.00484386,0.000583162,-0.0137274,0.0,0.0,0.0,0.0
16348000,-0.00414493,-0.00026869,-0.008162,0.0,0.0,0.0,0.0
16380000,-0.0105429,-0.00634098,-0.00317985,0.0,0.0,0.0,0.0
16412000,0.00466136,-0.0118876,-0.00331939,0.0,0.0,0.0,0.0
16440000,0.00313853,-0.00369644,0.00446411,0.0,0.0,0.0,0.0
16468000,6.02296e-05,-0.00508192,-0.00344602,0.0,0.0,0.0,0.0
16500000,0.00560094,-0.0047933,0.0016319,0.0,0.0,0.0,0.0
16528000,-0.00316359,0.00250725,-0.0114998,0.0,0.0,0.0,0.0
16560000,0.00527089,-0.00397467,-0.00283978,0.0,0.0,0.0,0.0
16592000,-0.00115214,-0.00461526,-0.00452237,0.0,0.0,0.0,0.0
16624000,-0.00231227,-0.00688798,0.00795437,0.0,0.0,0.0,0.0
16656000,0.00524864,0.00704174,-0.00207873,0.0,0.0,0.0,0.0
16688000,0.00389857,0.001681,0.00315465,0.0,0.0,0.0,0.0
16720000,0.00446761,-0.00291502,-0.00423237,0.0,0.0,0.0,0.0
16752000,0.0048676,-0.00155011,0.000504904,0.0,0.0,0.0,0.0
16784000,-0.00152089,0.000390946,0.00665273,0.0,0.0,0.0,0.0
16816000,0.0134505,-0.00570055,0.00330541,0.0,0.0,0.0,0.0
16848000,0.00119685,-0.00606114,-0.00391233,0.0,0.0,0.0,0.0
16880000,0.00281122,-0.00147911,0.00490593,0.0,0.0,0.0,0.0
16912000,0.00152846,0.00099579,-0.00142903,0.0,0.0,0.0,0.0
16940000,0.00256831,-0.00825463,0.00431137,0.0,0.0,0.0,0.0
16972000,-0.0115332,0.000135588,-0.00520744,0.0,0.0,0.0,0.0
17004000,-0.00472966,-0.00416188,-0.00454779,0.0,0.0,0.0,0.0
17032000,0.00702154,-0.000818795,0.00626948,0.0,0.0,0.0,0.0
17060000,-0.000385138,0.00694387,0.00293143,0.0,0.0,0.0,0.0
17092000,0.00290934,-0.00265144,-0.000620224,0.0,0.0,0.0,0.0
17124000,-0.0104403,0.000325971,0.00234715,0.0,0.0,0.0,0.0
17156000,-0.00134999,-0.001979,0.00455619,0.0,0.0,0.0,0.0
17188000,-0.000535361,0.00491819,0.00454513,0.0,0.0,0.0,0.0
17220000,0.0033457,0.00124168,-0.00152816,0.0,0.0,0.0,0.0
17252000,0.00111302,0.00626959,0.00546731,0.0,0.0,0.0,0.0
17284000,0.00119555,0.000353762,0.0012681,0.0,0.0,0.0,0.0
17312000,0.000635917,-0.000745207,-0.000982653,0.0,0.0,0.0,0.0
17344000,-0.00748576,-0.00149737,-0.00746663,0.0,0.0,0.0,0.0
17376000,-0.00320592,0.00607072,-0.00175795,0.0,0.0,0.0,0.0
17404000,0.00947728,-0.00263527,0.00285252,0.0,0.0,0.0,0.0
17436000,0.00528573,0.00280842,0.00036673,0.0,0.0,0.0,0.0
17468000,0.00768423,0.00117121,0.00247239,0.0,0.0,0.0,0.0
17500000,-0.00240158,-0.000130289,-0.00114982,0.0,0.0,0.0,0.0
17528000,-0.00568614,0.00435849,-0.0016579,0.0,0.0,0.0,0.0
17556000,-0.00907026,-0.00563805,-0.00244662,0.0,0.0,0.0,0.0
17588000,0.00175356,0.00172925,-0.00168769,0.0,0.0,0.0,0.0
17616000,-0.00715696,0.00174394,-0.00244187,0.0,0.0,0.0,0.0
17644000,-0.00764453,-0.00062446,-0.0020831,0.0,0.0,0.0,0.0
17676000,0.00228016,0.00711646,-0.00145286,0.0,0.0,0.0,0.0
17704000,0.00200289,0.0107789,0.00033757,0.0,0.0,0.0,0.0
17732000,0.00255898,0.00362405,0.00279196,0.0,0.0,0.0,0.0
17764000,0.00165272,-0.00449527,9.258e-05,0.0,0.0,0.0,0.0
17796000,-0.00693799,0.00237677,-0.00339214,0.0,0.0,0.0,0.0
17828000,-0.00257731,-0.00047961,-0.00167291,0.0,0.0,0.0,0.0
17860000,-0.00441931,-0.000487356,-0.000942403,0.0,0.0,0.0,0.0
17892000,0.00607593,-0.00366817,-0.00139715,0.0,0.0,0.0,0.0
17920000,0.0103011,0.00488386,0.00861634,0.0,0.0,0.0,0.0
17948000,-0.00667555,0.00992659,0.0042956,0.0,0.0,0.0,0.0
17980000,-0.00528202,0.00110157,-0.00285917,0.0,0.0,0.0,0.0
18012000,0.00213159,0.000742934,0.00318004,0.0,0.0,0.0,0.0
18044000,0.00146434,0.00197542,-0.000636045,0.0,0.0,0.0,0.0
18072000,0.0108666,-0.00832661,-0.000993928,0.0,0.0,0.0,0.0
18104000,-0.00303833,0.000379707,0.00738807,0.0,0.0,0.0,0.0
18136000,-0.000413802,0.0035778,-0.00459251,0.0,0.0,0.0,0.0
18164000,0.000348076,-0.00322401,0.00244923,0.0,0.0,0.0,0.0
18192000,0.00857534,-0.00813681,0.00063065,-0.000164938,4.85428e-05,-2.16405e-06,0.0
18220000,0.000495465,0.00709879,0.0057657,-0.000423617,0.000135817,9.64465e-06,0.0
18252000,0.00560831,0.00415208,-0.00590021,-0.00069436,0.000243823,8.41285e-06,0.0
18284000,-0.00382682,-0.00432278,0.00498144,-0.000929208,0.000330705,-2.38049e-06,0.0
18316000,0.00453698,-0.00289036,-0.00237124,-0.00115202,0.000420001,-9.39954e-07,0.0
18348000,-0.00272622,0.00636031,0.00423861,-0.00134682,0.000488908,-2.98615e-06,0.0
18380000,-0.00156656,0.00263666,0.00399374,-0.00153754,0.000558833,-6.99795e-06,0.0
18412000,0.00558839,0.00335164,0.0060363,-0.00171966,0.000621041,-2.18229e-05,0.0
18440000,0.000382311,0.00399464,0.00874978,-0.0018727,0.000668902,-2.56313e-05,0.0
18472000,0.00633261,-0.00386543,0.00204916,-0.00204894,0.000714327,-3.41438e-05,0.0
18500000,-0.00851026,-0.00568548,0.0002976,-0.00217892,0.000750128,-3.48224e-05,0.0
18532000,0.00760646,0.0012291,-0.00542239,-0.00232506,0.000785561,-3.06477e-05,0.0
18560000,-0.00317561,-0.000849224,0.00461004,-0.00243429,0.000805681,-3.16901e-05,0.0
18588000,-0.00211968,-0.00249488,0.000989563,-0.00253631,0.000831257,-3.54419e-05,0.0
18620000,-0.00502156,-0.00466274,-0.00297933,-0.00265311,0.000871384,-3.9183e-05,0.0
18652000,-0.0826835,0.0311505,0.00363579,-0.00267558,0.000864747,-3.50407e-05,0.0
18680000,-0.0678762,0.0105194,0.00351198,-0.00265062,0.000859783,-4.34479e-05,0.0
18712000,-0.0582903,0.00758023,0.0103442,-0.00260526,0.000844244,-6.37443e-05,0.0
18740000,-0.0482538,0.0155069,0.0051735,-0.00254866,0.000822225,-7.02837e-05,0.0
18772000,-0.0278393,-0.0064542,-0.00326165,-0.00249697,0.000813184,-7.11421e-05,0.0
18800000,-0.0203153,0.00197746,-2.11466e-05,-0.00244369,0.000801569,-6.45822e-05,0.0
18828000,0.00895837,-0.00965018,-0.00134734,-0.00240126,0.000790864,-7.81458e-05,0.0
18856000,0.00575767,-0.0033881,0.00260447,-0.00236244,0.000785494,-7.37083e-05,0.0
18888000,0.0193723,-0.00715833,-0.00135991,-0.00232209,0.000773651,-7.53591e-05,0.0
18916000,0.035112,-0.0150173,0.00439078,-0.00229017,0.000776638,-7.57135e-05,0.0
18948000,0.0205334,-0.00603632,0.00546646,-0.00226826,0.000765305,-0.000104636,0.0
18980000,0.0287152,-0.00350233,-0.00583496,-0.00225348,0.000763483,-0.000111129,0.0
19012000,0.0392503,-0.00382804,0.00112048,-0.00222767,0.000744132,-0.000125232,0.0
19044000,0.0256394,-0.00657953,-0.00280958,-0.00221388,0.000744352,-0.00012409,0.0
19076000,0.0362645,-0.0113806,-0.00262829,-0.00218806,0.000731223,-0.000127291,0.0
19108000,0.0241979,-0.00513068,-0.00582857,-0.00217915,0.000730087,-0.000119552,0.0
19136000,0.0230649,-0.0171176,0.00215268,-0.0021875,0.000715377,-9.91018e-05,0.0
19164000,0.0186153,-0.00190335,-0.00508783,-0.00217657,0.000731494,-9.91066e-05,0.0
19196000,0.0266803,-0.0197584,-0.0087554,-0.00216531,0.000718712,-8.12756e-05,0.0
19228000,0.0182826,0.0110122,-0.000335536,-0.00215244,0.000716111,-7.84237e-05,0.0
19256000,0.0123389,-0.0108525,0.00336671,-0.00213505,0.000712085,-7.41834e-05,0.0
19288000,-0.00198073,0.00224729,-0.0108746,-0.00213933,0.0007112,-8.13723e-05,0.0
19320000,0.0340842,-0.0028221,-0.00141169,-0.00211581,0.000698364,-5.24264e-05,0.0
19348000,-0.0035745,-0.00861424,-0.00165147,-0.00210629,0.000697424,-5.39323e-05,0.0
19376000,0.00856299,0.00637489,0.000808272,-0.00210277,0.00069327,-4.83905e-05,0.0
19408000,-0.0050816,-0.010734,-0.00655257,-0.0020976,0.000691094,-2.57475e-05,0.0
19436000,0.0125082,0.0113308,-0.0023854,-0.00207748,0.000685113,-1.78353e-05,0.0
19468000,-0.00158923,-0.00911897,-0.00561689,-0.00206491,0.000688393,-5.50797e-06,0.0
19496000,0.0015644,0.00474648,0.00765231,-0.00205633,0.000675879,3.04733e-06,0.0
19528000,-0.0107492,0.00207085,-0.00653437,-0.00204069,0.000680743,-1.88223e-06,0.0
19556000,0.0026335,0.00581782,-9.08519e-05,-0.00202737,0.000672822,1.06213e-05,0.0
19584000,0.0040547,-0.00770589,0.00835759,-0.00201636,0.000674882,5.38181e-06,0.0
19612000,0.00603322,0.0223559,-0.000676399,-0.00199865,0.000669229,-2.58459e-06,0.0
19640000,0.000897003,-0.000500834,0.000339392,-0.00198711,0.000671466,-1.39034e-05,0.0
19672000,0.00574776,0.0171898,-0.0026626,-0.00196985,0.000662186,-1.73955e-05,0.0
19704000,-0.00415822,0.00259366,0.00695051,-0.0019469,0.00065815,-2.2233e-05,0.0
19736000,0.00694644,0.00862276,0.00599321,-0.00193899,0.000652264,-2.8348e-05,0.0
19768000,0.00301788,0.0189574,0.00723988,-0.00192325,0.000634148,-2.49314e-05,0.0
19796000,-0.0139383,-0.0169838,-0.00103276,-0.0019057,0.000638684,-4.34376e-05,0.0
19828000,-0.00127294,0.0219792,-0.00639918,-0.00188568,0.000617363,-4.03756e-05,0.0
19860000,9.74842e-05,-0.0135776,-0.000215719,-0.00185621,0.000625254,-3.33576e-05,0.0
19888000,0.00454686,0.0171582,-0.0133363,-0.00184376,0.000610791,-1.8639e-05,0.0
19920000,0.00247512,-0.00842221,0.00329876,-0.00182223,0.000608356,-2.3318e-05,0.0
19952000,0.00710391,0.00245173,0.00853187,-0.00181743,0.000593932,-2.88258e-05,0.0
19984000,0.010066,-0.00354973,-0.000102924,-0.00179823,0.000609055,-3.29855e-05,0.0
20012000,0.00916927,0.0125404,0.00271597,-0.00179451,0.000605786,-3.38123e-05,0.0
20040000,-0.00193556,0.00455401,-0.00541156,-0.00178174,0.000596843,-1.68067e-05,0.0
20072000,-0.00395188,0.00259123,-0.00290938,-0.00177795,0.000598375,-1.38166e-05,0.0
20104000,0.00431791,0.00346939,2.42625e-05,-0.00176524,0.000582066,-1.54258e-05,0.0
20136000,-0.0152823,0.0125274,0.00493645,-0.00176683,0.000570155,-1.20092e-05,0.0
20164000,-0.00569684,-0.0197209,-0.0031609,-0.00174471,0.000571275,-2.01773e-05,0.0
20196000,-0.00827542,-0.00458038,-0.00780466,-0.00172181,0.000563051,-7.49347e-06,0.0
20228000,0.0149231,0.00593033,-0.00176642,-0.00171226,0.000562627,1.29582e-05,0.0
20256000,-0.011619,-0.0051466,0.00211091,-0.00170841,0.000559571,1.31525e-05,0.0
20288000,-0.00131265,-0.00201936,-0.0101406,-0.0017059,0.000550823,1.73995e-05,0.0
20320000,0.00102672,0.000565086,-0.00266667,-0.00168321,0.000535895,2.71427e-05,0.0
20348000,-0.00523343,-0.0141323,-0.00755099,-0.00168115,0.00053938,3.36283e-05,0.0
20380000,-0.00466545,-0.00928995,0.00364014,-0.00166773,0.000535782,6.46689e-05,0.0
20412000,-0.00575684,-0.00115414,0.00469349,-0.00165133,0.000529235,0.000111911,0.0
20444000,-0.0146834,-0.00720903,0.00765676,-0.00164261,0.000532524,0.00014857,0.0
20476000,0.00819803,0.00339363,0.00944674,-0.0016419,0.000529486,0.000162834,0.0
20508000,-0.0023816,-0.00241016,0.0118994,-0.00163104,0.000527853,0.000172257,0.0
20536000,-0.0232183,0.00470338,0.012568,-0.00163002,0.000528025,0.000179829,0.0
20568000,-0.00178619,0.0061935,0.00283421,-0.00162015,0.000520011,0.000173068,0.0
20600000,-0.012096,0.0137794,0.0101259,-0.001602,0.000517879,0.000178651,0.0
20632000,-0.00468449,-0.00839288,0.0117307,-0.0015876,0.00050873,0.000176363,0.0
20664000,-0.0128286,0.00587119,0.0151318,-0.00156579,0.00051379,0.000169497,0.0
20696000,-0.00645878,-0.00361156,0.0040948,-0.00154842,0.000503625,0.000154995,0.0
20724000,-0.0104679,0.00671123,0.0134463,-0.00152962,0.000511234,0.00013143,0.0
20756000,-0.00109261,0.0105535,0.00498634,-0.00150618,0.000499772,0.000122971,0.0
20788000,0.0020016,0.0126152,-0.00203484,-0.00149896,0.000498781,0.000130596,0.0
20816000,0.000133663,-0.00630222,0.00547878,-0.00148815,0.000494798,0.000122565,0.0
20848000,-0.000275536,0.0115376,0.00327007,-0.00146955,0.000495103,0.000115675,0.0
20880000,0.00226306,0.0074167,0.00456443,-0.00145529,0.000493655,9.4671e-05,0.0
20912000,0.00203388,0.000765134,0.000927923,-0.00145269,0.000480582,7.20499e-05,0.0
20944000,-0.00657004,0.00695198,0.00113535,-0.00143931,0.00046766,6.8005e-05,0.0
20976000,0.0077125,0.00553363,0.00491928,-0.00143324,0.00046339,4.01059e-05,0.0
21004000,-0.0123357,-0.0202542,0.00859044,-0.00142172,0.00046485,1.29734e-05,0.0
21032000,0.00661964,0.0249642,0.00858559,-0.00139544,0.000448208,-1.39129e-05,0.0
21060000,-0.00556291,-0.0322977,0.00164654,-0.00137925,0.000442852,-2.46604e-05,0.0
21092000,-0.000328135,0.0151327,0.00242044,-0.00137282,0.000444117,-5.63028e-05,0.0
21120000,-0.00126278,-0.0192485,0.00141943,-0.00134703,0.00045117,-8.37942e-05,0.0
21152000,0.0117145,0.0139745,-0.00809808,-0.00134523,0.000441662,-9.68919e-05,0.0
21184000,-0.011397,-0.00230969,-0.00611597,-0.00131744,0.0004448,-0.000104513,0.0
21212000,0.0118563,-0.00720044,0.00261956,-0.00132177,0.000442097,-0.000121482,0.0
21240000,-0.0129484,0.00764199,-0.00430585,-0.00130273,0.000445503,-0.000137452,0.0
21268000,0.0100162,-0.000588395,-0.00934527,-0.00129846,0.000438762,-0.000140076,0.0
21296000,-0.00154797,0.00726695,-0.0078399,-0.00129801,0.000428243,-0.000125181,0.0
21328000,-0.00208888,0.00440418,-0.00418278,-0.00129798,0.00042773,-0.000101454,0.0
21360000,-0.0216717,-0.0174506,-0.0184251,-0.00128874,0.000419712,-9.10867e-05,0.0
21388000,0.00544009,0.0108416,-0.013559,-0.00127729,0.000416593,-8.02717e-05,0.0
21420000,-0.0159426,-0.0106848,-0.0080241,-0.00127092,0.000418105,-6.96577e-05,0.0
21448000,-0.00319766,0.0122583,-0.0068787,-0.00125633,0.000417803,-5.25509e-05,0.0
21480000,0.00498899,-0.0052865,-0.00450757,-0.00124962,0.000420648,-4.58026e-05,0.0
21512000,0.000645782,-0.00844014,0.00531656,-0.0012297,0.000402063,-3.66601e-05,0.0
21540000,0.00304868,0.00182827,-0.00684593,-0.00123656,0.000410855,-3.13301e-05,0.0
21568000,-0.0140048,-0.00606774,0.000885712,-0.0012126,0.00039245,-2.72909e-05,0.0
21596000,0.0126046,-0.00345735,-0.000345742,-0.00120835,0.000403195,-3.64574e-05,0.0
21628000,-0.00548353,-0.0100914,-0.00152512,-0.00118736,0.000392758,-4.38669e-05,0.0
21656000,0.012224,0.0117896,0.0021332,-0.00118323,0.000400862,-5.01817e-05,0.0
21688000,0.00991329,-0.00629663,-0.00619053,-0.00117432,0.000390842,-2.33676e-05,0.0
21720000,0.0107459,0.00630957,0.00413072,-0.00116477,0.000382727,-2.26045e-05,0.0
21752000,-0.00260245,-0.000670214,-0.00748883,-0.00114525,0.000378273,-1.88057e-05,0.0
21780000,0.0110992,-0.00939576,0.000193988,-0.00112376,0.000372407,-1.06473e-05,0.0
21808000,0.0119361,-0.00383397,-0.00298466,-0.00112941,0.000374484,-9.00187e-06,0.0
21840000,-0.000187544,-0.00811342,-0.00152365,-0.00113256,0.000376198,9.31474e-06,0.0
21872000,0.00775822,0.00256975,0.00525512,-0.00112729,0.000356419,4.23774e-07,0.0
21904000,-0.0043779,-0.0049383,-0.00085813,-0.00111574,0.000369498,6.29954e-06,0.0
21932000,0.00972212,0.00489722,-0.00736574,-0.00111349,0.000352312,2.65257e-05,0.0
21960000,0.0060031,-0.0169602,0.00718092,-0.00110268,0.000354868,3.03961e-05,0.0
21992000,-0.00367848,0.0110331,0.0083854,-0.00110284,0.000352115,6.3987e-06,0.0
22024000,0.000302258,-0.0199197,-0.00876192,-0.00109171,0.000354988,8.50145e-06,0.0
22056000,0.00158455,0.00756873,-0.00423795,-0.00108782,0.000348098,1.66485e-05,0.0
22084000,-0.00146686,-0.0106956,-0.00425186,-0.00107633,0.000362535,1.96302e-05,0.0
22112000,0.00203285,0.0147839,-0.00282644,-0.00106796,0.000352578,2.09743e-05,0.0
22140000,-0.00112589,-0.000246113,-0.0100007,-0.00106363,0.000352147,4.27974e-05,0.0
22172000,-0.00274451,0.00737261,0.00542624,-0.00105154,0.000342723,5.06817e-05,0.0
22200000,0.00717352,-0.00518688,-0.00139867,-0.0010428,0.00033749,5.07572e-05,0.0
22232000,-0.000718534,0.00164642,-0.00339472,-0.00103212,0.000333535,5.1561e-05,0.0
22264000,-0.00608937,-0.00876282,0.00361067,-0.00104179,0.000330978,5.69106e-05,0.0
22296000,-0.000852671,0.00171904,0.000928003,-0.00103429,0.0003287,5.50307e-05,0.0
22328000,-0.00376894,-0.0112806,0.0145436,-0.0010222,0.000335379,4.04721e-05,0.0
22360000,-0.00798419,0.00649269,0.00448832,-0.00101115,0.000315832,2.27186e-05,0.0
22392000,-0.00585348,-0.00544169,0.00378305,-0.000996958,0.000318277,1.41856e-05,0.0
22420000,0.00376472,-0.0137026,-0.00764127,-0.000985554,0.000314346,2.65851e-05,0.0
22452000,-0.00144783,0.00349278,-0.00231173,-0.000988953,0.000315611,3.20667e-05,0.0
22480000,0.000240671,-0.000670571,0.00161982,-0.000969384,0.000312946,1.67028e-05,0.0
22508000,0.00668958,-0.00861601,-0.00254073,-0.000957908,0.000329348,2.60886e-05,0.0
22540000,0.011605,0.00133919,0.00767588,-0.000938988,0.000321432,2.10104e-05,0.0
22568000,0.0117031,0.0110495,-0.00112483,-0.000935617,0.000321904,1.95273e-05,0.0
22596000,0.0126997,-0.00653552,0.00100307,-0.000931224,0.000305439,8.98602e-06,0.0
22624000,0.00592382,0.00540341,-0.00208891,-0.000923176,0.000307025,2.39748e-06,0.0
22652000,0.00949487,-0.0169514,0.00490952,-0.000915202,0.000296698,-1.77885e-05,0.0
22680000,0.00691654,0.00114721,0.00185225,-0.000914063,0.000301352,-1.48351e-05,0.0
22708000,0.0109392,0.000164818,0.000562444,-0.000911854,0.000299458,-2.41111e-05,0.0
22740000,0.00087299,-0.0124974,0.0019184,-0.000901685,0.00030411,-4.76214e-05,0.0
22772000,0.00349802,0.0128391,0.00789871,-0.000909057,0.000292228,-5.41066e-05,0.0
22800000,-0.010971,-0.00635896,-0.0113435,-0.000906223,0.000298916,-4.73235e-05,0.0
22832000,-0.012093,0.00197286,-0.000792216,-0.000891135,0.000293881,-4.39715e-05,0.0
22864000,-0.00111813,0.0132235,0.00485352,-0.000892145,0.000287656,-6.62016e-05,0.0
22896000,-0.00228187,-0.0205631,-0.0023303,-0.000899595,0.000303224,-6.74597e-05,0.0
22928000,-0.0151942,0.021204,7.31603e-05,-0.000880784,0.000282516,-5.56381e-05,0.0
22960000,-0.00603393,-0.00651325,-0.0102711,-0.0008787,0.000290985,-3.09048e-05,0.0
22992000,-0.0114413,-0.00695547,-0.00421648,-0.000845596,0.000282356,-1.73127e-05,0.0
23024000,0.0132685,0.00592678,-0.00321156,-0.000840214,0.000290984,-1.46227e-05,0.0
23056000,0.000703483,-0.00180242,-0.00622702,-0.000823806,0.000290888,-2.03239e-05,0.0
23088000,0.011217,0.0149014,-0.000707868,-0.000824987,0.000288115,-1.33867e-05,0.0
23120000,-0.00719923,0.00926765,0.00444348,-0.000814759,0.000289291,-1.39133e-05,0.0
23148000,0.0151543,0.0110298,-0.00293527,-0.00081493,0.000274158,-2.06498e-05,0.0
23176000,-0.0103402,-0.00807332,0.00415471,-0.000807845,0.00027232,-1.00399e-05,0.0
23204000,0.0120364,0.00122692,0.00269689,-0.000805582,0.000270099,-1.64688e-05,0.0
23236000,0.00265575,-0.00617524,-0.00023542,-0.00079644,0.00026979,-1.53421e-05,0.0
23268000,9.20489e-05,0.0180397,-7.94533e-05,-0.000790874,0.000279796,-7.83222e-08,0.0
23300000,0.0117618,-0.00439577,0.0031958,-0.000783599,0.000265068,-1.50904e-06,0.0
23332000,-0.00729826,0.00429975,0.00196453,-0.000790246,0.000255806,-7.43732e-06,0.0
23360000,0.00115398,-0.0101717,-0.00993387,-0.000771499,0.000260217,2.05844e-06,0.0
23392000,0.00282304,0.00274101,-0.00610335,-0.000763395,0.000245227,5.86018e-06,0.0
23424000,-0.000529997,-0.0166914,-0.00403978,-0.000756111,0.000247345,2.08982e-05,0.0
23456000,0.00690454,0.0149383,0.00346575,-0.000751794,0.000247621,3.28319e-05,0.0
23488000,0.0104355,-0.0246568,-0.00581654,-0.000748894,0.000253679,3.75832e-05,0.0
23520000,0.0019645,0.0234799,0.00888909,-0.000755427,0.000249147,3.71087e-05,0.0
23552000,0.000118517,0.000611086,0.00688186,-0.000751434,0.000263446,1.00011e-05,0.0
23584000,-0.0151845,0.00234382,-0.00316002,-0.000737803,0.000249366,1.41619e-06,0.0
23616000,0.0109084,0.0188544,0.000232115,-0.00073757,0.000241939,1.53981e-06,0.0
23644000,-0.00895493,-0.0105374,0.00732206,-0.000745546,0.000242067,-2.65825e-06,0.0
23672000,-0.00516739,0.00732877,-0.00190975,-0.000734166,0.000233649,-1.31503e-05,0.0
23704000,-0.015833,0.00702021,-0.00334522,-0.000737515,0.00023781,-4.26056e-06,0.0
23736000,-0.0117369,-0.0118157,-0.00576065,-0.000723852,0.000235418,7.863e-06,0.0
23768000,-0.00577275,-0.00256222,0.013763,-0.000701505,0.000228515,-1.76977e-06,0.0
23800000,0.00269342,0.00934184,-0.00184212,-0.000692675,0.000238078,-1.92034e-05,0.0
23828000,0.000778852,0.0068196,-0.00234215,-0.000693792,0.000209112,-9.80745e-06,0.0
23856000,0.00311734,-0.0199813,0.0037728,-0.000688922,0.000217249,-1.86706e-05,0.0
23884000,-0.00108897,-0.00446119,0.00145707,-0.000692517,0.000223465,-3.28698e-05,0.0
23912000,-0.00259819,0.0151124,0.00356381,-0.000681591,0.000224647,-3.07891e-05,0.0
23944000,-0.0111524,-0.00335202,0.00210202,-0.000668961,0.00023455,-5.18785e-05,0.0
23976000,0.0023011,0.0118474,-0.00582699,-0.000660687,0.000228464,-4.80193e-05,0.0
24008000,-0.00602112,0.00690385,0.000361069,-0.000667446,0.000241893,-5.05059e-05,0.0
24036000,-0.00448603,0.0302109,-0.00693482,-0.000655644,0.000240588,-3.29509e-05,0.0
24064000,-0.00422432,0.00113908,0.00114973,-0.000652894,0.000234936,-3.69222e-05,0.0
24092000,-0.00543297,0.0107138,-0.00475736,-0.000655247,0.000237802,-3.41589e-05,0.0
24120000,-0.00628918,0.0108734,0.00518801,-0.000649351,0.000228626,-4.26491e-05,0.0
24152000,-0.00959504,0.0239816,-0.000853629,-0.000653338,0.000225427,-4.15992e-05,0.0
24184000,-0.00826272,-0.00560647,-0.00709778,-0.000659607,0.000229684,-2.2131e-05,0.0
24212000,-0.0165372,0.0160864,-0.000572563,-0.000647964,0.000214722,-1.86399e-05,0.0
24244000,-0.0158884,0.00280683,0.00333212,-0.000633417,0.000208306,-2.31333e-05,0.0
24276000,-0.00124621,0.0087716,-0.00582045,-0.000631775,0.000200053,-3.12938e-05,0.0
24308000,0.00141464,0.00264323,0.00216951,-0.00062313,0.000207878,-3.24847e-05,0.0
24340000,-0.0116755,0.00194192,-0.00119771,-0.000617931,0.000190671,-2.8525e-05,0.0
24368000,-0.00517665,0.00402941,0.000185197,-0.0006098,0.000205501,-1.34627e-05,0.0
24396000,-0.00185018,-0.00526545,-0.00041467,-0.000610214,0.000192631,-1.08492e-05,0.0
24428000,-0.00435014,0.0105669,0.00297412,-0.000605426,0.000202183,-1.09783e-05,0.0
24460000,-0.00533448,-0.00240741,0.00361547,-0.000609723,0.000190948,-1.07824e-05,0.0
24492000,-0.0112515,0.0130423,-0.00888047,-0.000601538,0.000193705,6.92117e-06,0.0
24524000,-0.00341905,-0.0221512,-0.000132444,-0.000593538,0.000190693,5.07902e-06,0.0
24556000,-0.010296,0.0190685,-0.0105723,-0.000574087,0.000181311,2.22165e-05,0.0
24584000,0.0224768,-0.0124241,-0.00508918,-0.000582136,0.000184409,3.34586e-05,0.0
24612000,-0.015742,0.00998252,0.00673977,-0.000566451,0.000180591,4.58582e-05,0.0
24644000,0.00759288,-0.00541147,0.00562681,-0.000573686,0.000187211,2.8021e-05,0.0
24676000,-0.0066158,-0.00340901,0.00620761,-0.000560976,0.00017511,1.9047e-05,0.0
24708000,-0.00635546,0.0002971,0.00769045,-0.000573548,0.000182606,1.2559e-05,0.0
24740000,-0.000455176,-0.00567079,0.00906982,-0.000561716,0.000177681,-7.75603e-06,0.0
24772000,-0.0183436,0.0119124,0.0055993,-0.000565599,0.000180594,-1.70302e-05,0.0
24804000,0.00862718,-0.00927611,-0.00797553,-0.000565713,0.000177428,-1.8366e-05,0.0
24836000,-0.0245751,0.0130538,0.0018935,-0.000553569,0.000173383,-5.38408e-06,0.0
24864000,0.00870232,-0.00503047,-0.000579354,-0.000555697,0.000175793,1.4731e-06,0.0
24892000,-0.0221779,-0.00710899,0.000486972,-0.000544141,0.000171971,-4.65345e-06,0.0
24924000,-0.00369353,0.00420258,0.00729531,-0.000544101,0.000182497,-8.43065e-07,0.0
24952000,-0.00772333,0.0189889,0.0017749,-0.000536719,0.000179495,7.64136e-07,0.0
24980000,-0.00646257,-0.00128178,-0.00833059,-0.000516236,0.000183395,3.61682e-06,0.0
25008000,0.00228103,0.00852269,-0.00465799,-0.000517073,0.000171438,9.13674e-06,0.0
25040000,0.00893797,0.0100552,0.00152999,-0.000520739,0.000184137,2.94121e-05,0.0
25068000,-0.0168351,0.00159494,-1.01895e-05,-0.000515764,0.000169001,3.14141e-05,0.0
25096000,0.00232667,0.00257416,-6.7884e-05,-0.000502745,0.000166445,3.97815e-05,0.0
25128000,-0.00364735,-0.0016422,0.0105171,-0.000493369,0.00015833,2.99718e-05,0.0
25160000,-0.00210395,0.00193914,0.00111448,-0.000504446,0.000166543,1.2626e-05,0.0
25188000,-0.000212769,-0.0208598,0.00348347,-0.000485585,0.000162022,1.10882e-05,0.0
25220000,-0.000505483,0.021884,-0.000544478,-0.000489077,0.000161624,1.16843e-05,0.0
25248000,-0.00506456,-0.0112199,-0.0046902,-0.000485404,0.000170004,2.00528e-05,0.0
25276000,0.00466235,-0.000805024,0.00451572,-0.000496619,0.000156117,3.35969e-05,0.0
25308000,-0.00323178,-0.00273153,-0.000578758,-0.000469834,0.000152121,3.59216e-05,0.0
25340000,-0.00828348,-0.00926492,0.00465808,-0.000461682,0.000138152,3.395e-05,0.0
25368000,0.0205535,-0.0118372,-0.00542315,-0.000453166,0.00013296,4.39715e-05,0.0
25400000,-0.0085668,-0.0240003,-0.00484463,-0.000459204,0.000130716,5.45673e-05,0.0
25432000,0.00588201,-0.00765944,0.00682442,-0.00045201,0.000144363,5.88982e-05,0.0
25464000,0.00167804,-0.0104841,0.00525513,-0.00046111,0.000143337,4.26413e-05,0.0
25496000,-0.000913657,-0.000608757,-0.00126168,-0.000457109,0.00015175,4.61504e-05,0.0
25528000,0.0108892,-0.0139787,-0.00108863,-0.000451894,0.000145517,5.85323e-05,0.0
25560000,-0.00209214,0.0162527,-0.00210032,-0.000453326,0.000144504,5.82132e-05,0.0
25588000,0.0157253,-0.00783034,-0.00148421,-0.000454244,0.000142573,5.55846e-05,0.0
25620000,-0.0147902,0.00563476,-0.00278814,-0.000447148,0.000142542,6.08588e-05,0.0
25652000,0.00275239,0.00666577,-0.00218592,-0.000445161,0.000142044,6.34021e-05,0.0
25684000,0.00218917,-0.0118185,-0.00561394,-0.00045038,0.00013854,7.6982e-05,0.0
25712000,-0.00987583,0.0132107,0.00647273,-0.000446224,0.000138006,7.31406e-05,0.0
25744000,-0.000998631,-0.00581609,0.00616618,-0.000446664,0.000138438,5.51803e-05,0.0
25772000,-0.00185542,0.00658626,0.0139841,-0.000435404,0.000147238,2.7884e-05,0.0
25800000,-0.000878404,-0.00916767,0.00620992,-0.00043503,0.000153126,2.94702e-06,0.0
25832000,-0.00505035,0.0169636,0.00127249,-0.000428121,0.000155051,-2.18186e-05,0.0
25864000,0.000632081,-0.0028217,0.0013522,-0.000409503,0.000156201,-4.63358e-05,0.0
25892000,0.000656195,0.0330549,-0.000629411,-0.00041727,0.000148051,-5.83163e-05,0.0
25924000,-0.00762989,-0.0116193,9.99402e-05,-0.000409777,0.000152764,-5.64729e-05,0.0
25956000,-0.00926841,0.0209239,-0.00419859,-0.000402483,0.000156584,-7.28913e-05,0.0
25984000,-0.00214712,0.0131889,0.00431896,-0.000398751,0.000152597,-7.48098e-05,0.0
26016000,-0.00604926,0.0124063,0.00074118,-0.000399276,0.000144638,-8.96909e-05,0.0
26048000,0.00024052,0.00555041,-0.00465358,-0.000379257,0.00014996,-8.99929e-05,0.0
26080000,-0.00257706,0.00295025,-0.00242591,-0.000375968,0.000135102,-9.48222e-05,0.0
26108000,-2.01188e-05,0.00553365,0.0014181,-0.000362795,0.00014018,-9.90219e-05,0.0
26140000,0.0104783,-0.00227902,-0.00330319,-0.000353047,0.000144667,-0.00010056,0.0
26172000,0.0122453,0.0106349,-0.00268406,-0.00034961,0.000136606,-8.56577e-05,0.0
26204000,0.00937732,0.0127917,-0.00275211,-0.000345737,0.000133687,-8.50894e-05,0.0
26232000,0.00503693,0.00270753,-0.00282416,-0.000355531,0.000143921,-7.42275e-05,0.0
26264000,0.00531318,0.0148144,-0.00923268,-0.000354411,0.000128611,-5.76967e-05,0.0
26296000,0.00516291,-0.00152433,0.000910433,-0.000355904,0.000131593,-4.721e-05,0.0
26328000,0.00230733,0.00248976,-0.0063522,-0.000342894,0.000115111,-4.87386e-05,0.0
26356000,0.0128615,-0.0020269,-0.00821617,-0.000351191,0.000127017,-3.39795e-05,0.0
26388000,0.00822397,0.00291927,0.00299409,-0.000350672,0.000122348,-3.9686e-05,0.0
26416000,-0.00299331,0.0019908,-0.00134545,-0.000367225,0.000125888,-4.18085e-05,0.0
26444000,-0.013545,-0.00593554,-0.00822905,-0.000362953,0.000110722,-3.49109e-05,0.0
26472000,0.00411707,0.00290129,-0.00047965,-0.000367403,0.000119207,-1.34209e-05,0.0
26504000,-0.0165918,-0.0127997,0.000678518,-0.000361507,0.000118651,-5.37612e-08,0.0
26536000,-0.0108049,0.0166661,-0.00309111,-0.000369097,0.000118756,7.87554e-07,0.0
26568000,0.000189982,0.00302213,-0.00353877,-0.000354645,0.000117108,1.28357e-05,0.0
26596000,-0.0100295,-0.00578675,-0.0043685,-0.000358625,0.000111747,2.2218e-05,0.0
26628000,0.00367749,0.00363392,0.00146529,-0.000345487,0.000105647,1.94489e-05,0.0
26660000,-0.00123042,-0.0125507,0.00203849,-0.000353632,0.000114535,2.67436e-05,0.0
26692000,-0.00119103,0.0314721,-0.00383136,-0.000338576,0.000114088,2.50875e-05,0.0
26724000,-0.00863483,-0.00663678,-0.002085,-0.000349012,0.000120803,2.72555e-05,0.0
26756000,0.00623756,0.00579425,-0.00404332,-0.000333282,0.000107199,4.01429e-05,0.0
26784000,-0.00885512,0.000378467,0.0100419,-0.000337025,0.000111532,4.04975e-05,0.0
26816000,0.00327426,0.0051213,0.00514818,-0.000333688,0.000112748,2.42631e-05,0.0
26844000,0.00290799,-0.00776767,0.0117758,-0.00034011,0.000104882,2.22627e-05,0.0
26872000,-0.0114305,0.00498602,0.0028277,-0.000335991,0.000100941,6.94073e-06,0.0
26904000,-0.0081534,-0.0134406,0.00381622,-0.000341425,0.000109146,1.18477e-05,0.0
26932000,-0.00772504,0.00964028,-0.00312324,-0.000327406,9.67814e-05,1.56249e-05,0.0
26964000,0.00747506,0.00602873,0.00724372,-0.000324434,0.000106854,8.22399e-06,0.0
26996000,-0.00303488,-0.0059065,0.00630964,-0.000320652,9.54763e-05,-1.45709e-05,0.0
27024000,-0.0115234,0.0093711,-0.00512498,-0.00031551,9.69787e-05,-2.21933e-05,0.0
27056000,0.012448,-0.00692633,0.00130017,-0.000316603,0.000110888,-1.74568e-05,0.0
27088000,-0.0103991,8.0441e-05,-0.00244162,-0.000293928,9.71792e-05,-2.63732e-05,0.0
27120000,0.00128415,0.0071641,-0.00251349,-0.000300276,9.87742e-05,-2.3664e-05,0.0
27148000,-0.000769028,0.00428147,0.00228949,-0.000283353,9.6051e-05,-2.9152e-05,0.0
27180000,0.00587858,0.00741459,0.00100458,-0.000284368,9.60349e-05,-1.38884e-05,0.0
