timestamp,roll_body,pitch_body,yaw_body,yaw_sp_move_rate,q_d[0],q_d[1],q_d[2],q_d[3],thrust_body[0],thrust_body[1],thrust_body[2],q_d_valid,roll_reset_integral,pitch_reset_integral,yaw_reset_integral,fw_control_yaw,apply_flaps
1316000,0.0,-0.0,0.00528221,0.0,0.999996,0.0,0.0,0.0026411,0.0,0.0,-0.08,1,0,0,0,0,0
1412000,0.0,-0.0,0.00609705,0.0,0.999995,0.0,0.0,0.00304852,0.0,0.0,-0.08,1,0,0,0,0,0
1508000,0.0,-0.0,0.00622773,0.0,0.999995,0.0,0.0,0.00311386,0.0,0.0,-0.08,1,0,0,0,0,0
1604000,0.0,-0.0,0.00657086,0.0,0.999995,0.0,0.0,0.00328543,0.0,0.0,-0.08,1,0,0,0,0,0
1704000,0.0,-0.0,0.00675862,0.0,0.999994,0.0,0.0,0.0033793,0.0,0.0,-0.08,1,0,0,0,0,0
1800000,0.0,-0.0,0.00703512,0.0,0.999994,0.0,0.0,0.00351755,0.0,0.0,-0.08,1,0,0,0,0,0
1896000,0.0,-0.0,0.007532,0.0,0.999993,0.0,0.0,0.00376599,0.0,0.0,-0.08,1,0,0,0,0,0
1996000,0.0,-0.0,0.00723102,0.0,0.999993,0.0,0.0,0.0036155,0.0,0.0,-0.08,1,0,0,0,0,0
2096000,0.0,-0.0,0.00739796,0.0,0.999993,0.0,0.0,0.00369897,0.0,0.0,-0.08,1,0,0,0,0,0
2196000,0.0,-0.0,0.00727778,0.0,0.999993,0.0,0.0,0.00363888,0.0,0.0,-0.08,1,0,0,0,0,0
2292000,0.0,-0.0,0.00731063,0.0,0.999993,0.0,0.0,0.00365531,0.0,0.0,-0.08,1,0,0,0,0,0
2388000,0.0,-0.0,0.00697935,0.0,0.999994,0.0,0.0,0.00348967,0.0,0.0,-0.08,1,0,0,0,0,0
2488000,0.0,-0.0,0.00688983,0.0,0.999994,0.0,0.0,0.00344491,0.0,0.0,-0.08,1,0,0,0,0,0
2588000,0.0,-0.0,0.00662169,0.0,0.999995,0.0,0.0,0.00331084,0.0,0.0,-0.08,1,0,0,0,0,0
2684000,0.0,-0.0,0.00694625,0.0,0.999994,0.0,0.0,0.00347312,0.0,0.0,-0.08,1,0,0,0,0,0
2776000,0.0,-0.0,0.007037,0.0,0.999994,0.0,0.0,0.00351849,0.0,0.0,-0.08,1,0,0,0,0,0
2876000,0.0,-0.0,0.00695948,0.0,0.999994,0.0,0.0,0.00347973,0.0,0.0,-0.08,1,0,0,0,0,0
2972000,0.0,-0.0,0.00687841,0.0,0.999994,0.0,0.0,0.0034392,0.0,0.0,-0.08,1,0,0,0,0,0
3072000,0.0,-0.0,0.00710768,0.0,0.999994,0.0,0.0,0.00355383,0.0,0.0,-0.08,1,0,0,0,0,0
3168000,0.0,-0.0,0.00700265,0.0,0.999994,0.0,0.0,0.00350132,0.0,0.0,-0.08,1,0,0,0,0,0
3268000,0.0,-0.0,0.00688348,0.0,0.999994,0.0,0.0,0.00344173,0.0,0.0,-0.08,1,0,0,0,0,0
3364000,0.0,-0.0,0.00663291,0.0,0.999995,0.0,0.0,0.00331645,0.0,0.0,-0.08,1,0,0,0,0,0
3456000,0.0,-0.0,0.00670899,0.0,0.999994,0.0,0.0,0.00335449,0.0,0.0,-0.08,1,0,0,0,0,0
3556000,0.0,-0.0,0.00685356,0.0,0.999994,0.0,0.0,0.00342677,0.0,0.0,-0.08,1,0,0,0,0,0
3656000,0.0,-0.0,0.00714584,0.0,0.999994,0.0,0.0,0.00357291,0.0,0.0,-0.08,1,0,0,0,0,0
3748000,0.0,-0.0,0.00739301,0.0,0.999993,0.0,0.0,0.0036965,0.0,0.0,-0.08,1,0,0,0,0,0
3844000,0.0,-0.0,0.00727906,0.0,0.999993,0.0,0.0,0.00363952,0.0,0.0,-0.08,1,0,0,0,0,0
3944000,0.0,-0.0,0.00729782,0.0,0.999993,0.0,0.0,0.0036489,0.0,0.0,-0.08,1,0,0,0,0,0
4044000,0.0,-0.0,0.0072144,0.0,0.999994,0.0,0.0,0.00360719,0.0,0.0,-0.08,1,0,0,0,0,0
4140000,0.0,-0.0,0.00708467,0.0,0.999994,0.0,0.0,0.00354233,0.0,0.0,-0.08,1,0,0,0,0,0
4236000,0.0,-0.0,0.00673543,0.0,0.999994,0.0,0.0,0.00336771,0.0,0.0,-0.08,1,0,0,0,0,0
4332000,0.0,-0.0,0.00641962,0.0,0.999995,0.0,0.0,0.0032098,0.0,0.0,-0.08,1,0,0,0,0,0
4428000,0.0,-0.0,0.00626332,0.0,0.999995,0.0,0.0,0.00313165,0.0,0.0,-0.08,1,0,0,0,0,0
4528000,0.0,-0.0,0.00626767,0.0,0.999995,0.0,0.0,0.00313383,0.0,0.0,-0.08,1,0,0,0,0,0
4620000,0.0,-0.0,0.00633453,0.0,0.999995,0.0,0.0,0.00316726,0.0,0.0,-0.08,1,0,0,0,0,0
4720000,0.0,-0.0,0.00651032,0.0,0.999995,0.0,0.0,0.00325515,0.0,0.0,-0.08,1,0,0,0,0,0
4820000,0.0,-0.0,0.00663669,0.0,0.999995,0.0,0.0,0.00331834,0.0,0.0,-0.08,1,0,0,0,0,0
4920000,0.0,-0.0,0.006884,0.0,0.999994,0.0,0.0,0.00344199,0.0,0.0,-0.08,1,0,0,0,0,0
5020000,0.0,-0.0,0.00725019,0.0,0.999993,0.0,0.0,0.00362509,0.0,0.0,-0.08,1,0,0,0,0,0
5120000,0.0,-0.0,0.00746129,0.0,0.999993,0.0,0.0,0.00373064,0.0,0.0,-0.08,1,0,0,0,0,0
5216000,0.0,-0.0,0.00736399,0.0,0.999993,0.0,0.0,0.00368199,0.0,0.0,-0.08,1,0,0,0,0,0
5312000,0.0,-0.0,0.00741698,0.0,0.999993,0.0,0.0,0.00370848,0.0,0.0,-0.08,1,0,0,0,0,0
5412000,0.0,-0.0,0.00714105,0.0,0.999994,0.0,0.0,0.00357052,0.0,0.0,-0.08,1,0,0,0,0,0
5508000,0.0,-0.0,0.0076199,0.0,0.999993,0.0,0.0,0.00380994,0.0,0.0,-0.08,1,0,0,0,0,0
5604000,0.0,-0.0,0.00741459,0.0,0.999993,0.0,0.0,0.00370729,0.0,0.0,-0.08,1,0,0,0,0,0
5704000,0.0,-0.0,0.00744908,0.0,0.999993,0.0,0.0,0.00372453,0.0,0.0,-0.08,1,0,0,0,0,0
5804000,0.0,-0.0,0.00741132,0.0,0.999993,0.0,0.0,0.00370565,0.0,0.0,-0.08,1,0,0,0,0,0
5900000,0.0,-0.0,0.00739141,0.0,0.999993,0.0,0.0,0.0036957,0.0,0.0,-0.08,1,0,0,0,0,0
5996000,0.0,-0.0,0.00735717,0.0,0.999993,0.0,0.0,0.00367858,0.0,0.0,-0.08,1,0,0,0,0,0
6096000,0.0,-0.0,0.00761074,0.0,0.999993,0.0,0.0,0.00380536,0.0,0.0,-0.08,1,0,0,0,0,0
6196000,0.0,-0.0,0.00753613,0.0,0.999993,0.0,0.0,0.00376806,0.0,0.0,-0.08,1,0,0,0,0,0
6292000,0.0,-0.0,0.00760184,0.0,0.999993,0.0,0.0,0.00380091,0.0,0.0,-0.08,1,0,0,0,0,0
6392000,0.0,-0.0,0.00767774,0.0,0.999993,0.0,0.0,0.00383886,0.0,0.0,-0.08,1,0,0,0,0,0
6488000,0.0,-0.0,0.00744207,0.0,0.999993,0.0,0.0,0.00372103,0.0,0.0,-0.08,1,0,0,0,0,0
6584000,0.0,-0.0,0.00745134,0.0,0.999993,0.0,0.0,0.00372566,0.0,0.0,-0.08,1,0,0,0,0,0
6680000,0.0,-0.0,0.0072322,0.0,0.999993,0.0,0.0,0.00361609,0.0,0.0,-0.08,1,0,0,0,0,0
6776000,0.0,-0.0,0.00723258,0.0,0.999993,0.0,0.0,0.00361628,0.0,0.0,-0.08,1,0,0,0,0,0
6876000,0.0,-0.0,0.00743567,0.0,0.999993,0.0,0.0,0.00371783,0.0,0.0,-0.08,1,0,0,0,0,0
6976000,0.0,-0.0,0.00720357,0.0,0.999994,0.0,0.0,0.00360178,0.0,0.0,-0.08,1,0,0,0,0,0
7068000,0.0,-0.0,0.0071349,0.0,0.999994,0.0,0.0,0.00356744,0.0,0.0,-0.08,1,0,0,0,0,0
7168000,0.0,-0.0,0.00713492,0.0,0.999994,0.0,0.0,0.00356745,0.0,0.0,-0.08,1,0,0,0,0,0
7268000,0.0,-0.0,0.00726214,0.0,0.999993,0.0,0.0,0.00363106,0.0,0.0,-0.08,1,0,0,0,0,0
7368000,0.0,-0.0,0.00747356,0.0,0.999993,0.0,0.0,0.00373677,0.0,0.0,-0.08,1,0,0,0,0,0
7460000,0.0,-0.0,0.00725025,0.0,0.999993,0.0,0.0,0.00362512,0.0,0.0,-0.08,1,0,0,0,0,0
7560000,0.0,-0.0,0.00719994,0.0,0.999994,0.0,0.0,0.00359996,0.0,0.0,-0.08,1,0,0,0,0,0
7660000,0.0,-0.0,0.00714681,0.0,0.999994,0.0,0.0,0.0035734,0.0,0.0,-0.08,1,0,0,0,0,0
7760000,0.0,-0.0,0.00732287,0.0,0.999993,0.0,0.0,0.00366143,0.0,0.0,-0.08,1,0,0,0,0,0
7860000,0.0,-0.0,0.00701404,0.0,0.999994,0.0,0.0,0.00350701,0.0,0.0,-0.08,1,0,0,0,0,0
7960000,0.0,-0.0,0.00702724,0.0,0.999994,0.0,0.0,0.00351361,0.0,0.0,-0.08,1,0,0,0,0,0
8060000,0.0,-0.0,0.00722789,0.0,0.999993,0.0,0.0,0.00361394,0.0,0.0,-0.08,1,0,0,0,0,0
8156000,0.0,-0.0,0.00681478,0.0,0.999994,0.0,0.0,0.00340739,0.0,0.0,-0.08,1,0,0,0,0,0
8248000,0.0,-0.0,0.00706921,0.0,0.999994,0.0,0.0,0.0035346,0.0,0.0,-0.08,1,0,0,0,0,0
8348000,0.0,-0.0,0.00676122,0.0,0.999994,0.0,0.0,0.0033806,0.0,0.0,-0.08,1,0,0,0,0,0
8448000,0.0,-0.0,0.00644495,0.0,0.999995,0.0,0.0,0.00322247,0.0,0.0,-0.08,1,0,0,0,0,0
8548000,0.0,-0.0,0.00645197,0.0,0.999995,0.0,0.0,0.00322598,0.0,0.0,-0.08,1,0,0,0,0,0
8648000,0.0,-0.0,0.00605899,0.0,0.999995,0.0,0.0,0.00302949,0.0,0.0,-0.08,1,0,0,0,0,0
8744000,0.0,-0.0,0.00602365,0.0,0.999995,0.0,0.0,0.00301182,0.0,0.0,-0.08,1,0,0,0,0,0
8840000,0.0,-0.0,0.00606067,0.0,0.999995,0.0,0.0,0.00303033,0.0,0.0,-0.08,1,0,0,0,0,0
8940000,0.0,-0.0,0.00616296,0.0,0.999995,0.0,0.0,0.00308148,0.0,0.0,-0.08,1,0,0,0,0,0
9036000,0.0,-0.0,0.00616428,0.0,0.999995,0.0,0.0,0.00308214,0.0,0.0,-0.08,1,0,0,0,0,0
9132000,0.0,-0.0,0.00614787,0.0,0.999995,0.0,0.0,0.00307393,0.0,0.0,-0.08,1,0,0,0,0,0
9232000,0.0,-0.0,0.0061474,0.0,0.999995,0.0,0.0,0.00307369,0.0,0.0,-0.08,1,0,0,0,0,0
9332000,0.0,-0.0,0.00611173,0.0,0.999995,0.0,0.0,0.00305586,0.0,0.0,-0.08,1,0,0,0,0,0
9432000,0.0,-0.0,0.00602634,0.0,0.999995,0.0,0.0,0.00301316,0.0,0.0,-0.08,1,0,0,0,0,0
9524000,0.0,-0.0,0.00603312,0.0,0.999995,0.0,0.0,0.00301656,0.0,0.0,-0.08,1,0,0,0,0,0
9624000,0.0,-0.0,0.00596816,0.0,0.999996,0.0,0.0,0.00298408,0.0,0.0,-0.08,1,0,0,0,0,0
9720000,0.0,-0.0,0.0061377,0.0,0.999995,0.0,0.0,0.00306885,0.0,0.0,-0.08,1,0,0,0,0,0
9820000,0.0,-0.0,0.00593152,0.0,0.999996,0.0,0.0,0.00296576,0.0,0.0,-0.08,1,0,0,0,0,0
9920000,0.0,-0.0,0.00602465,0.0,0.999995,0.0,0.0,0.00301232,0.0,0.0,-0.08,1,0,0,0,0,0
10016000,0.0,-0.0,0.00590192,0.0,0.999996,0.0,0.0,0.00295095,0.0,0.0,-0.08,1,0,0,0,0,0
10116000,0.0,-0.0,0.006115,0.0,0.999995,0.0,0.0,0.0030575,0.0,0.0,-0.08,1,0,0,0,0,0
10212000,0.0,-0.0,0.00589341,0.0,0.999996,0.0,0.0,0.0029467,0.0,0.0,-0.08,1,0,0,0,0,0
10312000,0.0,-0.0,0.00212209,0.0,0.999999,0.0,0.0,0.00106104,0.0,0.0,-0.08,1,0,0,0,0,0
10412000,0.0,-0.0,0.00229672,0.0,0.999999,0.0,0.0,0.00114836,0.0,0.0,-0.08,1,0,0,0,0,0
10512000,0.0,-0.0,0.0026028,0.0,0.999999,0.0,0.0,0.0013014,0.0,0.0,-0.08,1,0,0,0,0,0
10612000,0.0,-0.0,0.00251401,0.0,0.999999,0.0,0.0,0.001257,0.0,0.0,-0.08,1,0,0,0,0,0
10712000,0.0,-0.0,0.00257728,0.0,0.999999,0.0,0.0,0.00128864,0.0,0.0,-0.08,1,0,0,0,0,0
10808000,0.0,-0.0,0.0026489,0.0,0.999999,0.0,0.0,0.00132445,0.0,0.0,-0.08,1,0,0,0,0,0
10908000,0.0,-0.0,0.00253371,0.0,0.999999,0.0,0.0,0.00126685,0.0,0.0,-0.08,1,0,0,0,0,0
11000000,0.0,-0.0,0.00306984,0.0,0.999999,0.0,0.0,0.00153492,0.0,0.0,-0.08,1,0,0,0,0,0
11100000,0.0,-0.0,0.00334937,0.0,0.999999,0.0,0.0,0.00167468,0.0,0.0,-0.08,1,0,0,0,0,0
11196000,0.0,-0.0,0.00368095,0.0,0.999998,0.0,0.0,0.00184047,0.0,0.0,-0.08,1,0,0,0,0,0
11288000,0.0,-0.0,0.00396757,0.0,0.999998,0.0,0.0,0.00198378,0.0,0.0,-0.08,1,0,0,0,0,0
11384000,0.0,-0.0,0.00421039,0.0,0.999998,0.0,0.0,0.0021052,0.0,0.0,-0.08,1,0,0,0,0,0
11484000,0.0,-0.0,0.00427005,0.0,0.999998,0.0,0.0,0.00213502,0.0,0.0,-0.08,1,0,0,0,0,0
11576000,0.0,-0.0,0.00435797,0.0,0.999998,0.0,0.0,0.00217899,0.0,0.0,-0.08,1,0,0,0,0,0
11676000,0.0,-0.0,0.00463704,0.0,0.999997,0.0,0.0,0.00231852,0.0,0.0,-0.08,1,0,0,0,0,0
11776000,0.0,-0.0,0.00474829,0.0,0.999997,0.0,0.0,0.00237414,0.0,0.0,-0.08,1,0,0,0,0,0
11876000,0.0,-0.0,0.00493476,0.0,0.999997,0.0,0.0,0.00246738,0.0,0.0,-0.08,1,0,0,0,0,0
11976000,0.0,-0.0,0.00496519,0.0,0.999997,0.0,0.0,0.00248259,0.0,0.0,-0.08,1,0,0,0,0,0
12076000,0.0,-0.0,0.00500137,0.0,0.999997,0.0,0.0,0.00250068,0.0,0.0,-0.08,1,0,0,0,0,0
12176000,0.0,-0.0,0.00579313,0.0,0.999996,0.0,0.0,0.00289656,0.0,0.0,-0.08,1,0,0,0,0,0
12276000,0.0,-0.0,0.00567044,0.0,0.999996,0.0,0.0,0.00283522,0.0,0.0,-0.08,1,0,0,0,0,0
12376000,0.0,-0.0,0.00535005,0.0,0.999996,0.0,0.0,0.00267502,0.0,0.0,-0.08,1,0,0,0,0,0
12468000,0.0,-0.0,0.0054896,0.0,0.999996,0.0,0.0,0.0027448,0.0,0.0,-0.08,1,0,0,0,0,0
12564000,0.0,-0.0,0.00562913,0.0,0.999996,0.0,0.0,0.00281456,0.0,0.0,-0.08,1,0,0,0,0,0
12664000,0.0,-0.0,0.00612632,0.0,0.999995,0.0,0.0,0.00306315,0.0,0.0,-0.08,1,0,0,0,0,0
12764000,0.0,-0.0,0.0060043,0.0,0.999995,0.0,0.0,0.00300214,0.0,0.0,-0.08,1,0,0,0,0,0
12860000,0.0,-0.0,0.00649955,0.0,0.999995,0.0,0.0,0.00324977,0.0,0.0,-0.08,1,0,0,0,0,0
12956000,0.0,-0.0,0.00634618,0.0,0.999995,0.0,0.0,0.00317309,0.0,0.0,-0.08,1,0,0,0,0,0
13052000,0.0,-0.0,0.00649698,0.0,0.999995,0.0,0.0,0.00324848,0.0,0.0,-0.08,1,0,0,0,0,0
13148000,0.0,-0.0,0.00680123,0.0,0.999994,0.0,0.0,0.00340061,0.0,0.0,-0.08,1,0,0,0,0,0
13244000,0.0,-0.0,0.00689862,0.0,0.999994,0.0,0.0,0.0034493,0.0,0.0,-0.08,1,0,0,0,0,0
13340000,0.0,-0.0,0.00692166,0.0,0.999994,0.0,0.0,0.00346082,0.0,0.0,-0.08,1,0,0,0,0,0
13440000,0.0,-0.0,0.00681906,0.0,0.999994,0.0,0.0,0.00340953,0.0,0.0,-0.08,1,0,0,0,0,0
13540000,0.0,-0.0,0.00709016,0.0,0.999994,0.0,0.0,0.00354507,0.0,0.0,-0.08,1,0,0,0,0,0
13636000,0.0,-0.0,0.00707824,0.0,0.999994,0.0,0.0,0.00353911,0.0,0.0,-0.08,1,0,0,0,0,0
13736000,0.0,-0.0,0.00698036,0.0,0.999994,0.0,0.0,0.00349018,0.0,0.0,-0.08,1,0,0,0,0,0
13832000,0.0,-0.0,0.00691798,0.0,0.999994,0.0,0.0,0.00345898,0.0,0.0,-0.08,1,0,0,0,0,0
13932000,0.0,-0.0,0.00693398,0.0,0.999994,0.0,0.0,0.00346698,0.0,0.0,-0.08,1,0,0,0,0,0
14032000,0.0,-0.0,0.00678286,0.0,0.999994,0.0,0.0,0.00339143,0.0,0.0,-0.08,1,0,0,0,0,0
14132000,0.0,-0.0,0.00658889,0.0,0.999995,0.0,0.0,0.00329444,0.0,0.0,-0.08,1,0,0,0,0,0
14232000,0.0,-0.0,0.0068421,0.0,0.999994,0.0,0.0,0.00342104,0.0,0.0,-0.08,1,0,0,0,0,0
14328000,0.0,-0.0,0.00707205,0.0,0.999994,0.0,0.0,0.00353602,0.0,0.0,-0.08,1,0,0,0,0,0
14428000,0.0,-0.0,0.00704939,0.0,0.999994,0.0,0.0,0.00352469,0.0,0.0,-0.08,1,0,0,0,0,0
14524000,0.0,-0.0,0.00702791,0.0,0.999994,0.0,0.0,0.00351395,0.0,0.0,-0.08,1,0,0,0,0,0
14624000,0.0,-0.0,0.00694573,0.0,0.999994,0.0,0.0,0.00347286,0.0,0.0,-0.08,1,0,0,0,0,0
14724000,0.0,-0.0,0.00678461,0.0,0.999994,0.0,0.0,0.0033923,0.0,0.0,-0.08,1,0,0,0,0,0
14824000,0.0,-0.0,0.0066999,0.0,0.999994,0.0,0.0,0.00334994,0.0,0.0,-0.08,1,0,0,0,0,0
14916000,0.0,-0.0,0.00691218,0.0,0.999994,0.0,0.0,0.00345608,0.0,0.0,-0.08,1,0,0,0,0,0
15016000,0.0,-0.0,0.00709606,0.0,0.999994,0.0,0.0,0.00354802,0.0,0.0,-0.08,1,0,0,0,0,0
15116000,0.0,-0.0,0.00761541,0.0,0.999993,0.0,0.0,0.0038077,0.0,0.0,-0.08,1,0,0,0,0,0
15216000,0.0,-0.0,0.0075551,0.0,0.999993,0.0,0.0,0.00377754,0.0,0.0,-0.08,1,0,0,0,0,0
15312000,0.0,-0.0,0.00787028,0.0,0.999992,0.0,0.0,0.00393513,0.0,0.0,-0.08,1,0,0,0,0,0
15412000,0.0,-0.0,0.00797474,0.0,0.999992,0.0,0.0,0.00398736,0.0,0.0,-0.08,1,0,0,0,0,0
15512000,0.0,-0.0,0.00803726,0.0,0.999992,0.0,0.0,0.00401862,0.0,0.0,-0.08,1,0,0,0,0,0
15612000,0.0,-0.0,0.00807923,0.0,0.999992,0.0,0.0,0.0040396,0.0,0.0,-0.08,1,0,0,0,0,0
15712000,0.0,-0.0,0.00804985,0.0,0.999992,0.0,0.0,0.00402491,0.0,0.0,-0.08,1,0,0,0,0,0
15812000,0.0,-0.0,0.00822418,0.0,0.999992,0.0,0.0,0.00411208,0.0,0.0,-0.08,1,0,0,0,0,0
15912000,0.0,-0.0,0.00811416,0.0,0.999992,0.0,0.0,0.00405707,0.0,0.0,-0.08,1,0,0,0,0,0
16012000,0.0,-0.0,0.0082225,0.0,0.999992,0.0,0.0,0.00411124,0.0,0.0,-0.08,1,0,0,0,0,0
16112000,0.0,-0.0,0.00837446,0.0,0.999991,0.0,0.0,0.00418722,0.0,0.0,-0.08,1,0,0,0,0,0
16212000,0.0,-0.0,0.00866851,0.0,0.999991,0.0,0.0,0.00433424,0.0,0.0,-0.08,1,0,0,0,0,0
16312000,0.0,-0.0,0.00875324,0.0,0.99999,0.0,0.0,0.0043766,0.0,0.0,-0.08,1,0,0,0,0,0
16412000,0.0,-0.0,0.00850824,0.0,0.999991,0.0,0.0,0.00425411,0.0,0.0,-0.08,1,0,0,0,0,0
16512000,0.0,-0.0,0.00842717,0.0,0.999991,0.0,0.0,0.00421357,0.0,0.0,-0.08,1,0,0,0,0,0
16608000,0.0,-0.0,0.00808777,0.0,0.999992,0.0,0.0,0.00404388,0.0,0.0,-0.08,1,0,0,0,0,0
16616000,0.0,-0.0,0.0081045,0.0,0.999992,0.0,0.0,0.00405224,0.0,0.0,-0.08,1,0,0,0,0,0
17924000,0.0,-0.0,0.00844951,0.0,0.999991,0.0,-0.0,0.00422474,0.0,0.0,-0.12,1,0,0,0,0,0
18020000,-0.0469096,0.00936552,0.00823861,0.0,0.999705,-0.0234715,0.00458481,0.00422794,0.0,0.0,-0.120137,1,0,0,0,0,0
18112000,-0.0406576,0.0103265,0.00823861,0.0,0.999771,-0.0203482,0.00507836,0.00422334,0.0,0.0,-0.152718,1,0,0,0,0,0
18204000,-0.0303539,0.0116639,0.00823861,0.0,0.999859,-0.0152,0.00576869,0.00420725,0.0,0.0,-0.215283,1,0,0,0,0,0
18300000,-0.0216942,0.00912799,0.00823861,0.0,0.999922,-0.0108655,0.00451899,0.00416851,0.0,0.0,-0.283149,1,0,0,0,0,0
18392000,-0.0179695,0.00602376,0.00823861,0.0,0.999946,-0.00899691,0.00297472,0.00414617,0.0,0.0,-0.348967,1,0,0,0,0,0
18484000,-0.0152846,0.00330954,0.00823861,0.0,0.999961,-0.00764894,0.00162323,0.00413181,0.0,0.0,-0.415762,1,0,0,0,0,0
18580000,-0.011794,0.00382479,0.00823861,0.0,0.999972,-0.00590476,0.00188806,0.00413049,0.0,0.0,-0.488896,1,0,0,0,0,0
18672000,-0.0104265,0.00234292,0.00823861,0.0,0.999977,-0.00521799,0.00114996,0.00412534,0.0,0.0,-0.544788,1,0,0,0,0,0
18764000,-0.00612481,0.000626266,0.00823861,0.0,0.999987,-0.00306366,0.000300514,0.00412023,0.0,0.0,-0.553056,1,0,0,0,0,0
18860000,-0.00178036,6.36418e-05,0.00823861,0.0,0.999991,-0.000890305,2.81537e-05,0.00411932,0.0,0.0,-0.558821,1,0,0,0,0,0
18952000,0.000904113,-0.000764871,0.00823861,0.0,0.999991,0.000453628,-0.00038057,0.00411946,0.0,0.0,-0.556062,1,0,0,0,0,0
19044000,0.00438044,-0.00189351,0.00823861,0.0,0.999989,0.0021941,-0.000937725,0.00412135,0.0,0.0,-0.553421,1,0,0,0,0,0
19140000,0.00337775,-0.00213036,0.00823861,0.0,0.99999,0.00169325,-0.00105821,0.00412108,0.0,0.0,-0.560821,1,0,0,0,0,0
19232000,0.00479474,-0.00199857,0.00823861,0.0,0.999988,0.00240146,-0.000989396,0.00412167,0.0,0.0,-0.557611,1,0,0,0,0,0
19324000,0.00501837,-0.00254259,0.00823861,0.0,0.999988,0.00251439,-0.00126094,0.00412247,0.0,0.0,-0.555607,1,0,0,0,0,0
19420000,0.00490372,-0.00188098,0.00823861,0.0,0.999988,0.00245571,-0.00093038,0.00412159,0.0,0.0,-0.561837,1,0,0,0,0,0
19512000,0.00386513,-0.00140373,0.00823861,0.0,0.999989,0.00193544,-0.000693895,0.00412064,0.0,0.0,-0.55826,1,0,0,0,0,0
19604000,0.00439885,-0.000477685,0.00823861,0.0,0.999989,0.00220039,-0.00022978,0.00411981,0.0,0.0,-0.557489,1,0,0,0,0,0
19700000,0.00451883,0.000190792,0.00823861,0.0,0.999989,0.002259,0.000104702,0.00411907,0.0,0.0,-0.564379,1,0,0,0,0,0
19792000,0.0037963,-0.000265611,0.00823861,0.0,0.99999,0.00189868,-0.000124985,0.00411954,0.0,0.0,-0.560589,1,0,0,0,0,0
19884000,0.00403889,-0.000709527,0.00823861,0.0,0.999989,0.00202089,-0.000346441,0.00412,0.0,0.0,-0.558115,1,0,0,0,0,0
19980000,0.00463953,0.000236925,0.00823861,0.0,0.999989,0.00231926,0.000128017,0.00411901,0.0,0.0,-0.563292,1,0,0,0,0,0
20072000,0.00305442,5.21013e-05,0.00823861,0.0,0.99999,0.00152709,3.23414e-05,0.00411925,0.0,0.0,-0.558532,1,0,0,0,0,0
20164000,0.00320072,-0.000404524,0.00823861,0.0,0.99999,0.00160118,-0.000195668,0.00411961,0.0,0.0,-0.555924,1,0,0,0,0,0
20260000,0.00263354,-0.000165925,0.00823861,0.0,0.999991,0.0013171,-7.75376e-05,0.0041194,0.0,0.0,-0.561785,1,0,0,0,0,0
20352000,0.0020675,-0.000917359,0.00823861,0.0,0.999991,0.00103563,-0.000454417,0.00411976,0.0,0.0,-0.55857,1,0,0,0,0,0
20444000,0.000603191,-0.000473751,0.00823861,0.0,0.999991,0.000302568,-0.000235631,0.00411936,0.0,0.0,-0.55554,1,0,0,0,0,0
20540000,-0.000685715,-0.000293589,0.00823861,0.0,0.999991,-0.00034225,-0.000148206,0.00411924,0.0,0.0,-0.551764,1,0,0,0,0,0
20632000,-5.85827e-05,-7.65347e-05,0.00823861,0.0,0.999992,-2.91334e-05,-3.83877e-05,0.00411929,0.0,0.0,-0.454631,1,0,0,0,0,0
20724000,0.000459439,0.00121927,0.00823861,0.0,0.999991,0.000227206,0.000610574,0.00411915,0.0,0.0,-0.439386,1,0,0,0,0,0
20820000,0.000252817,0.0013033,0.00823861,0.0,0.999991,0.000123723,0.000652167,0.00411921,0.0,0.0,-0.449873,1,0,0,0,0,0
20912000,-4.49684e-05,0.000484299,0.00823861,0.0,0.999991,-2.34815e-05,0.000242055,0.0041193,0.0,0.0,-0.450548,1,0,0,0,0,0
21004000,0.000774369,5.24636e-05,0.00823861,0.0,0.999991,0.000387073,2.78265e-05,0.00411928,0.0,0.0,-0.449208,1,0,0,0,0,0
21100000,0.000611082,0.000394342,0.00823861,0.0,0.999991,0.000304726,0.000198428,0.00411923,0.0,0.0,-0.456978,1,0,0,0,0,0
21192000,8.61337e-05,0.000580205,0.00823861,0.0,0.999991,4.18715e-05,0.000290277,0.00411928,0.0,0.0,-0.45503,1,0,0,0,0,0
21284000,-0.00100018,0.000450401,0.00823861,0.0,0.999991,-0.000501016,0.000223139,0.0041194,0.0,0.0,-0.455089,1,0,0,0,0,0
21380000,-0.00169036,0.00010265,0.00823861,0.0,0.999991,-0.000845382,4.78429e-05,0.00411933,0.0,0.0,-0.465821,1,0,0,0,0,0
21472000,-0.000695445,0.000462162,0.00823861,0.0,0.999991,-0.000348671,0.000229647,0.00411937,0.0,0.0,-0.465402,1,0,0,0,0,0
21564000,-0.000123727,0.000383642,0.00823861,0.0,0.999991,-6.26531e-05,0.000191565,0.0041193,0.0,0.0,-0.464818,1,0,0,0,0,0
21660000,0.000341259,0.000693812,0.00823861,0.0,0.999991,0.000169199,0.000347606,0.00411923,0.0,0.0,-0.474798,1,0,0,0,0,0
21752000,0.00208636,-0.000814052,0.00823861,0.0,0.999991,0.00104485,-0.000402725,0.00411971,0.0,0.0,-0.47353,1,0,0,0,0,0
21844000,0.000679889,-0.000656469,0.00823861,0.0,0.999991,0.000341293,-0.000326832,0.0041194,0.0,0.0,-0.472513,1,0,0,0,0,0
21940000,0.0012858,-0.00139988,0.00823861,0.0,0.999991,0.000645778,-0.000697287,0.00411974,0.0,0.0,-0.481096,1,0,0,0,0,0
22032000,0.000346024,-0.00067151,0.00823861,0.0,0.999991,0.000174394,-0.000335039,0.00411935,0.0,0.0,-0.478477,1,0,0,0,0,0
22124000,0.0010763,-0.00063545,0.00823861,0.0,0.999991,0.000539452,-0.000315506,0.00411946,0.0,0.0,-0.477136,1,0,0,0,0,0
22220000,0.000606228,-0.00101625,0.00823861,0.0,0.999991,0.000305205,-0.000506872,0.00411945,0.0,0.0,-0.485271,1,0,0,0,0,0
22312000,-4.26856e-05,-0.00158377,0.00823861,0.0,0.999991,-1.80806e-05,-0.000791965,0.00411927,0.0,0.0,-0.482499,1,0,0,0,0,0
22404000,0.000246093,-0.00224552,0.00823861,0.0,0.999991,0.00012767,-0.00112224,0.00411943,0.0,0.0,-0.481664,1,0,0,0,0,0
22500000,0.00189467,-0.00125352,0.00823861,0.0,0.999991,0.000949906,-0.00062285,0.00411988,0.0,0.0,-0.489496,1,0,0,0,0,0
22592000,0.00285929,-0.00219758,0.00823861,0.0,0.99999,0.00143416,-0.00109289,0.00412086,0.0,0.0,-0.487199,1,0,0,0,0,0
22684000,0.00274176,-0.00196305,0.00823861,0.0,0.99999,0.00137491,-0.000975866,0.00412063,0.0,0.0,-0.484734,1,0,0,0,0,0
22780000,0.000670683,-0.00169281,0.00823861,0.0,0.999991,0.000338825,-0.000845017,0.00411957,0.0,0.0,-0.492271,1,0,0,0,0,0
22872000,-0.000575657,-0.000789634,0.00823861,0.0,0.999991,-0.0002862,-0.000395999,0.00411918,0.0,0.0,-0.489531,1,0,0,0,0,0
22964000,0.000670559,-0.00162318,0.00823861,0.0,0.999991,0.00033862,-0.000810203,0.00411956,0.0,0.0,-0.486098,1,0,0,0,0,0
23060000,0.00124449,-0.000118838,0.00823861,0.0,0.999991,0.000622486,-5.68552e-05,0.00411933,0.0,0.0,-0.492733,1,0,0,0,0,0
23152000,0.00183258,-0.000646168,0.00823861,0.0,0.999991,0.000917614,-0.000319307,0.00411959,0.0,0.0,-0.489548,1,0,0,0,0,0
23244000,0.00180429,0.000192004,0.00823861,0.0,0.999991,0.000901742,9.97173e-05,0.0041192,0.0,0.0,-0.486067,1,0,0,0,0,0
23340000,0.00212915,-0.000807588,0.00823861,0.0,0.999991,0.00106623,-0.000399405,0.00411972,0.0,0.0,-0.494397,1,0,0,0,0,0
23432000,0.00323355,-0.000908682,0.00823861,0.0,0.99999,0.00161863,-0.000447677,0.00412002,0.0,0.0,-0.491085,1,0,0,0,0,0
23524000,0.00182964,0.000238336,0.00823861,0.0,0.999991,0.000914319,0.000122936,0.00411918,0.0,0.0,-0.487073,1,0,0,0,0,0
23620000,0.0011285,-0.00024414,0.00823861,0.0,0.999991,0.000564746,-0.000119745,0.00411936,0.0,0.0,-0.493713,1,0,0,0,0,0
23712000,0.000526986,-0.000585106,0.00823861,0.0,0.999991,0.000264696,-0.000291465,0.00411937,0.0,0.0,-0.490109,1,0,0,0,0,0
23804000,0.00112969,-0.00121173,0.00823861,0.0,0.999991,0.000567334,-0.000603531,0.00411963,0.0,0.0,-0.487294,1,0,0,0,0,0
23900000,0.00172824,0.000411829,0.00823861,0.0,0.999991,0.000863263,0.000209472,0.00411911,0.0,0.0,-0.49541,1,0,0,0,0,0
23992000,0.000287851,0.00216637,0.00823861,0.0,0.999991,0.000139462,0.00108377,0.00411913,0.0,0.0,-0.491744,1,0,0,0,0,0
24084000,0.000164428,0.0030357,0.00823861,0.0,0.99999,7.59606e-05,0.00151818,0.00411916,0.0,0.0,-0.488838,1,0,0,0,0,0
24180000,-0.00149114,0.00308709,0.00823861,0.0,0.99999,-0.000751922,0.00154046,0.00412044,0.0,0.0,-0.495997,1,0,0,0,0,0
24272000,-0.00189478,0.00338048,0.00823861,0.0,0.99999,-0.000954341,0.00168632,0.00412089,0.0,0.0,-0.493314,1,0,0,0,0,0
24364000,-0.00194922,0.00302301,0.00823861,0.0,0.99999,-0.000980829,0.00150748,0.00412076,0.0,0.0,-0.488668,1,0,0,0,0,0
24460000,-0.00331225,0.00261113,0.00823861,0.0,0.999989,-0.00166149,0.00129873,0.00412145,0.0,0.0,-0.495785,1,0,0,0,0,0
24552000,-0.00243125,0.00305104,0.00823861,0.0,0.99999,-0.0012219,0.0015205,0.00412114,0.0,0.0,-0.491903,1,0,0,0,0,0
24644000,-0.00235347,0.00246755,0.00823861,0.0,0.99999,-0.00118181,0.00122892,0.00412074,0.0,0.0,-0.488976,1,0,0,0,0,0
24740000,-0.00398478,0.00241701,0.00823861,0.0,0.999989,-0.00199735,0.00120029,0.00412169,0.0,0.0,-0.496578,1,0,0,0,0,0
24832000,-0.0042572,0.00186844,0.00823861,0.0,0.999989,-0.00213243,0.000925439,0.00412127,0.0,0.0,-0.492217,1,0,0,0,0,0
24924000,-0.00463284,0.00346111,0.00823861,0.0,0.999987,-0.00232352,0.00172099,0.00412328,0.0,0.0,-0.488377,1,0,0,0,0,0
25020000,-0.00424327,0.00394085,0.00823861,0.0,0.999987,-0.00212973,0.00196167,0.00412346,0.0,0.0,-0.495696,1,0,0,0,0,0
25112000,-0.00461656,0.00301038,0.00823861,0.0,0.999988,-0.00231445,0.00149567,0.00412275,0.0,0.0,-0.499958,1,0,0,0,0,0
25204000,-0.00469018,0.00306701,0.00823861,0.0,0.999988,-0.00235138,0.00152383,0.00412287,0.0,0.0,-0.530722,1,0,0,0,0,0
25300000,-0.00396049,0.00134849,0.00823861,0.0,0.999989,-0.001983,0.00066608,0.00412062,0.0,0.0,-0.583406,1,0,0,0,0,0
25392000,-0.00366805,0.00120384,0.00823861,0.0,0.99999,-0.00183649,0.00059436,0.00412039,0.0,0.0,-0.616287,1,0,0,0,0,0
25484000,-0.00311729,0.00124792,0.00823861,0.0,0.99999,-0.0015612,0.000617536,0.00412026,0.0,0.0,-0.644185,1,0,0,0,0,0
25580000,-0.00290882,0.00106955,0.00823861,0.0,0.99999,-0.0014566,0.00052878,0.00412007,0.0,0.0,-0.672435,1,0,0,0,0,0
25672000,-0.0034325,0.000903368,0.00823861,0.0,0.99999,-0.00171809,0.00044461,0.00412006,0.0,0.0,-0.628864,1,0,0,0,0,0
25764000,-0.00347318,0.00161653,0.00823861,0.0,0.99999,-0.0017399,0.000801102,0.00412069,0.0,0.0,-0.58283,1,0,0,0,0,0
25860000,-0.00348272,0.0027193,0.00823861,0.0,0.999989,-0.00174694,0.00135246,0.00412165,0.0,0.0,-0.515425,1,0,0,0,0,0
25952000,-0.00468527,0.00452894,0.00823861,0.0,0.999986,-0.00235194,0.00225479,0.00412458,0.0,0.0,-0.501265,1,0,0,0,0,0
26044000,-0.00380624,0.00344171,0.00823861,0.0,0.999988,-0.00191019,0.001713,0.00412255,0.0,0.0,-0.501186,1,0,0,0,0,0
26140000,-0.00235442,0.00503256,0.00823861,0.0,0.999988,-0.00118756,0.00251141,0.00412224,0.0,0.0,-0.499911,1,0,0,0,0,0
26232000,-0.00242661,0.00549227,0.00823861,0.0,0.999987,-0.0012246,0.00274111,0.00412261,0.0,0.0,-0.497791,1,0,0,0,0,0
26324000,-0.00152933,0.00492225,0.00823861,0.0,0.999988,-0.000774794,0.00245795,0.00412116,0.0,0.0,-0.495709,1,0,0,0,0,0
26420000,-0.00322701,0.00453602,0.00823861,0.0,0.999988,-0.00162283,0.00226134,0.00412294,0.0,0.0,-0.494201,1,0,0,0,0,0
26512000,-0.00363833,0.00554934,0.00823861,0.0,0.999986,-0.00183057,0.00276715,0.00412432,0.0,0.0,-0.493984,1,0,0,0,0,0
26604000,-0.0034507,0.00454683,0.00823861,0.0,0.999987,-0.00173469,0.00226628,0.0041232,0.0,0.0,-0.493653,1,0,0,0,0,0
26700000,-0.003699,0.00573938,0.00823861,0.0,0.999986,-0.0018613,0.00286204,0.00412458,0.0,0.0,-0.492102,1,0,0,0,0,0
26792000,-0.00344595,0.00593734,0.00823861,0.0,0.999986,-0.00173518,0.00296154,0.00412438,0.0,0.0,-0.491895,1,0,0,0,0,0
26884000,-0.00401875,0.00438959,0.00823861,0.0,0.999987,-0.00201839,0.00218649,0.00412368,0.0,0.0,-0.49263,1,0,0,0,0,0
26980000,-0.00447513,0.00472467,0.00823861,0.0,0.999986,-0.00224727,0.00235309,0.00412456,0.0,0.0,-0.492528,1,0,0,0,0,0
27072000,-0.00356683,0.00549246,0.00823861,0.0,0.999986,-0.00179471,0.00273885,0.00412417,0.0,0.0,-0.491937,1,0,0,0,0,0
27164000,-0.00361894,0.00529931,0.00823861,0.0,0.999986,-0.00182036,0.00264217,0.00412407,0.0,0.0,-0.493197,1,0,0,0,0,0
27260000,-0.00418112,0.00613532,0.00823861,0.0,0.999985,-0.00210317,0.00305901,0.00412568,0.0,0.0,-0.491959,1,0,0,0,0,0
27352000,-0.00266954,0.00610495,0.00823861,0.0,0.999986,-0.00134732,0.00304694,0.00412334,0.0,0.0,-0.492635,1,0,0,0,0,0
27444000,-0.00367218,0.00416243,0.00823861,0.0,0.999988,-0.00184464,0.00207363,0.0041231,0.0,0.0,-0.494094,1,0,0,0,0,0
27540000,-0.00396015,0.00362954,0.00823861,0.0,0.999988,-0.00198753,0.00180659,0.00412287,0.0,0.0,-0.49526,1,0,0,0,0,0
27632000,-0.00323151,0.00352239,0.00823861,0.0,0.999989,-0.00162299,0.00175452,0.00412213,0.0,0.0,-0.495027,1,0,0,0,0,0
27724000,-0.00233526,0.00266395,0.00823861,0.0,0.99999,-0.00117311,0.00132715,0.00412084,0.0,0.0,-0.495094,1,0,0,0,0,0
27820000,-0.00200584,0.0030784,0.00823861,0.0,0.99999,-0.00100925,0.00153506,0.00412083,0.0,0.0,-0.494656,1,0,0,0,0,0
27912000,-0.00103348,0.0034425,0.00823861,0.0,0.99999,-0.000523827,0.00171911,0.00412018,0.0,0.0,-0.494392,1,0,0,0,0,0
28004000,-0.00148302,0.00238153,0.00823861,0.0,0.999991,-0.000746407,0.0011877,0.00412017,0.0,0.0,-0.496101,1,0,0,0,0,0
28100000,-0.00279315,0.00275658,0.00823861,0.0,0.99999,-0.00140224,0.00137252,0.00412121,0.0,0.0,-0.496224,1,0,0,0,0,0
28192000,-0.00281136,0.00239339,0.00823861,0.0,0.99999,-0.00141059,0.00119089,0.00412097,0.0,0.0,-0.495812,1,0,0,0,0,0
28284000,-0.00344333,0.00150454,0.00823861,0.0,0.99999,-0.00172475,0.000745168,0.00412058,0.0,0.0,-0.495741,1,0,0,0,0,0
28380000,-0.00257887,0.00271984,0.00823861,0.0,0.99999,-0.00129503,0.00135459,0.00412104,0.0,0.0,-0.496561,1,0,0,0,0,0
28472000,-0.0032988,0.00407652,0.00823861,0.0,0.999988,-0.00165778,0.00203144,0.00412264,0.0,0.0,-0.496364,1,0,0,0,0,0
28564000,-0.00337926,0.00284863,0.00823861,0.0,0.999989,-0.00169548,0.00141734,0.00412169,0.0,0.0,-0.49671,1,0,0,0,0,0
28660000,-0.00257921,0.00234653,0.00823861,0.0,0.99999,-0.00129443,0.00116794,0.0041208,0.0,0.0,-0.49561,1,0,0,0,0,0
28752000,-0.00186856,0.00151527,0.00823861,0.0,0.999991,-0.000937393,0.00075378,0.00412,0.0,0.0,-0.494897,1,0,0,0,0,0
28844000,-0.00204821,0.00159892,0.00823861,0.0,0.999991,-0.00102739,0.000795234,0.00412011,0.0,0.0,-0.49594,1,0,0,0,0,0
28940000,-0.00237185,0.000253154,0.00823861,0.0,0.999991,-0.00118643,0.000121691,0.00411944,0.0,0.0,-0.495287,1,0,0,0,0,0
29036000,-0.00395649,0.00160104,0.00823861,0.0,0.999989,-0.00198153,0.000792361,0.00412087,0.0,0.0,-0.495447,1,0,0,0,0,0
29128000,-0.00313508,0.0010207,0.00823861,0.0,0.99999,-0.00156963,0.000503886,0.00412009,0.0,0.0,-0.495366,1,0,0,0,0,0
29220000,-0.00191312,0.00233132,0.00823861,0.0,0.99999,-0.000961354,0.00116171,0.0041204,0.0,0.0,-0.488808,1,0,0,0,0,0
29316000,-0.00153557,0.00260514,0.00823861,0.0,0.99999,-0.000773143,0.0012994,0.00412029,0.0,0.0,-0.500896,1,0,0,0,0,0
29408000,-0.000271494,0.00097309,0.00823861,0.0,0.999991,-0.00013775,0.000485982,0.00411936,0.0,0.0,-0.494004,1,0,0,0,0,0
29500000,-0.00348323,0.0007251,0.00823861,0.0,0.99999,-0.00174309,0.000355372,0.00411992,0.0,0.0,-0.487918,1,0,0,0,0,0
29596000,-0.00241776,0.000604902,0.00823861,0.0,0.999991,-0.00121011,0.000297468,0.00411966,0.0,0.0,-0.502169,1,0,0,0,0,0
29688000,-0.00288416,0.000525522,0.00823861,0.0,0.99999,-0.00144315,0.000256818,0.00411967,0.0,0.0,-0.49726,1,0,0,0,0,0
29780000,-0.00482776,0.000399887,0.00823861,0.0,0.999989,-0.00241468,0.000189998,0.00411976,0.0,0.0,-0.49352,1,0,0,0,0,0
29876000,-0.00545426,-0.000102243,0.00823861,0.0,0.999988,-0.00272689,-6.23545e-05,0.00411914,0.0,0.0,-0.504369,1,0,0,0,0,0
29968000,-0.00535772,0.00201499,0.00823861,0.0,0.999987,-0.00268298,0.000996448,0.00412198,0.0,0.0,-0.497875,1,0,0,0,0,0
30060000,-0.0040282,0.00111163,0.00823861,0.0,0.999989,-0.00201637,0.00054751,0.0041204,0.0,0.0,-0.490354,1,0,0,0,0,0
30156000,-0.00342078,0.000207611,0.00823861,0.0,0.99999,-0.0017108,9.67588e-05,0.00411946,0.0,0.0,-0.500122,1,0,0,0,0,0
30248000,-0.00246794,0.00185523,0.00823861,0.0,0.99999,-0.00123778,0.000922526,0.00412043,0.0,0.0,-0.496745,1,0,0,0,0,0
30340000,-0.00262472,0.00236053,0.00823861,0.0,0.99999,-0.00131721,0.00117485,0.00412084,0.0,0.0,-0.49001,1,0,0,0,0,0
30436000,-0.00242955,0.00208721,0.00823861,0.0,0.99999,-0.00121906,0.00103859,0.00412055,0.0,0.0,-0.500038,1,0,0,0,0,0
30528000,-0.000920469,0.00157692,0.00823861,0.0,0.999991,-0.000463478,0.000786557,0.00411965,0.0,0.0,-0.49552,1,0,0,0,0,0
30620000,-4.34674e-05,0.000206837,0.00823861,0.0,0.999992,-2.21595e-05,0.000103328,0.00411929,0.0,0.0,-0.488934,1,0,0,0,0,0
30716000,0.000283966,-0.000113114,0.00823861,0.0,0.999991,0.000142215,-5.59719e-05,0.0041193,0.0,0.0,-0.501921,1,0,0,0,0,0
30808000,8.06938e-05,-0.000448992,0.00823861,0.0,0.999991,4.12713e-05,-0.000224328,0.0041193,0.0,0.0,-0.495051,1,0,0,0,0,0
30900000,-0.000878997,-0.000496969,0.00823861,0.0,0.999991,-0.000438471,-0.000250293,0.00411918,0.0,0.0,-0.487979,1,0,0,0,0,0
30996000,-0.00020227,0.000884557,0.00823861,0.0,0.999991,-0.000102956,0.000441858,0.00411934,0.0,0.0,-0.490116,1,0,0,0,0,0
31092000,0.000339132,0.000312581,0.00823861,0.0,0.999991,0.000168921,0.000156987,0.00411927,0.0,0.0,-0.501968,1,0,0,0,0,0
31184000,-0.000631484,0.000383527,0.00823861,0.0,0.999991,-0.000316529,0.000190461,0.00411935,0.0,0.0,-0.494677,1,0,0,0,0,0
31276000,0.000573245,-0.000761199,0.00823861,0.0,0.999991,0.000288188,-0.000379415,0.0041194,0.0,0.0,-0.489941,1,0,0,0,0,0
31372000,0.00150319,-0.0011957,0.00823861,0.0,0.999991,0.000754051,-0.000594747,0.00411974,0.0,0.0,-0.501915,1,0,0,0,0,0
31464000,0.000896782,-0.00039498,0.00823861,0.0,0.999991,0.000449201,-0.000195641,0.00411938,0.0,0.0,-0.496492,1,0,0,0,0,0
31556000,0.000362544,-0.000584237,0.00823861,0.0,0.999991,0.000182474,-0.000291369,0.00411935,0.0,0.0,-0.491485,1,0,0,0,0,0
31652000,0.000213458,-0.000444612,0.00823861,0.0,0.999991,0.000107644,-0.000221864,0.00411932,0.0,0.0,-0.503455,1,0,0,0,0,0
31744000,0.000344476,-0.00105485,0.00823861,0.0,0.999991,0.000174409,-0.000526713,0.00411938,0.0,0.0,-0.496466,1,0,0,0,0,0
31836000,6.5136e-05,0.000288148,0.00823861,0.0,0.999992,3.19742e-05,0.000144207,0.00411929,0.0,0.0,-0.489826,1,0,0,0,0,0
31932000,-0.00122316,-0.000416315,0.00823861,0.0,0.999991,-0.000610718,-0.000210675,0.00411916,0.0,0.0,-0.503496,1,0,0,0,0,0
32024000,-0.00246002,0.00201013,0.00823861,0.0,0.99999,-0.00123414,0.000999989,0.00412052,0.0,0.0,-0.496528,1,0,0,0,0,0
32116000,-0.00304039,0.00284875,0.00823861,0.0,0.999989,-0.00152605,0.0014181,0.00412145,0.0,0.0,-0.489413,1,0,0,0,0,0
32212000,-0.00401155,0.00328523,0.00823861,0.0,0.999988,-0.00201252,0.00163433,0.00412257,0.0,0.0,-0.501667,1,0,0,0,0,0
32304000,-0.00530499,0.00335591,0.00823861,0.0,0.999987,-0.00265938,0.00166701,0.00412372,0.0,0.0,-0.496457,1,0,0,0,0,0
32396000,-0.00435725,0.00347637,0.00823861,0.0,0.999988,-0.00218576,0.00172919,0.00412306,0.0,0.0,-0.490525,1,0,0,0,0,0
32492000,-0.00489629,0.00317442,0.00823861,0.0,0.999987,-0.00245466,0.00157711,0.00412316,0.0,0.0,-0.502592,1,0,0,0,0,0
32584000,-0.00454019,0.00203583,0.00823861,0.0,0.999988,-0.00227426,0.00100855,0.00412159,0.0,0.0,-0.497134,1,0,0,0,0,0
32676000,-0.00353673,0.0027061,0.00823861,0.0,0.999989,-0.00177392,0.00134575,0.00412167,0.0,0.0,-0.489903,1,0,0,0,0,0
32772000,-0.00202134,0.00148087,0.00823861,0.0,0.999991,-0.00101371,0.000736266,0.00412004,0.0,0.0,-0.503297,1,0,0,0,0,0
32864000,-0.00223833,0.00175524,0.00823861,0.0,0.99999,-0.00112277,0.000873,0.00412027,0.0,0.0,-0.496825,1,0,0,0,0,0
32956000,-0.00284072,0.00263145,0.00823861,0.0,0.99999,-0.00142576,0.00130986,0.00412115,0.0,0.0,-0.488614,1,0,0,0,0,0
33052000,-0.00238441,0.0028277,0.00823861,0.0,0.99999,-0.00119802,0.00140893,0.00412097,0.0,0.0,-0.502303,1,0,0,0,0,0
33144000,-0.00368015,0.00469702,0.00823861,0.0,0.999987,-0.00184973,0.0023409,0.0041236,0.0,0.0,-0.497429,1,0,0,0,0,0
33236000,-0.00254023,0.00373268,0.00823861,0.0,0.999989,-0.00127779,0.00186109,0.00412165,0.0,0.0,-0.491199,1,0,0,0,0,0
33332000,-0.00222871,0.00541167,0.00823861,0.0,0.999987,-0.00112549,0.00270122,0.00412229,0.0,0.0,-0.501185,1,0,0,0,0,0
33424000,-0.00301045,0.0056023,0.00823861,0.0,0.999986,-0.00151674,0.00279492,0.00412349,0.0,0.0,-0.497153,1,0,0,0,0,0
33516000,-0.0054347,0.00394686,0.00823861,0.0,0.999986,-0.00272545,0.00196221,0.00412463,0.0,0.0,-0.489893,1,0,0,0,0,0
33612000,-0.00492132,0.00494483,0.00823861,0.0,0.999985,-0.00247081,0.00246225,0.00412535,0.0,0.0,-0.501491,1,0,0,0,0,0
33704000,-0.00496151,0.00573253,0.00823861,0.0,0.999984,-0.00249253,0.00285601,0.00412637,0.0,0.0,-0.498079,1,0,0,0,0,0
33796000,-0.00659532,0.00604692,0.00823861,0.0,0.999982,-0.00331007,0.00300983,0.00412922,0.0,0.0,-0.492527,1,0,0,0,0,0
33892000,-0.00638102,0.00573164,0.00823861,0.0,0.999982,-0.00320227,0.00285263,0.0041284,0.0,0.0,-0.50034,1,0,0,0,0,0
33984000,-0.00513813,0.00469884,0.00823861,0.0,0.999985,-0.00257871,0.00233881,0.0041253,0.0,0.0,-0.497874,1,0,0,0,0,0
34076000,-0.00297474,0.00487411,0.00823861,0.0,0.999987,-0.00149739,0.0024309,0.0041229,0.0,0.0,-0.491892,1,0,0,0,0,0
34172000,-0.00298622,0.00380259,0.00823861,0.0,0.999989,-0.00150093,0.00189512,0.00412212,0.0,0.0,-0.498869,1,0,0,0,0,0
34264000,-0.00313913,0.00187784,0.00823861,0.0,0.99999,-0.00157342,0.000932443,0.00412076,0.0,0.0,-0.497745,1,0,0,0,0,0
34356000,-0.00232849,0.000821579,0.00823861,0.0,0.999991,-0.00116593,0.00040599,0.00411977,0.0,0.0,-0.490461,1,0,0,0,0,0
34452000,-0.00328962,0.00148132,0.00823861,0.0,0.99999,-0.00164785,0.000733879,0.0041205,0.0,0.0,-0.498243,1,0,0,0,0,0
34544000,-0.00395605,0.00252318,0.00823861,0.0,0.999989,-0.0019832,0.00125343,0.00412178,0.0,0.0,-0.497097,1,0,0,0,0,0
34636000,-0.00201937,0.00132312,0.00823861,0.0,0.999991,-0.0010124,0.000657392,0.00411996,0.0,0.0,-0.491385,1,0,0,0,0,0
34732000,-0.00198243,0.000558686,0.00823861,0.0,0.999991,-0.000992355,0.000275257,0.00411957,0.0,0.0,-0.498686,1,0,0,0,0,0
34824000,-0.00177211,-0.000616849,0.00823861,0.0,0.999991,-0.000884775,-0.000312072,0.00411902,0.0,0.0,-0.497029,1,0,0,0,0,0
34916000,-0.00194293,-0.000858145,0.00823861,0.0,0.999991,-0.000969688,-0.00043307,0.00411887,0.0,0.0,-0.489362,1,0,0,0,0,0
35012000,-0.0010386,-0.000869208,0.00823861,0.0,0.999991,-0.000517503,-0.00043674,0.00411907,0.0,0.0,-0.49889,1,0,0,0,0,0
35104000,-0.000893228,0.000189564,0.00823861,0.0,0.999991,-0.000447001,9.29413e-05,0.00411933,0.0,0.0,-0.498188,1,0,0,0,0,0
35196000,-0.000698549,0.00045796,0.00823861,0.0,0.999991,-0.000350215,0.000227539,0.00411937,0.0,0.0,-0.490326,1,0,0,0,0,0
35292000,-0.00147345,-0.0002754,0.00823861,0.0,0.999991,-0.000736152,-0.000140733,0.00411919,0.0,0.0,-0.497724,1,0,0,0,0,0
35384000,-0.000587588,0.00158399,0.00823861,0.0,0.999991,-0.000297054,0.000790779,0.00411952,0.0,0.0,-0.497472,1,0,0,0,0,0
35476000,0.000207557,-0.000294806,0.00823861,0.0,0.999991,0.000104385,-0.000146974,0.00411931,0.0,0.0,-0.491691,1,0,0,0,0,0
35572000,-0.00104777,0.000119668,0.00823861,0.0,0.999991,-0.000524128,5.76753e-05,0.00411932,0.0,0.0,-0.498523,1,0,0,0,0,0
35664000,-0.00239759,-0.00131471,0.00823861,0.0,0.999991,-0.00119608,-0.000662288,0.0041185,0.0,0.0,-0.497932,1,0,0,0,0,0
35756000,-0.0025979,-0.000117185,0.00823861,0.0,0.999991,-0.0012987,-6.39426e-05,0.00411921,0.0,0.0,-0.490991,1,0,0,0,0,0
35852000,-0.000950098,-0.000172616,0.00823861,0.0,0.999991,-0.000474689,-8.82642e-05,0.00411925,0.0,0.0,-0.497977,1,0,0,0,0,0
35944000,-0.000905741,-0.00105012,0.00823861,0.0,0.999991,-0.000450704,-0.000526923,0.00411905,0.0,0.0,-0.497362,1,0,0,0,0,0
36036000,0.000354272,-0.00250939,0.00823861,0.0,0.999991,0.000182303,-0.00125395,0.00411951,0.0,0.0,-0.493262,1,0,0,0,0,0
36132000,0.00110336,-0.00148135,0.00823861,0.0,0.999991,0.000554724,-0.000738397,0.0041197,0.0,0.0,-0.499136,1,0,0,0,0,0
36224000,-0.000530617,-0.000465003,0.00823861,0.0,0.999991,-0.000264348,-0.000233592,0.00411923,0.0,0.0,-0.497891,1,0,0,0,0,0
36316000,-0.00127426,-0.000203204,0.00823861,0.0,0.999991,-0.000636708,-0.000104226,0.00411923,0.0,0.0,-0.489857,1,0,0,0,0,0
36412000,-0.000979189,-0.000621013,0.00823861,0.0,0.999991,-0.000488311,-0.00031252,0.00411914,0.0,0.0,-0.49938,1,0,0,0,0,0
36504000,-0.00164564,0.000205782,0.00823861,0.0,0.999991,-0.000823236,9.95005e-05,0.00411938,0.0,0.0,-0.494787,1,0,0,0,0,0
36596000,-0.00105747,0.000432853,0.00823861,0.0,0.999991,-0.000529621,0.000214246,0.00411941,0.0,0.0,-0.489278,1,0,0,0,0,0
36692000,-0.00102614,0.000566605,0.00823861,0.0,0.999991,-0.000514231,0.000281187,0.00411944,0.0,0.0,-0.502423,1,0,0,0,0,0
36784000,-0.00133602,0.000288159,0.00823861,0.0,0.999991,-0.0006686,0.000141326,0.00411939,0.0,0.0,-0.494397,1,0,0,0,0,0
36876000,-0.00178621,-0.000394951,0.00823861,0.0,0.999991,-0.000892284,-0.000201153,0.00411911,0.0,0.0,-0.489825,1,0,0,0,0,0
36972000,-0.00189252,-7.36554e-05,0.00823861,0.0,0.999991,-0.000946101,-4.07253e-05,0.00411926,0.0,0.0,-0.503004,1,0,0,0,0,0
37064000,-0.00157759,0.000521413,0.00823861,0.0,0.999991,-0.00078986,0.000257455,0.0041195,0.0,0.0,-0.497791,1,0,0,0,0,0
37156000,-0.00197406,0.000968576,0.00823861,0.0,0.999991,-0.000989016,0.000480218,0.00411977,0.0,0.0,-0.490994,1,0,0,0,0,0
37252000,0.000119216,0.00218907,0.00823861,0.0,0.999991,5.50987e-05,0.00109477,0.00411922,0.0,0.0,-0.501622,1,0,0,0,0,0
37344000,-0.000467265,0.00298847,0.00823861,0.0,0.99999,-0.000239786,0.00149326,0.00411964,0.0,0.0,-0.496483,1,0,0,0,0,0
37436000,-0.00154518,0.00285679,0.00823861,0.0,0.99999,-0.000778468,0.0014252,0.00412039,0.0,0.0,-0.489153,1,0,0,0,0,0
37532000,0.00054122,0.00372047,0.00823861,0.0,0.99999,0.000262944,0.00186133,0.00411878,0.0,0.0,-0.501338,1,0,0,0,0,0
37624000,0.000935556,0.00549783,0.00823861,0.0,0.999988,0.000456448,0.00275081,0.00411799,0.0,0.0,-0.495417,1,0,0,0,0,0
37716000,-0.000176314,0.00531638,0.00823861,0.0,0.999988,-9.91057e-05,0.0026578,0.00411951,0.0,0.0,-0.487392,1,0,0,0,0,0
37812000,0.000225507,0.00435949,0.00823861,0.0,0.999989,0.000103773,0.00218019,0.00411904,0.0,0.0,-0.499866,1,0,0,0,0,0
37904000,0.00131739,0.00551041,0.00823861,0.0,0.999987,0.000647336,0.00275789,0.00411746,0.0,0.0,-0.492629,1,0,0,0,0,0
37996000,0.00130598,0.00592133,0.00823861,0.0,0.999987,0.000640787,0.00296333,0.00411734,0.0,0.0,-0.486668,1,0,0,0,0,0
38092000,0.00102491,0.00267712,0.00823861,0.0,0.99999,0.000506936,0.00134066,0.0041186,0.0,0.0,-0.502391,1,0,0,0,0,0
38184000,0.00066621,0.00186115,0.00823861,0.0,0.999991,0.000329269,0.000931941,0.00411898,0.0,0.0,-0.494311,1,0,0,0,0,0
38276000,-0.000161721,0.00349096,0.00823861,0.0,0.99999,-8.80499e-05,0.00174513,0.00411943,0.0,0.0,-0.487337,1,0,0,0,0,0
38372000,-0.00135247,0.00176496,0.00823861,0.0,0.999991,-0.000679864,0.000879688,0.00411989,0.0,0.0,-0.500795,1,0,0,0,0,0
38464000,-0.00159926,0.00386248,0.00823861,0.0,0.999989,-0.000807577,0.00192793,0.00412083,0.0,0.0,-0.493127,1,0,0,0,0,0
38556000,-0.00342065,0.00435033,0.00823861,0.0,0.999988,-0.00171927,0.0021681,0.004123,0.0,0.0,-0.48812,1,0,0,0,0,0
38652000,-0.00331968,0.00456721,0.00823861,0.0,0.999988,-0.00166923,0.00227674,0.00412307,0.0,0.0,-0.501068,1,0,0,0,0,0
38744000,-0.00240708,0.00364406,0.00823861,0.0,0.999989,-0.00121103,0.00181705,0.00412148,0.0,0.0,-0.49453,1,0,0,0,0,0
38836000,-0.001264,0.00316541,0.00823861,0.0,0.99999,-0.000638511,0.00158009,0.00412029,0.0,0.0,-0.487353,1,0,0,0,0,0
38932000,-0.00188803,0.00328233,0.00823861,0.0,0.99999,-0.000950767,0.00163726,0.00412083,0.0,0.0,-0.500405,1,0,0,0,0,0
39024000,-0.000422859,0.0034914,0.00823861,0.0,0.99999,-0.000218619,0.00174481,0.00411966,0.0,0.0,-0.492686,1,0,0,0,0,0
39116000,-0.000778441,0.0036704,0.00823861,0.0,0.99999,-0.000396776,0.00183358,0.00412,0.0,0.0,-0.488444,1,0,0,0,0,0
39212000,-5.57598e-06,0.00308707,0.00823861,0.0,0.99999,-9.14624e-06,0.00154351,0.00411929,0.0,0.0,-0.502272,1,0,0,0,0,0
39304000,-0.000208345,0.0031114,0.00823861,0.0,0.99999,-0.00011058,0.00155526,0.00411945,0.0,0.0,-0.495505,1,0,0,0,0,0
39396000,-0.000471425,0.00220598,0.00823861,0.0,0.999991,-0.000240254,0.00110201,0.00411955,0.0,0.0,-0.489628,1,0,0,0,0,0
39492000,-0.00134049,0.000769161,0.00823861,0.0,0.999991,-0.000671825,0.000381816,0.00411955,0.0,0.0,-0.50304,1,0,0,0,0,0
39584000,-0.00301291,0.00160975,0.00823861,0.0,0.99999,-0.00150976,0.00079866,0.0041205,0.0,0.0,-0.496859,1,0,0,0,0,0
39676000,-0.00319752,0.00181419,0.00823861,0.0,0.99999,-0.00160248,0.000900499,0.00412074,0.0,0.0,-0.48967,1,0,0,0,0,0
39772000,-0.00372513,0.0016116,0.00823861,0.0,0.999989,-0.00186587,0.000798121,0.00412079,0.0,0.0,-0.502625,1,0,0,0,0,0
39864000,-0.00334906,0.00358588,0.00823861,0.0,0.999988,-0.0016819,0.00178602,0.00412228,0.0,0.0,-0.494455,1,0,0,0,0,0
39956000,-0.00258913,0.00350406,0.00823861,0.0,0.999989,-0.00130177,0.00174668,0.00412155,0.0,0.0,-0.488705,1,0,0,0,0,0
40052000,-0.00189586,0.00324142,0.00823861,0.0,0.99999,-0.000954598,0.00161679,0.00412082,0.0,0.0,-0.501571,1,0,0,0,0,0
40144000,-0.00172356,0.00368993,0.00823861,0.0,0.999989,-0.00086937,0.0018414,0.00412087,0.0,0.0,-0.494183,1,0,0,0,0,0
40236000,-0.00203484,0.00433514,0.00823861,0.0,0.999989,-0.00102634,0.00216336,0.00412149,0.0,0.0,-0.488336,1,0,0,0,0,0
40332000,-0.00304926,0.00340851,0.00823861,0.0,0.999989,-0.00153163,0.00169796,0.00412188,0.0,0.0,-0.503481,1,0,0,0,0,0
40424000,-0.0017173,0.00247494,0.00823861,0.0,0.99999,-0.000863738,0.00123392,0.00412035,0.0,0.0,-0.495551,1,0,0,0,0,0
40516000,-0.00278186,0.00301585,0.00823861,0.0,0.999989,-0.00139713,0.00150218,0.00412138,0.0,0.0,-0.488803,1,0,0,0,0,0
40612000,-0.00148903,0.00343528,0.00823861,0.0,0.99999,-0.000751581,0.00171456,0.00412056,0.0,0.0,-0.501887,1,0,0,0,0,0
40704000,-0.00207219,0.00307181,0.00823861,0.0,0.99999,-0.00104241,0.00153162,0.00412088,0.0,0.0,-0.494393,1,0,0,0,0,0
40796000,-0.00174533,0.002673,0.00823861,0.0,0.99999,-0.000878163,0.00133289,0.00412045,0.0,0.0,-0.489396,1,0,0,0,0,0
40892000,-0.00161804,0.00302078,0.00823861,0.0,0.99999,-0.000815236,0.00150704,0.00412051,0.0,0.0,-0.502119,1,0,0,0,0,0
40984000,-0.00200803,0.00244406,0.00823861,0.0,0.99999,-0.00100904,0.00121788,0.00412051,0.0,0.0,-0.496116,1,0,0,0,0,0
41076000,-0.00266852,0.00223062,0.00823861,0.0,0.99999,-0.00133884,0.00110981,0.00412077,0.0,0.0,-0.4907,1,0,0,0,0,0
41172000,-0.00101142,0.0020613,0.00823861,0.0,0.999991,-0.000509952,0.00102856,0.00411981,0.0,0.0,-0.504383,1,0,0,0,0,0
41264000,-0.00164464,0.00137006,0.00823861,0.0,0.999991,-0.000825132,0.000681634,0.00411985,0.0,0.0,-0.495929,1,0,0,0,0,0
41356000,-0.000450589,0.00155981,0.00823861,0.0,0.999991,-0.000228505,0.000778971,0.00411947,0.0,0.0,-0.489174,1,0,0,0,0,0
41452000,-0.000755543,0.0018585,0.00823861,0.0,0.999991,-0.000381596,0.000927687,0.00411964,0.0,0.0,-0.502782,1,0,0,0,0,0
41544000,0.000156831,0.0018074,0.00823861,0.0,0.999991,7.4692e-05,0.000904017,0.00411922,0.0,0.0,-0.495701,1,0,0,0,0,0
41636000,0.000936726,0.000735169,0.00823861,0.0,0.999991,0.000466845,0.000369511,0.00411912,0.0,0.0,-0.489153,1,0,0,0,0,0
41732000,3.34682e-05,0.000349644,0.00823861,0.0,0.999992,1.60138e-05,0.00017489,0.00411929,0.0,0.0,-0.504947,1,0,0,0,0,0
41824000,0.000578191,-0.000263578,0.00823861,0.0,0.999991,0.000289636,-0.000130597,0.00411933,0.0,0.0,-0.496604,1,0,0,0,0,0
41916000,0.0019983,-0.000783341,0.00823861,0.0,0.999991,0.00100075,-0.000387551,0.00411968,0.0,0.0,-0.489964,1,0,0,0,0,0
42012000,0.0042676,-0.00213266,0.00823861,0.0,0.999989,0.00213817,-0.00105753,0.00412156,0.0,0.0,-0.502887,1,0,0,0,0,0
42104000,0.00369466,-0.00273801,0.00823861,0.0,0.999989,0.00185295,-0.00136138,0.00412181,0.0,0.0,-0.495326,1,0,0,0,0,0
42196000,0.00387062,-0.0030961,0.00823861,0.0,0.999988,0.00194166,-0.00154006,0.00412227,0.0,0.0,-0.464637,1,0,0,0,0,0
42292000,0.00401607,-0.0028677,0.00823861,0.0,0.999988,0.00201392,-0.00142557,0.00412216,0.0,0.0,-0.456724,1,0,0,0,0,0
42384000,0.00690544,-0.00336736,0.00823861,0.0,0.999984,0.00345961,-0.00166943,0.00412508,0.0,0.0,-0.453438,1,0,0,0,0,0
42476000,0.00525033,-0.00399258,0.00823861,0.0,0.999986,0.00263336,-0.00198545,0.00412451,0.0,0.0,-0.448872,1,0,0,0,0,0
42572000,0.00512403,-0.00541651,0.00823861,0.0,0.999985,0.00257314,-0.00269767,0.0041262,0.0,0.0,-0.455198,1,0,0,0,0,0
42664000,0.0054288,-0.00472967,0.00823861,0.0,0.999985,0.00272411,-0.00235362,0.00412569,0.0,0.0,-0.450647,1,0,0,0,0,0
42756000,0.00613335,-0.00602132,0.00823861,0.0,0.999982,0.00307903,-0.00299798,0.00412849,0.0,0.0,-0.447596,1,0,0,0,0,0
42852000,0.0064674,-0.00489673,0.00823861,0.0,0.999983,0.00324374,-0.00243501,0.00412718,0.0,0.0,-0.458238,1,0,0,0,0,0
42944000,0.004576,-0.00547871,0.00823861,0.0,0.999985,0.00229926,-0.0027299,0.00412553,0.0,0.0,-0.455349,1,0,0,0,0,0
43036000,0.00538514,-0.00609311,0.00823861,0.0,0.999983,0.00270508,-0.00303542,0.00412746,0.0,0.0,-0.451395,1,0,0,0,0,0
43132000,0.00546309,-0.00596732,0.00823861,0.0,0.999983,0.0027438,-0.00297237,0.00412741,0.0,0.0,-0.458958,1,0,0,0,0,0
43224000,0.00506869,-0.00522648,0.00823861,0.0,0.999985,0.00254508,-0.00260277,0.00412589,0.0,0.0,-0.456285,1,0,0,0,0,0
43316000,0.0049987,-0.00452094,0.00823861,0.0,0.999986,0.00250863,-0.00225015,0.00412492,0.0,0.0,-0.454241,1,0,0,0,0,0
43412000,0.00515825,-0.00470011,0.00823861,0.0,0.999985,0.00258877,-0.0023394,0.00412533,0.0,0.0,-0.461167,1,0,0,0,0,0
43504000,0.00566996,-0.00449396,0.00823861,0.0,0.999985,0.0028442,-0.00223527,0.00412564,0.0,0.0,-0.461476,1,0,0,0,0,0
43596000,0.00487746,-0.00712911,0.00823861,0.0,0.999982,0.00245338,-0.00355446,0.00412795,0.0,0.0,-0.459775,1,0,0,0,0,0
43692000,0.00535738,-0.00715361,0.00823861,0.0,0.999982,0.00269338,-0.00356572,0.00412883,0.0,0.0,-0.465597,1,0,0,0,0,0
43784000,0.0069437,-0.00825715,0.00823861,0.0,0.999977,0.00348879,-0.0041142,0.00413357,0.0,0.0,-0.467033,1,0,0,0,0,0
43876000,0.007696,-0.00891911,0.00823861,0.0,0.999974,0.00386629,-0.00444362,0.00413638,0.0,0.0,-0.465694,1,0,0,0,0,0
43972000,0.00867434,-0.00803481,0.00823861,0.0,0.999974,0.00435363,-0.00399946,0.00413664,0.0,0.0,-0.47149,1,0,0,0,0,0
44064000,0.00814948,-0.0070167,0.00823861,0.0,0.999977,0.00408912,-0.0034915,0.00413353,0.0,0.0,-0.469639,1,0,0,0,0,0
44156000,0.00767695,-0.00723802,0.00823861,0.0,0.999978,0.00385332,-0.00360314,0.00413313,0.0,0.0,-0.467209,1,0,0,0,0,0
44252000,0.00776815,-0.00539513,0.00823861,0.0,0.99998,0.00389513,-0.00268152,0.00412972,0.0,0.0,-0.47326,1,0,0,0,0,0
44344000,0.00834711,-0.00655527,0.00823861,0.0,0.999977,0.00418699,-0.00326038,0.00413291,0.0,0.0,-0.471113,1,0,0,0,0,0
44436000,0.00819426,-0.00567048,0.00823861,0.0,0.999979,0.00410874,-0.00281831,0.00413086,0.0,0.0,-0.470044,1,0,0,0,0,0
44532000,0.00643905,-0.00427686,0.00823861,0.0,0.999984,0.00322829,-0.00212514,0.00412615,0.0,0.0,-0.473841,1,0,0,0,0,0
44624000,0.00439195,-0.00377054,0.00823861,0.0,0.999987,0.00220372,-0.0018762,0.00412341,0.0,0.0,-0.471251,1,0,0,0,0,0
44716000,0.00307888,-0.00318865,0.00823861,0.0,0.999989,0.00154599,-0.00158797,0.00412174,0.0,0.0,-0.469306,1,0,0,0,0,0
44812000,0.002637,-0.00207224,0.00823861,0.0,0.99999,0.00132275,-0.00103068,0.00412065,0.0,0.0,-0.474034,1,0,0,0,0,0
44904000,0.00122104,-0.00138562,0.00823861,0.0,0.999991,0.000613369,-0.000690288,0.00411971,0.0,0.0,-0.472355,1,0,0,0,0,0
44996000,0.0018709,-0.00107291,0.00823861,0.0,0.999991,0.00093765,-0.000532597,0.00411979,0.0,0.0,-0.47123,1,0,0,0,0,0
45092000,0.00249768,-0.00211853,0.00823861,0.0,0.99999,0.00125319,-0.00105411,0.00412061,0.0,0.0,-0.476818,1,0,0,0,0,0
45184000,0.00322564,-0.00245554,0.00823861,0.0,0.999989,0.00161786,-0.00122112,0.00412126,0.0,0.0,-0.473796,1,0,0,0,0,0
45276000,0.00503182,-0.00193579,0.00823861,0.0,0.999988,0.00251987,-0.000957518,0.00412171,0.0,0.0,-0.472958,1,0,0,0,0,0
45372000,0.00309869,-0.00136371,0.00823861,0.0,0.99999,0.00155214,-0.000675464,0.00412034,0.0,0.0,-0.478912,1,0,0,0,0,0
45464000,0.00360222,-0.00193907,0.00823861,0.0,0.999989,0.00180509,-0.000962104,0.00412103,0.0,0.0,-0.476787,1,0,0,0,0,0
45556000,0.00305178,-0.00277858,0.00823861,0.0,0.999989,0.0015316,-0.00138299,0.0041214,0.0,0.0,-0.475446,1,0,0,0,0,0
45652000,0.00330781,-0.00158615,0.00823861,0.0,0.99999,0.00165716,-0.000786253,0.0041206,0.0,0.0,-0.477803,1,0,0,0,0,0
45744000,0.00371526,-0.00104124,0.00823861,0.0,0.99999,0.00185976,-0.000512964,0.00412025,0.0,0.0,-0.476417,1,0,0,0,0,0
45836000,0.00350997,-0.00186491,0.00823861,0.0,0.99999,0.00175881,-0.000925217,0.00412092,0.0,0.0,-0.475295,1,0,0,0,0,0
45932000,0.00476045,-0.002043,0.00823861,0.0,0.999988,0.00238441,-0.00101168,0.00412171,0.0,0.0,-0.480792,1,0,0,0,0,0
46024000,0.00508905,-0.00094609,0.00823861,0.0,0.999988,0.00254645,-0.000462558,0.00412048,0.0,0.0,-0.481814,1,0,0,0,0,0
46116000,0.00479046,-0.000894498,0.00823861,0.0,0.999989,0.00239705,-0.000437377,0.00412035,0.0,0.0,-0.4794,1,0,0,0,0,0
46212000,0.00498345,-0.000529706,0.00823861,0.0,0.999988,0.00249279,-0.000254586,0.00411994,0.0,0.0,-0.481551,1,0,0,0,0,0
46304000,0.00524168,-0.00196013,0.00823861,0.0,0.999988,0.00262485,-0.000969259,0.00412184,0.0,0.0,-0.478683,1,0,0,0,0,0
46396000,0.00393503,-8.16822e-05,0.00823861,0.0,0.99999,0.00196766,-3.27359e-05,0.00411937,0.0,0.0,-0.479931,1,0,0,0,0,0
46492000,0.00393801,0.00036649,0.00823861,0.0,0.99999,0.00196823,0.000191354,0.00411892,0.0,0.0,-0.481606,1,0,0,0,0,0
46584000,0.00398015,-0.00163301,0.00823861,0.0,0.999989,0.00199342,-0.000808299,0.00412091,0.0,0.0,-0.479742,1,0,0,0,0,0
46676000,0.00493065,-0.00103784,0.00823861,0.0,0.999988,0.00246744,-0.000508759,0.00412056,0.0,0.0,-0.477984,1,0,0,0,0,0
46772000,0.00448007,-0.000775916,0.00823861,0.0,0.999989,0.00224161,-0.000378727,0.00412015,0.0,0.0,-0.482672,1,0,0,0,0,0
46864000,0.00289472,-0.000676992,0.00823861,0.0,0.99999,0.00144874,-0.000332531,0.00411978,0.0,0.0,-0.482122,1,0,0,0,0,0
46956000,0.00228739,-0.00139456,0.00823861,0.0,0.999991,0.00114656,-0.000692565,0.00412009,0.0,0.0,-0.480345,1,0,0,0,0,0
47052000,0.00308024,-0.00121238,0.00823861,0.0,0.99999,0.0015426,-0.000599841,0.00412022,0.0,0.0,-0.481623,1,0,0,0,0,0
47144000,0.00195835,-0.000958299,0.00823861,0.0,0.999991,0.000981141,-0.000475112,0.00411976,0.0,0.0,-0.479705,1,0,0,0,0,0
47236000,0.000869744,0.000321002,0.00823861,0.0,0.999991,0.000434207,0.000162291,0.00411922,0.0,0.0,-0.480842,1,0,0,0,0,0
47332000,0.0017619,0.00162422,0.00823861,0.0,0.999991,0.000877598,0.000815733,0.00411857,0.0,0.0,-0.479922,1,0,0,0,0,0
47424000,0.00259302,0.00262567,0.00823861,0.0,0.99999,0.00129109,0.00131816,0.00411758,0.0,0.0,-0.47834,1,0,0,0,0,0
47516000,0.00183026,0.0027452,0.00823861,0.0,0.99999,0.000909466,0.00137636,0.00411803,0.0,0.0,-0.479859,1,0,0,0,0,0
47612000,0.000842401,0.00210836,0.00823861,0.0,0.999991,0.000416854,0.0010559,0.00411885,0.0,0.0,-0.481561,1,0,0,0,0,0
47704000,0.000927314,0.00276173,0.00823861,0.0,0.99999,0.000457964,0.00138276,0.00411865,0.0,0.0,-0.48129,1,0,0,0,0,0
47796000,0.000177435,0.00212356,0.00823861,0.0,0.999991,8.43431e-05,0.00106213,0.0041192,0.0,0.0,-0.482599,1,0,0,0,0,0
47892000,-2.56083e-05,0.00178533,0.00823861,0.0,0.999991,-1.64812e-05,0.000892607,0.0041193,0.0,0.0,-0.483185,1,0,0,0,0,0
47984000,-0.00149145,0.000397365,0.00823861,0.0,0.999991,-0.000746537,0.000195609,0.00411944,0.0,0.0,-0.483727,1,0,0,0,0,0
48076000,-0.0013848,0.00128387,0.00823861,0.0,0.999991,-0.00069504,0.000639075,0.00411974,0.0,0.0,-0.482868,1,0,0,0,0,0
48172000,-0.000172693,0.000733594,0.00823861,0.0,0.999991,-8.7857e-05,0.000366438,0.00411932,0.0,0.0,-0.485142,1,0,0,0,0,0
48264000,0.000693524,-0.000745957,0.00823861,0.0,0.999991,0.000348295,-0.000371547,0.00411942,0.0,0.0,-0.484957,1,0,0,0,0,0
48356000,0.00138146,7.93035e-05,0.00823861,0.0,0.999991,0.000690561,4.24967e-05,0.00411926,0.0,0.0,-0.484247,1,0,0,0,0,0
48452000,0.000238653,0.000888242,0.00823861,0.0,0.999991,0.000117496,0.000444609,0.00411924,0.0,0.0,-0.485181,1,0,0,0,0,0
48544000,-0.00132656,0.00127819,0.00823861,0.0,0.999991,-0.000665908,0.000636355,0.00411971,0.0,0.0,-0.484882,1,0,0,0,0,0
48636000,-0.00210377,0.00119625,0.00823861,0.0,0.999991,-0.00105434,0.000593788,0.00411992,0.0,0.0,-0.485026,1,0,0,0,0,0
48732000,-0.0011239,0.00187809,0.00823861,0.0,0.999991,-0.000565814,0.000936722,0.00411982,0.0,0.0,-0.485318,1,0,0,0,0,0
48824000,-0.00126911,-0.000164634,0.00823861,0.0,0.999991,-0.000634212,-8.493e-05,0.00411924,0.0,0.0,-0.483766,1,0,0,0,0,0
48916000,-0.00108622,-0.00137947,0.00823861,0.0,0.999991,-0.000540265,-0.000691967,0.00411892,0.0,0.0,-0.484388,1,0,0,0,0,0
49012000,-0.001272,-0.00167215,0.00823861,0.0,0.999991,-0.000632552,-0.000838688,0.00411876,0.0,0.0,-0.483955,1,0,0,0,0,0
49104000,-0.00239163,-0.000325227,0.00823861,0.0,0.999991,-0.00119514,-0.000167538,0.00411909,0.0,0.0,-0.485285,1,0,0,0,0,0
49196000,-0.00152997,-0.00117212,0.00823861,0.0,0.999991,-0.000762564,-0.000589208,0.00411884,0.0,0.0,-0.485815,1,0,0,0,0,0
49292000,-0.00135739,-0.00202883,0.00823861,0.0,0.999991,-0.000674509,-0.0010172,0.0041186,0.0,0.0,-0.486116,1,0,0,0,0,0
49384000,-0.00145255,0.00029394,0.00823861,0.0,0.999991,-0.000726874,0.000143977,0.0041194,0.0,0.0,-0.486585,1,0,0,0,0,0
49476000,-0.000192014,-8.3745e-05,0.00823861,0.0,0.999992,-9.58339e-05,-4.22676e-05,0.00411929,0.0,0.0,-0.485396,1,0,0,0,0,0
49572000,-0.00255793,-0.000708606,0.00823861,0.0,0.999991,-0.0012775,-0.000359568,0.00411884,0.0,0.0,-0.487396,1,0,0,0,0,0
49664000,-0.00213339,-0.00070156,0.00823861,0.0,0.999991,-0.00106524,-0.000355171,0.00411892,0.0,0.0,-0.487722,1,0,0,0,0,0
49756000,-0.0019291,-0.00219957,0.00823861,0.0,0.99999,-0.00096001,-0.00110375,0.00411823,0.0,0.0,-0.48675,1,0,0,0,0,0
49852000,-0.00317893,-0.00176707,0.00823861,0.0,0.99999,-0.00158581,-0.000890072,0.00411788,0.0,0.0,-0.486673,1,0,0,0,0,0
49944000,-0.00230691,-0.00291776,0.00823861,0.0,0.99999,-0.00114743,-0.00146362,0.0041176,0.0,0.0,-0.485735,1,0,0,0,0,0
50036000,-0.00293601,-0.00323107,0.00823861,0.0,0.999989,-0.00146134,-0.00162156,0.00411691,0.0,0.0,-0.486048,1,0,0,0,0,0
50132000,-0.00324421,-0.00287166,0.00823861,0.0,0.999989,-0.00161617,-0.0014425,0.00411695,0.0,0.0,-0.486982,1,0,0,0,0,0
50224000,-0.00391994,-0.00259422,0.00823861,0.0,0.999989,-0.00195461,-0.00130517,0.00411674,0.0,0.0,-0.486764,1,0,0,0,0,0
50316000,-0.00398267,-0.00115361,0.00823861,0.0,0.999989,-0.00198894,-0.000585,0.00411814,0.0,0.0,-0.48764,1,0,0,0,0,0
50412000,-0.004293,-0.00190062,0.00823861,0.0,0.999989,-0.00214257,-0.000959143,0.00411724,0.0,0.0,-0.488074,1,0,0,0,0,0
50504000,-0.00361648,-0.00184247,0.00824173,0.0,0.999989,-0.00180443,-0.000928675,0.00411918,0.0,0.0,-0.487644,1,0,0,0,0,0
50596000,-0.00363432,-0.00280401,0.00824173,0.0,0.999989,-0.00181136,-0.00140948,0.0041183,0.0,0.0,-0.488365,1,0,0,0,0,0
50692000,-0.00285565,-0.00301222,0.00824173,0.0,0.999989,-0.0014216,-0.00151198,0.0041187,0.0,0.0,-0.487073,1,0,0,0,0,0
50784000,-0.00271528,-0.00275598,0.00824173,0.0,0.99999,-0.00135195,-0.00138357,0.00411898,0.0,0.0,-0.487515,1,0,0,0,0,0
50876000,-0.00300594,-0.00276898,0.00824173,0.0,0.999989,-0.00149725,-0.00139067,0.00411877,0.0,0.0,-0.487089,1,0,0,0,0,0
50972000,-0.00345542,-0.00239916,0.00824173,0.0,0.999989,-0.00172275,-0.00120669,0.00411877,0.0,0.0,-0.488489,1,0,0,0,0,0
51064000,-0.00319086,-0.00252385,0.00824173,0.0,0.999989,-0.00159022,-0.00126849,0.00411883,0.0,0.0,-0.487699,1,0,0,0,0,0
51156000,-0.0024887,-0.00235594,0.00824173,0.0,0.99999,-0.00123948,-0.00118309,0.00411938,0.0,0.0,-0.485453,1,0,0,0,0,0
51252000,-0.00264608,-0.00182327,0.00824173,0.0,0.99999,-0.00131927,-0.00091708,0.00411964,0.0,0.0,-0.488184,1,0,0,0,0,0
51344000,-0.00174063,-0.00287233,0.00824173,0.0,0.99999,-0.000864386,-0.00143974,0.0041196,0.0,0.0,-0.488374,1,0,0,0,0,0
51436000,-0.00246829,-0.00313416,0.00824173,0.0,0.99999,-0.00122768,-0.00157215,0.00411891,0.0,0.0,-0.487825,1,0,0,0,0,0
51532000,-0.00336606,-0.00090203,0.00824173,0.0,0.99999,-0.00168116,-0.000457946,0.00412009,0.0,0.0,-0.487117,1,0,0,0,0,0
51624000,-0.00170656,-0.0023872,0.00824173,0.0,0.99999,-0.000848355,-0.00119711,0.00411983,0.0,0.0,-0.487186,1,0,0,0,0,0
51716000,-0.00329188,-0.00141002,0.00824173,0.0,0.99999,-0.00164302,-0.000711784,0.00411969,0.0,0.0,-0.487339,1,0,0,0,0,0
51812000,-0.00268916,-0.00129265,0.00824173,0.0,0.99999,-0.0013419,-0.00065186,0.00411998,0.0,0.0,-0.487276,1,0,0,0,0,0
51904000,-0.000909961,-0.00276778,0.00824173,0.0,0.99999,-0.000449273,-0.00138575,0.00412022,0.0,0.0,-0.487219,1,0,0,0,0,0
51996000,0.00060634,-0.00222226,0.00824173,0.0,0.999991,0.000307746,-0.00110987,0.00412119,0.0,0.0,-0.487813,1,0,0,0,0,0
52092000,-0.000375227,-0.00300386,0.00824173,0.0,0.99999,-0.000181423,-0.00150269,0.00412057,0.0,0.0,-0.487924,1,0,0,0,0,0
52184000,0.00125437,-0.0034797,0.00824173,0.0,0.99999,0.000634346,-0.00173725,0.00412194,0.0,0.0,-0.488743,1,0,0,0,0,0
52276000,0.000539515,-0.00284897,0.00824173,0.0,0.99999,0.000275625,-0.00142336,0.00412124,0.0,0.0,-0.486766,1,0,0,0,0,0
52372000,0.000608203,-0.00313909,0.00824173,0.0,0.99999,0.000310566,-0.00156828,0.00412133,0.0,0.0,-0.488397,1,0,0,0,0,0
52464000,0.00219219,-0.00224932,0.00824173,0.0,0.99999,0.00110072,-0.00112013,0.00412208,0.0,0.0,-0.487917,1,0,0,0,0,0
52556000,0.000395691,-0.00302022,0.00824173,0.0,0.99999,0.000204067,-0.00150928,0.00412115,0.0,0.0,-0.488618,1,0,0,0,0,0
52652000,0.000472322,-0.00187645,0.00824173,0.0,0.999991,0.000240025,-0.000937245,0.00412108,0.0,0.0,-0.489375,1,0,0,0,0,0
52744000,0.00192407,-0.00146282,0.00824173,0.0,0.999991,0.000965042,-0.00072744,0.00412156,0.0,0.0,-0.487836,1,0,0,0,0,0
52836000,0.00146194,-0.00129229,0.00824173,0.0,0.999991,0.000733626,-0.000643127,0.00412133,0.0,0.0,-0.488544,1,0,0,0,0,0
52932000,-0.00024963,-0.00140365,0.00824173,0.0,0.999991,-0.000121922,-0.000702333,0.00412077,0.0,0.0,-0.487658,1,0,0,0,0,0
53024000,0.00142053,0.0313272,0.0,0.0,0.999877,0.000710179,0.0156629,-1.11249e-05,0.0,0.0,-0.120059,1,0,0,0,0,0
53116000,0.00112911,0.00604831,0.0,0.0,0.999995,0.000564553,0.00302415,-1.7073e-06,0.0,0.0,-0.290594,1,0,0,0,0,0
53212000,0.00114348,-0.00256106,0.0,0.0,0.999999,0.000571741,-0.00128053,7.32132e-07,0.0,0.0,-0.474487,1,0,0,0,0,0
53304000,0.000868477,-0.00671329,0.0,0.0,0.999994,0.000434236,-0.00335664,1.45758e-06,0.0,0.0,-0.489146,1,0,0,0,0,0
53396000,0.000144613,-0.00757811,0.0,0.0,0.999993,7.23059e-05,-0.00378905,2.73972e-07,0.0,0.0,-0.486577,1,0,0,0,0,0
53492000,0.00029132,-0.00669084,0.0,0.0,0.999994,0.000145659,-0.00334541,4.87293e-07,0.0,0.0,-0.486123,1,0,0,0,0,0
53588000,0.00037904,-0.00448746,0.0,0.0,0.999997,0.000189519,-0.00224373,4.25231e-07,0.0,0.0,-0.486701,1,0,0,0,0,0
