timestamp,lat,lon,alt,alt_ellipsoid,delta_alt,vel_n,vel_e,vel_d,yaw,eph,epv,terrain_alt,lat_lon_reset_counter,alt_reset_counter,terrain_alt_valid,dead_reckoning
15876000,47.3977419545,8.54559398304,488.01,0.009552,-0.0,0.00599207,0.0205939,-0.00138266,0.00830709,2.30105,2.40124,0.0,2,0,0,0
16068000,47.3977419485,8.54559403069,488.008,0.00772095,-0.0,0.00521541,0.0249328,0.00162932,0.0084012,2.30127,2.40164,0.0,2,0,0,0
16260000,47.3977419481,8.54559406797,488.005,0.0050354,-0.0,0.00479357,0.0266457,0.00237096,0.008749,2.30047,2.40165,0.0,2,0,0,0
16460000,47.397741954,8.54559408095,488.004,0.0032959,-0.0,0.00290044,0.0270332,0.00176462,0.00860097,2.29997,2.4017,0.0,2,0,0,0
16652000,47.3977419624,8.54559408401,488.004,0.00314331,-0.0,0.00155128,0.0257547,0.00392164,0.00818195,2.29956,2.40165,0.0,2,0,0,0
16844000,47.3977419708,8.54559409633,488.004,0.00292969,-0.0,0.00369351,0.0280214,0.00258522,0.0082673,2.29925,2.40157,0.0,2,0,0,0
17036000,47.3977419808,8.54559411229,488.004,0.00372314,-0.0,0.00449493,0.0296897,0.0036796,0.00829021,2.29902,2.40163,0.0,2,0,0,0
17228000,47.39774199,8.5455941375,488.007,0.00640869,-0.0,0.00908928,0.0299114,0.00178054,0.008713,2.29884,2.40151,0.0,2,0,0,0
17420000,47.3977419897,8.54559417749,488.01,0.00900269,-0.0,0.00977071,0.0293624,0.00396044,0.00858289,2.2987,2.40137,0.0,2,0,0,0
17612000,47.3977419772,8.54559421182,488.01,0.00915527,-0.0,0.00908773,0.0302973,0.00414248,0.00861735,2.29859,2.40123,0.0,2,0,0,0
17804000,47.3977419691,8.54559423284,488.011,0.00976562,-0.0,0.0077192,0.0295666,0.00323578,0.00843037,2.2985,2.40122,0.0,2,0,0,0
17996000,47.3977419687,8.54559424877,488.012,0.0101013,-0.0,0.00869747,0.029168,0.000353987,0.0084169,2.29844,2.40106,0.0,2,0,0,0
18188000,47.3977419669,8.54559425301,488.012,0.0100708,-0.0,0.00822954,0.0265934,0.000499441,0.00873384,2.29838,2.4009,0.0,2,0,0,0
18380000,47.3977419653,8.54559424348,488.012,0.00982666,-0.0,0.00952188,0.0246782,0.00124097,0.0086469,2.29834,2.40089,0.0,2,0,0,0
18572000,47.3977419646,8.5455942468,488.013,0.0108948,-0.0,0.00872348,0.0243441,-0.000107374,0.00858714,2.2983,2.40073,0.0,2,0,0,0
18772000,47.397741955,8.54559423776,488.022,0.0201111,-0.0,0.00432479,0.0165156,-0.143357,0.00870176,2.29833,2.40063,0.0,2,0,0,0
18964000,47.3977419384,8.54559418399,488.075,0.0717163,-0.0,0.00162232,-0.00136825,-0.394608,0.00892739,2.2992,2.40057,0.0,2,0,0,0
19156000,47.3977419196,8.54559410669,488.172,0.16687,-0.0,-0.000726551,-0.00936426,-0.645161,0.00850532,2.29918,2.40044,0.0,2,0,0,0
19348000,47.3977419075,8.54559401986,488.316,0.305511,-0.0,-0.000760127,-0.00818186,-0.90199,0.00798249,2.29916,2.40044,0.0,2,0,0,0
19540000,47.3977419044,8.5455939359,488.507,0.487915,-0.0,0.00153083,-0.00278203,-1.15532,0.00757599,2.29914,2.40032,0.0,2,0,0,0
19732000,47.3977419093,8.54559387157,488.743,0.7117,-0.0,0.00493941,0.00203573,-1.40971,0.00807013,2.29912,2.40021,0.0,2,0,0,0
19924000,47.3977419216,8.5455938095,489.029,0.979156,-0.0,0.00433795,0.00449691,-1.66507,0.00796206,2.29909,2.40012,0.0,2,0,0,0
20116000,47.3977419374,8.54559375509,489.365,1.29517,-0.0,0.00400068,0.0106777,-1.92084,0.00789719,2.29906,2.40016,0.0,2,0,0,0
20308000,47.3977419442,8.54559372434,489.753,1.67349,-0.0,0.001203,0.0146734,-2.17049,0.00770425,2.29902,2.40008,0.0,2,0,0,0
20500000,47.3977419347,8.54559372473,490.192,2.09186,-0.0,0.00172241,0.0203298,-2.41706,0.00347338,2.29896,2.40001,0.0,2,0,0,0
20692000,47.3977419195,8.54559373403,490.67,2.55045,-0.0,0.00446989,0.0232382,-2.46579,0.00627908,2.29884,2.39996,0.0,2,0,0,0
20884000,47.3977419167,8.54559373464,491.128,2.98834,-0.0,0.00704113,0.0224415,-2.2741,0.00835489,2.29869,2.40003,0.0,2,0,0,0
21076000,47.3977419153,8.54559374662,491.558,3.39774,-0.0,0.00577564,0.0213117,-2.11306,0.00975277,2.29853,2.39999,0.0,2,0,0,0
21268000,47.3977419205,8.54559376328,491.964,3.78394,-0.0,0.00594261,0.0211601,-1.97041,0.00984758,2.29928,2.40004,0.0,2,0,0,0
21468000,47.3977419368,8.54559379064,492.36,4.15988,-0.0,0.00497656,0.02067,-1.84906,0.00834803,2.29926,2.40006,0.0,2,0,0,0
21660000,47.3977419449,8.54559380664,492.719,4.49957,-0.0,0.0043305,0.0175432,-1.75747,0.00815386,2.29923,2.40016,0.0,2,0,0,0
21852000,47.3977419421,8.54559381217,493.063,4.82281,-0.0,0.00226277,0.0145383,-1.6887,0.00770122,2.29924,2.40014,0.0,2,0,0,0
22044000,47.3977419318,8.54559381843,493.394,5.13364,-0.0,0.00190864,0.0142767,-1.63782,0.00784527,2.29928,2.40012,0.0,2,0,0,0
22236000,47.3977419182,8.54559382539,493.715,5.43546,-0.0,0.00244397,0.013061,-1.59469,0.00767269,2.29933,2.4001,0.0,2,0,0,0
22428000,47.3977419039,8.5455938415,494.028,5.72809,-0.0,0.00130823,0.014657,-1.56388,0.00811421,2.29938,2.40021,0.0,2,0,0,0
22620000,47.3977418902,8.54559385081,494.332,6.01205,-0.0,0.00263915,0.0101174,-1.54302,0.00844597,2.29941,2.40019,0.0,2,0,0,0
22820000,47.3977418818,8.54559386748,494.645,6.30493,-0.0,0.00421982,0.0120737,-1.53292,0.00873846,2.29952,2.40023,0.0,2,0,0,0
23012000,47.397741883,8.54559388228,494.942,6.59161,-0.0,0.00566039,0.0115348,-1.52646,0.00830761,2.29951,2.40021,0.0,2,0,0,0
23204000,47.3977418889,8.54559388067,495.237,6.86676,-0.0,0.00702149,0.00964106,-1.52282,0.00836158,2.29947,2.40019,0.0,2,0,0,0
23396000,47.3977418922,8.54559387195,495.531,7.14084,-0.0,0.0049551,0.00805529,-1.51595,0.00809883,2.29941,2.4003,0.0,2,0,0,0
23588000,47.3977418935,8.54559384496,495.824,7.41412,-0.0,0.00711848,0.0101829,-1.51517,0.00835169,2.29934,2.40028,0.0,2,0,0,0
23780000,47.3977418996,8.5455938242,496.116,7.68546,-0.0,0.00693865,0.0129599,-1.51307,0.00844845,2.29925,2.40026,0.0,2,0,0,0
23972000,47.39774191,8.54559381841,496.405,7.9549,-0.0,0.00916849,0.0149465,-1.50795,0.00867619,2.29914,2.40023,0.0,2,0,0,0
24164000,47.3977419361,8.54559383675,496.693,8.22311,-0.0,0.0119275,0.0188403,-1.50766,0.00841934,2.30017,2.40043,0.0,2,0,0,0
24356000,47.3977419584,8.54559388602,496.981,8.49063,-0.0,0.00980847,0.0191624,-1.50854,0.00818893,2.30001,2.4004,0.0,2,0,0,0
24556000,47.3977419817,8.54559394325,497.281,8.77127,-0.0,0.00730923,0.0173635,-1.50842,0.00785378,2.29995,2.40043,0.0,2,0,0,0
24756000,47.3977419949,8.54559399255,497.582,9.05151,-0.0,0.00492726,0.0170862,-1.50684,0.00836946,2.29987,2.40045,0.0,2,0,0,0
24948000,47.3977420091,8.54559405996,497.87,9.32001,-0.0,0.0050932,0.0146259,-1.50886,0.00816734,2.2997,2.40041,0.0,2,0,0,0
25140000,47.3977420286,8.54559412859,498.158,9.5874,-0.0,0.0027601,0.0105836,-1.51139,0.00814114,2.29954,2.40038,0.0,2,0,0,0
25332000,47.3977420409,8.54559418583,498.456,9.86554,-0.0,-0.00160029,0.00586307,-1.68123,0.00801301,2.29937,2.40047,0.0,2,0,0,0
25524000,47.3977420408,8.54559423505,498.816,10.2054,-0.0,-0.00211074,0.00321729,-2.16147,0.00792996,2.29922,2.40043,0.0,2,0,0,0
25716000,47.3977420498,8.54559427879,499.281,10.651,-0.0,-0.00400536,0.000536788,-2.75869,0.00810047,2.29907,2.40038,0.0,2,0,0,0
25908000,47.397742074,8.5455943144,499.831,11.1906,-0.0,-0.000841081,-0.00254321,-3.03484,0.0090226,2.29893,2.40034,0.0,2,0,0,0
26100000,47.3977421143,8.5455943394,500.4,11.7398,-0.0,-0.00156824,-0.00669551,-3.0475,0.00908387,2.2988,2.40043,0.0,2,0,0,0
26292000,47.3977421631,8.54559435048,500.978,12.298,-0.0,-0.00359958,-0.0111721,-3.0524,0.00836303,2.29868,2.40038,0.0,2,0,0,0
26484000,47.3977422039,8.54559437345,501.564,12.8635,-0.0,-0.00776011,-0.00976727,-3.04769,0.00794975,2.29856,2.40034,0.0,2,0,0,0
26676000,47.3977422439,8.54559439957,502.153,13.4329,-0.0,-0.0112238,-0.0100182,-3.03985,0.00794962,2.29844,2.40029,0.0,2,0,0,0
26868000,47.3977422804,8.54559440639,502.745,14.0044,-0.0,-0.0155433,-0.00964805,-3.02731,0.00829284,2.2992,2.40048,0.0,2,0,0,0
27060000,47.397742316,8.54559441046,503.336,14.5757,-0.0,-0.0179488,-0.0103513,-3.01595,0.00852495,2.29907,2.40043,0.0,2,0,0,0
27252000,47.3977423425,8.5455944148,503.926,15.1454,-0.0,-0.019807,-0.010869,-3.00571,0.00824821,2.29894,2.40039,0.0,2,0,0,0
27452000,47.397742354,8.54559441002,504.537,15.7362,-0.0,-0.0235342,-0.012038,-2.99517,0.00832583,2.2989,2.4004,0.0,2,0,0,0
27652000,47.3977423513,8.54559440097,505.143,16.3229,-0.0,-0.0272002,-0.0117157,-2.99145,0.00820431,2.29885,2.40041,0.0,2,0,0,0
27844000,47.3977423439,8.54559439035,505.725,16.8849,-0.0,-0.0276443,-0.0140743,-2.98832,0.00823521,2.29875,2.40036,0.0,2,0,0,0
28036000,47.3977423375,8.54559437104,506.305,17.4446,-0.0,-0.0285117,-0.0143743,-2.98558,0.00805297,2.29865,2.40045,0.0,2,0,0,0
28236000,47.3977423362,8.54559435599,506.908,18.0271,-0.0,-0.0293361,-0.0112895,-2.98689,0.00847388,2.29863,2.40046,0.0,2,0,0,0
28428000,47.3977423338,8.54559435165,507.485,18.5849,-0.0,-0.0270326,-0.0104809,-2.98577,0.00828635,2.29854,2.40041,0.0,2,0,0,0
28620000,47.397742328,8.54559434417,508.063,19.1424,-0.0,-0.0271976,-0.0101291,-2.98838,0.00838646,2.29846,2.40036,0.0,2,0,0,0
28812000,47.3977423085,8.54559432288,508.642,19.7114,-0.0,-0.0292137,-0.0107349,-2.9876,0.00826027,2.29839,2.40032,0.0,2,0,0,0
29004000,47.3977422739,8.54559430208,509.22,20.2695,-0.0,-0.0276655,-0.00744774,-2.98836,0.00816459,2.29832,2.4004,0.0,2,0,0,0
29196000,47.3977422459,8.54559428318,509.799,20.8284,-0.0,-0.0240019,-0.00650874,-2.98346,0.00794367,2.29826,2.40036,0.0,2,0,0,0
29388000,47.3977422274,8.54559426405,510.375,21.3842,-0.0,-0.0223645,-0.00932164,-2.9756,0.00833092,2.29819,2.40031,0.0,2,0,0,0
29580000,47.3977422044,8.54559425299,510.948,21.9373,-0.0,-0.0220327,-0.00608257,-2.97343,0.00861295,2.29814,2.40027,0.0,2,0,0,0
29772000,47.3977421747,8.54559426581,511.518,22.4875,-0.0,-0.0206305,-0.00269216,-2.97279,0.00866709,2.29808,2.40035,0.0,2,0,0,0
29964000,47.3977421399,8.54559429223,512.09,23.0394,-0.0,-0.0154295,-0.000689827,-2.98457,0.00844404,2.29883,2.40041,0.0,2,0,0,0
30156000,47.397742112,8.54559430632,512.666,23.5949,-0.0,-0.0138869,-0.00551751,-2.9878,0.00819273,2.29877,2.40036,0.0,2,0,0,0
30348000,47.397742091,8.5455942974,513.24,24.1498,-0.0,-0.00915942,-0.007759,-2.9886,0.00798189,2.29872,2.40032,0.0,2,0,0,0
30540000,47.3977420789,8.54559426214,513.815,24.7045,-0.0,-0.00827957,-0.00964849,-2.98821,0.00817816,2.29866,2.40041,0.0,2,0,0,0
30732000,47.3977420718,8.5455942105,514.39,25.2592,-0.0,-0.0112643,-0.0102819,-2.98556,0.00841675,2.2986,2.40036,0.0,2,0,0,0
30924000,47.3977420646,8.54559417409,514.965,25.8141,-0.0,-0.0113487,-0.00796831,-2.98633,0.00842113,2.29855,2.40032,0.0,2,0,0,0
31116000,47.3977420581,8.54559414587,515.539,26.3686,-0.0,-0.00898472,-0.00601103,-2.98322,0.00809833,2.29849,2.40041,0.0,2,0,0,0
31308000,47.3977420458,8.54559411376,516.113,26.9326,-0.0,-0.010584,-0.00496093,-2.98321,0.00860354,2.29843,2.40036,0.0,2,0,0,0
31500000,47.3977420322,8.54559408594,516.687,27.4859,-0.0,-0.00902309,-0.00468537,-2.98059,0.00855417,2.29838,2.40032,0.0,2,0,0,0
31700000,47.3977420132,8.54559406406,517.283,28.0624,-0.0,-0.00851977,-0.00210372,-2.98651,0.00773953,2.29838,2.40033,0.0,2,0,0,0
31892000,47.3977420009,8.54559405591,517.857,28.616,-0.0,-0.0068083,0.00176117,-2.98668,0.00756665,2.29832,2.40029,0.0,2,0,0,0
32084000,47.397742,8.54559407611,518.431,29.17,-0.0,8.61506e-05,0.00471126,-2.99078,0.00788784,2.29826,2.40038,0.0,2,0,0,0
32276000,47.3977420075,8.5455940966,519.006,29.725,-0.0,0.00205391,0.00806291,-2.98793,0.00756274,2.2982,2.40033,0.0,2,0,0,0
32468000,47.397742018,8.54559410938,519.58,30.2789,-0.0,0.00214105,0.00830738,-2.9887,0.00771857,2.29897,2.40039,0.0,2,0,0,0
32668000,47.3977420232,8.54559409958,520.178,30.857,-0.0,-0.000672317,0.00670165,-2.99012,0.00807806,2.29898,2.4004,0.0,2,0,0,0
32860000,47.3977420201,8.54559408685,520.752,31.4106,-0.0,-0.00282634,0.00364212,-2.99222,0.0086239,2.2989,2.40036,0.0,2,0,0,0
33052000,47.3977420214,8.54559408941,521.327,31.9656,-0.0,-0.000786452,0.00412691,-2.9899,0.00836036,2.29883,2.40045,0.0,2,0,0,0
33244000,47.3977420404,8.54559409464,521.9,32.5188,-0.0,0.00160959,0.00414387,-2.99221,0.00830167,2.29876,2.4004,0.0,2,0,0,0
33436000,47.397742069,8.54559411111,522.475,33.0742,-0.0,0.0020026,0.00436436,-2.99255,0.00820285,2.29869,2.40036,0.0,2,0,0,0
33628000,47.3977420994,8.54559414065,523.051,33.6298,-0.0,-0.000764816,0.00697065,-2.99134,0.00818059,2.29862,2.40032,0.0,2,0,0,0
33820000,47.3977421313,8.54559416665,523.625,34.1839,-0.0,-0.000757631,0.00817995,-2.99344,0.00790534,2.29854,2.4004,0.0,2,0,0,0
34012000,47.3977421572,8.54559418856,524.199,34.7483,-0.0,-0.00588703,0.00362042,-2.99601,0.00823346,2.29847,2.40036,0.0,2,0,0,0
34204000,47.3977421695,8.54559421067,524.775,35.3038,-0.0,-0.0104301,-0.00153471,-2.99918,0.00833972,2.2984,2.40032,0.0,2,0,0,0
34396000,47.3977421644,8.54559423699,525.351,35.8604,-0.0,-0.0161283,-0.00393631,-2.9976,0.00818551,2.29833,2.40027,0.0,2,0,0,0
34596000,47.3977421639,8.54559426208,525.952,36.4412,-0.0,-0.0149264,-0.00487399,-2.9964,0.00772845,2.29832,2.40029,0.0,2,0,0,0
34788000,47.397742164,8.54559428799,526.529,36.9976,-0.0,-0.0198605,-0.010072,-2.99377,0.00744625,2.29825,2.40037,0.0,2,0,0,0
34980000,47.3977421602,8.54559431295,527.104,37.5529,-0.0,-0.0219321,-0.0121876,-2.99554,0.00810832,2.29818,2.40033,0.0,2,0,0,0
35172000,47.3977421578,8.5455943262,527.679,38.1076,-0.0,-0.0203083,-0.0152237,-2.99699,0.00802124,2.29811,2.40029,0.0,2,0,0,0
35364000,47.3977421546,8.54559433963,528.254,38.6625,-0.0,-0.0179564,-0.0160972,-2.99806,0.00854586,2.29885,2.40034,0.0,2,0,0,0
35556000,47.397742148,8.54559436435,528.829,39.218,-0.0,-0.0188071,-0.0178624,-2.99752,0.00873997,2.29877,2.40043,0.0,2,0,0,0
35748000,47.3977421475,8.54559440179,529.405,39.7741,-0.0,-0.019124,-0.0156906,-2.99781,0.0086155,2.2987,2.40038,0.0,2,0,0,0
35940000,47.3977421439,8.54559442669,529.982,40.331,-0.0,-0.0199124,-0.0206157,-2.99728,0.00851327,2.29862,2.40034,0.0,2,0,0,0
36132000,47.3977421438,8.54559443589,530.557,40.8861,-0.0,-0.022478,-0.0249983,-2.9945,0.00822024,2.29855,2.40043,0.0,2,0,0,0
36324000,47.3977421402,8.54559443334,531.133,41.4418,-0.0,-0.0191698,-0.0216338,-2.99594,0.00799045,2.29847,2.40038,0.0,2,0,0,0
36516000,47.3977421327,8.54559443721,531.707,41.9962,-0.0,-0.0174568,-0.0206393,-2.99151,0.00767414,2.2984,2.40034,0.0,2,0,0,0
36708000,47.3977421295,8.54559443818,532.279,42.558,-0.0,-0.0163569,-0.0208135,-2.9884,0.00820399,2.29833,2.4003,0.0,2,0,0,0
36900000,47.3977421269,8.54559443998,532.851,43.1095,-0.0,-0.0158855,-0.019837,-2.99117,0.00845929,2.29826,2.40038,0.0,2,0,0,0
37092000,47.3977421362,8.54559443486,533.423,43.6614,-0.0,-0.0155114,-0.02088,-2.99264,0.00861447,2.29819,2.40034,0.0,2,0,0,0
37284000,47.3977421539,8.5455944081,533.998,44.2163,-0.0,-0.0138852,-0.0214685,-2.99579,0.00883401,2.29812,2.4003,0.0,2,0,0,0
37476000,47.3977421798,8.54559436139,534.574,44.7727,-0.0,-0.0126,-0.0195396,-2.9938,0.00855448,2.29806,2.40025,0.0,2,0,0,0
37668000,47.3977422106,8.54559430738,535.149,45.3279,-0.0,-0.0119502,-0.0174142,-2.99302,0.00858252,2.29878,2.40044,0.0,2,0,0,0
37860000,47.3977422398,8.54559425352,535.724,45.8825,-0.0,-0.014444,-0.0155721,-2.98872,0.00850239,2.29871,2.4004,0.0,2,0,0,0
38052000,47.3977422696,8.54559420485,536.297,46.4359,-0.0,-0.016989,-0.0133206,-2.97806,0.00818008,2.29863,2.40035,0.0,2,0,0,0
38244000,47.3977422822,8.54559417795,536.869,46.9874,-0.0,-0.022732,-0.0099338,-2.97435,0.00817833,2.29856,2.40044,0.0,2,0,0,0
38436000,47.3977422961,8.54559417441,537.441,47.5391,-0.0,-0.0241932,-0.00438558,-2.96617,0.0076702,2.29849,2.4004,0.0,2,0,0,0
38628000,47.3977423132,8.5455941861,538.01,48.0889,-0.0,-0.0234657,-0.000970979,-2.96214,0.00782227,2.29842,2.40035,0.0,2,0,0,0
38820000,47.3977423334,8.5455941775,538.579,48.6376,-0.0,-0.0263526,-0.00391411,-2.95742,0.00798719,2.29835,2.40031,0.0,2,0,0,0
39012000,47.3977423482,8.54559416056,539.148,49.1967,-0.0,-0.0273218,-0.00433265,-2.9534,0.00809864,2.29829,2.4004,0.0,2,0,0,0
39204000,47.3977423595,8.54559415288,539.715,49.7432,-0.0,-0.0296933,-0.00555437,-2.94768,0.00847104,2.29822,2.40036,0.0,2,0,0,0
39396000,47.3977423611,8.54559416295,540.279,50.287,-0.0,-0.0319934,-0.00562671,-2.94778,0.00787817,2.29815,2.40032,0.0,2,0,0,0
39588000,47.3977423553,8.54559417893,540.843,50.831,-0.0,-0.0345003,-0.00216312,-2.94962,0.00808959,2.29809,2.40028,0.0,2,0,0,0
39780000,47.3977423533,8.54559420464,541.408,51.3762,-0.0,-0.0340111,-0.000451327,-2.94992,0.00807892,2.29802,2.40036,0.0,2,0,0,0
39972000,47.3977423627,8.54559419915,541.974,51.9228,-0.0,-0.0300237,-0.00221126,-2.94887,0.00826663,2.29796,2.40032,0.0,2,0,0,0
40164000,47.3977423817,8.54559418248,542.541,52.4691,-0.0,-0.0304661,-0.00323263,-2.94463,0.00817174,2.29867,2.40038,0.0,2,0,0,0
40356000,47.3977423938,8.54559416723,543.104,53.0126,-0.0,-0.0319073,-0.000656778,-2.94179,0.00814633,2.2986,2.40034,0.0,2,0,0,0
40548000,47.3977423948,8.54559416073,543.669,53.5569,-0.0,-0.034193,-0.00244446,-2.94286,0.00839944,2.29853,2.40042,0.0,2,0,0,0
40740000,47.3977424001,8.54559415922,544.233,54.1009,-0.0,-0.0346166,-0.00351031,-2.9408,0.0084272,2.29846,2.40038,0.0,2,0,0,0
40932000,47.3977423924,8.54559413703,544.797,54.6453,-0.0,-0.0357009,-0.00192086,-2.93908,0.0084184,2.2984,2.40034,0.0,2,0,0,0
41124000,47.3977423742,8.54559411753,545.359,55.1876,-0.0,-0.0352247,0.000913676,-2.93694,0.00830073,2.29833,2.4003,0.0,2,0,0,0
41316000,47.3977423574,8.54559409079,545.922,55.7297,-0.0,-0.0360668,0.000393904,-2.94467,0.00827116,2.29827,2.40038,0.0,2,0,0,0
41508000,47.3977423423,8.54559406458,546.486,56.2839,-0.0,-0.033782,-0.00108552,-2.94355,0.00840903,2.2982,2.40034,0.0,2,0,0,0
41700000,47.3977423223,8.54559404206,547.05,56.8278,-0.0,-0.0342469,-0.00092509,-2.94205,0.00815439,2.29814,2.4003,0.0,2,0,0,0
41892000,47.3977422994,8.54559401735,547.612,57.3702,-0.0,-0.0344603,-0.00125704,-2.94704,0.00802925,2.29808,2.40039,0.0,2,0,0,0
42084000,47.3977422615,8.54559398213,548.177,57.9153,-0.0,-0.036754,-0.00447697,-2.9467,0.00797353,2.29802,2.40034,0.0,2,0,0,0
42284000,47.3977422165,8.54559394741,548.763,58.4814,-0.0,-0.0335559,-0.00355983,-2.88928,0.00829347,2.29802,2.40035,0.0,2,0,0,0
42476000,47.3977421744,8.54559391085,549.3,58.9982,-0.0,-0.0314481,-0.00455241,-2.72318,0.00848179,2.29795,2.40031,0.0,2,0,0,0
42668000,47.397742139,8.54559386899,549.81,59.4876,-0.0,-0.0303032,-0.00223341,-2.55981,0.00862186,2.29865,2.40037,0.0,2,0,0,0
42860000,47.3977421032,8.54559383942,550.289,59.9471,-0.0,-0.0280671,-0.00120118,-2.3919,0.00841776,2.29858,2.40033,0.0,2,0,0,0
43052000,47.3977420718,8.54559382618,550.74,60.3782,-0.0,-0.025971,0.0026653,-2.24572,0.00823816,2.29851,2.40042,0.0,2,0,0,0
43244000,47.3977420378,8.54559382079,551.164,60.7822,-0.0,-0.0217622,0.00323331,-2.10138,0.00847579,2.29843,2.40037,0.0,2,0,0,0
43436000,47.397742005,8.54559382767,551.562,61.16,-0.0,-0.0166806,0.00321383,-1.96397,0.00796343,2.29836,2.40033,0.0,2,0,0,0
43628000,47.397741976,8.54559382768,551.933,61.511,-0.0,-0.0160854,0.00433757,-1.84367,0.00772049,2.29828,2.40042,0.0,2,0,0,0
43828000,47.3977419413,8.54559381061,552.292,61.8499,-0.0,-0.0188993,0.000650526,-1.72724,0.00770605,2.29827,2.4003,0.0,2,0,0,0
44020000,47.3977419109,8.54559377863,552.613,62.1508,-0.0,-0.0154027,-0.00120857,-1.63126,0.00804585,2.2982,2.40039,0.0,2,0,0,0
44212000,47.3977418896,8.54559375354,552.915,62.4432,-0.0,-0.00853495,0.00192259,-1.54359,0.00870006,2.29813,2.40035,0.0,2,0,0,0
44404000,47.3977418796,8.54559372958,553.2,62.7081,-0.0,-0.00655565,0.00348461,-1.46104,0.00895793,2.29807,2.4003,0.0,2,0,0,0
44596000,47.397741878,8.54559371781,553.471,62.9586,-0.0,-0.00152986,0.010218,-1.3811,0.00871022,2.298,2.40039,0.0,2,0,0,0
44788000,47.3977418895,8.54559373322,553.727,63.1949,-0.0,0.000304405,0.0156035,-1.30248,0.00848824,2.29794,2.40035,0.0,2,0,0,0
44980000,47.3977419065,8.54559374654,553.968,63.4156,-0.0,0.00325217,0.0185216,-1.22998,0.00806823,2.29788,2.4003,0.0,2,0,0,0
45172000,47.3977419242,8.54559375162,554.194,63.6223,-0.0,0.000434499,0.015905,-1.16222,0.00797963,2.29782,2.40026,0.0,2,0,0,0
45364000,47.3977419317,8.54559374971,554.408,63.816,-0.0,0.000760145,0.0143313,-1.0946,0.0082809,2.2985,2.40045,0.0,2,0,0,0
45556000,47.3977419447,8.54559374599,554.609,63.9968,-0.0,-0.000697935,0.0148689,-1.03431,0.0082862,2.29844,2.40041,0.0,2,0,0,0
45748000,47.3977419607,8.54559374681,554.8,64.1674,-0.0,-0.000541937,0.0150713,-0.979424,0.00830768,2.29838,2.40037,0.0,2,0,0,0
45940000,47.3977419799,8.54559374242,554.978,64.3257,-0.0,-0.00285044,0.0132754,-0.921889,0.00865425,2.29832,2.40045,0.0,2,0,0,0
46132000,47.3977420067,8.54559373208,555.144,64.4717,-0.0,-0.00358586,0.0125934,-0.879648,0.00832652,2.29826,2.40041,0.0,2,0,0,0
46324000,47.3977420282,8.5455937182,555.303,64.6111,-0.0,-0.00654431,0.0131059,-0.834458,0.00832357,2.2982,2.40036,0.0,2,0,0,0
46516000,47.3977420581,8.54559371351,555.454,64.7417,-0.0,-0.00693463,0.0152159,-0.791412,0.00753098,2.29815,2.40044,0.0,2,0,0,0
46708000,47.3977420825,8.54559370545,555.598,64.8754,-0.0,-0.010548,0.0151108,-0.747451,0.00763953,2.29809,2.40039,0.0,2,0,0,0
46900000,47.3977420977,8.54559371418,555.732,64.9897,-0.0,-0.0108247,0.0183087,-0.708129,0.00789044,2.29804,2.40035,0.0,2,0,0,0
47092000,47.3977421072,8.54559371717,555.86,65.0977,-0.0,-0.0129112,0.020188,-0.669988,0.00799206,2.29798,2.4003,0.0,2,0,0,0
47292000,47.3977421297,8.54559370656,555.987,65.2047,-0.0,-0.0106305,0.023401,-0.630014,0.00799855,2.29799,2.40031,0.0,2,0,0,0
47484000,47.3977421612,8.54559369318,556.105,65.3022,-0.0,-0.0097483,0.0227377,-0.588386,0.00831374,2.29793,2.40039,0.0,2,0,0,0
47676000,47.3977421978,8.54559371133,556.212,65.39,-0.0,-0.0112147,0.0246043,-0.549802,0.00839183,2.29788,2.40035,0.0,2,0,0,0
47868000,47.3977422208,8.54559373794,556.313,65.4702,-0.0,-0.0159626,0.0247563,-0.516611,0.00840773,2.29857,2.4004,0.0,2,0,0,0
48060000,47.3977422284,8.54559376599,556.406,65.5439,-0.0,-0.0191003,0.0268404,-0.487371,0.00834497,2.29851,2.40036,0.0,2,0,0,0
48252000,47.397742236,8.54559379184,556.494,65.6116,-0.0,-0.0220562,0.0214153,-0.460803,0.00830625,2.29846,2.40044,0.0,2,0,0,0
48444000,47.3977422447,8.5455938033,556.576,65.674,-0.0,-0.0220282,0.0200219,-0.436163,0.00793467,2.2984,2.4004,0.0,2,0,0,0
48636000,47.397742244,8.5455938373,556.654,65.732,-0.0,-0.0212287,0.0222036,-0.413688,0.00801711,2.29834,2.40035,0.0,2,0,0,0
48828000,47.3977422408,8.5455938896,556.73,65.7878,-0.0,-0.0223577,0.0194521,-0.391551,0.00793355,2.29828,2.40031,0.0,2,0,0,0
49028000,47.3977422234,8.54559394109,556.806,65.8434,-0.0,-0.0249416,0.0161728,-0.365888,0.00798296,2.29828,2.40032,0.0,2,0,0,0
49220000,47.3977422083,8.54559397511,556.873,65.8902,-0.0,-0.0238974,0.0155018,-0.342613,0.00794308,2.29822,2.40041,0.0,2,0,0,0
49412000,47.3977421832,8.54559400494,556.934,65.9416,-0.0,-0.0198853,0.0126303,-0.326606,0.0080399,2.29817,2.40036,0.0,2,0,0,0
49604000,47.3977421547,8.54559403965,556.991,65.9788,-0.0,-0.0177847,0.012225,-0.308339,0.00792081,2.29811,2.40032,0.0,2,0,0,0
49796000,47.3977421129,8.54559407812,557.046,66.0133,-0.0,-0.0182076,0.0102119,-0.294747,0.00798349,2.29805,2.40028,0.0,2,0,0,0
49988000,47.3977420645,8.545594119,557.1,66.0473,-0.0,-0.015509,0.00745009,-0.278835,0.0077144,2.29799,2.40036,0.0,2,0,0,0
50180000,47.3977420277,8.54559416526,557.151,66.0782,-0.0,-0.0127636,0.00657764,-0.26175,0.00822731,2.29794,2.40032,0.0,2,0,0,0
50372000,47.3977420007,8.54559421888,557.198,66.1049,-0.0,-0.00824149,0.00473219,-0.248692,0.00809119,2.29788,2.40027,0.0,2,0,0,0
50564000,47.3977419663,8.54559426899,557.242,66.1293,-0.0,-0.00530309,0.00174829,-0.235929,0.00827221,2.29857,2.40046,0.0,2,0,0,0
50756000,47.3977419364,8.54559431444,557.285,66.1521,-0.0,-0.00352079,-0.0033943,-0.223265,0.00828905,2.29851,2.40042,0.0,2,0,0,0
50948000,47.3977419042,8.54559434082,557.325,66.1721,-0.0,-0.000852265,-0.00537327,-0.209589,0.00821467,2.29845,2.40037,0.0,2,0,0,0
51140000,47.3977418742,8.54559435335,557.363,66.1904,-0.0,0.0024453,-0.00638112,-0.201967,0.00808971,2.29838,2.40033,0.0,2,0,0,0
51332000,47.3977418431,8.54559435753,557.399,66.2058,-0.0,0.00536659,-0.00912945,-0.18763,0.00789236,2.29832,2.40041,0.0,2,0,0,0
51532000,47.3977418093,8.54559435882,557.434,66.2211,-0.0,0.00980744,-0.00816052,-0.179196,0.00827519,2.29832,2.40043,0.0,2,0,0,0
51724000,47.3977417796,8.54559435166,557.467,66.2338,-0.0,0.0134095,-0.00839791,-0.16853,0.00842818,2.29826,2.40038,0.0,2,0,0,0
51916000,47.3977417627,8.54559432631,557.498,66.2454,-0.0,0.0148096,-0.010409,-0.156784,0.00845507,2.2982,2.40034,0.0,2,0,0,0
52108000,47.3977417502,8.54559429038,557.528,66.2648,-0.0,0.0146207,-0.0106019,-0.14483,0.0083729,2.29814,2.4003,0.0,2,0,0,0
52300000,47.3977417338,8.54559425687,557.555,66.2722,-0.0,0.0147539,-0.0105828,-0.136641,0.00798504,2.29808,2.40038,0.0,2,0,0,0
52492000,47.3977417195,8.5455942221,557.58,66.277,-0.0,0.0179586,-0.0113395,-0.128479,0.00830766,2.29802,2.40034,0.0,2,0,0,0
52684000,47.3977417051,8.54559419343,557.604,66.2809,-0.0,0.0205075,-0.00936402,-0.121354,0.00848875,2.29796,2.4003,0.0,2,0,0,0
52876000,47.3977416983,8.54559417606,557.628,66.2847,-0.0,0.0224062,-0.00635615,-0.115816,0.00817646,2.2979,2.40025,0.0,2,0,0,0
53068000,47.3977416866,8.54559417084,557.637,66.274,-0.0,0.019577,-0.00218531,0.325243,0.00757782,2.2986,2.40044,0.0,2,0,0,0
53260000,47.3977416534,8.54559416025,557.481,66.0982,-0.0,0.000689628,-0.00194158,1.01402,0.00566877,2.29853,2.4004,0.0,2,0,0,0
53452000,47.3977416039,8.54559414231,557.308,65.9051,-0.0,-0.00749242,-0.000607743,1.0071,0.00307472,2.29844,2.40035,0.0,2,0,0,0
53652000,47.397741576,8.5455941282,557.124,65.7013,-0.0,-0.000326824,0.00106076,1.00837,0.000351755,2.29842,2.40036,0.0,2,0,0,0
53844000,47.3977415739,8.54559411889,556.937,65.494,-0.0,0.00531714,-0.000840806,1.01224,-0.000912988,2.29835,2.40045,0.0,2,0,0,0
54036000,47.3977415669,8.54559411735,556.741,65.278,-0.0,0.00625518,-0.00200965,1.01111,-0.0012822,2.29828,2.4004,0.0,2,0,0,0
54228000,47.3977415525,8.54559412225,556.544,65.0607,-0.0,0.00845081,0.00106002,1.01059,-0.00135607,2.29821,2.40036,0.0,2,0,0,0
54420000,47.3977415535,8.54559413268,556.346,64.8427,-0.0,0.0123815,0.00296916,1.01008,-0.00115633,2.29815,2.40032,0.0,2,0,0,0
54612000,47.3977415581,8.54559416336,556.148,64.6345,-0.0,0.0102435,0.00522461,1.01214,-0.000278622,2.29809,2.4004,0.0,2,0,0,0
54804000,47.397741561,8.54559419944,555.947,64.4139,-0.0,0.00957562,0.00410513,1.00956,-0.000218915,2.29803,2.40036,0.0,2,0,0,0
55004000,47.3977415714,8.54559424904,555.737,64.184,-0.0,0.0105685,0.00256651,1.01162,0.00016579,2.29803,2.40037,0.0,2,0,0,0
55196000,47.3977415834,8.54559429256,555.534,63.961,-0.0,0.0112829,-0.00149303,1.01007,0.000198519,2.29798,2.40032,0.0,2,0,0,0
55388000,47.3977415982,8.5455943029,555.331,63.7383,-0.0,0.0106659,-0.00462039,1.01017,0.000340808,2.29793,2.40028,0.0,2,0,0,0
55580000,47.3977416193,8.5455943134,555.131,63.5176,-0.0,0.00782727,-0.00911807,1.00824,0.000194032,2.29787,2.40037,0.0,2,0,0,0
55772000,47.3977416331,8.54559431505,554.93,63.2964,-0.0,0.00699381,-0.00768329,1.00747,0.000207072,2.29782,2.40032,0.0,2,0,0,0
55964000,47.3977416499,8.54559432134,554.73,63.0768,-0.0,0.00762446,-0.00815928,1.00738,0.000358881,2.29851,2.40038,0.0,2,0,0,0
56156000,47.3977416731,8.54559433633,554.531,62.858,-0.0,0.00617936,-0.00949909,1.00903,3.1087e-05,2.29845,2.40034,0.0,2,0,0,0
56356000,47.3977416966,8.54559435856,554.325,62.632,-0.0,0.00687073,-0.00831725,1.00647,-0.000171972,2.29846,2.40035,0.0,2,0,0,0
56548000,47.3977417152,8.54559439033,554.129,62.4153,-0.0,0.00130399,-0.00934434,1.00581,-0.000486933,2.29841,2.40043,0.0,2,0,0,0
56740000,47.3977417208,8.54559443247,553.933,62.1998,-0.0,-8.41214e-05,-0.0100201,1.00616,2.14019e-05,2.29835,2.40039,0.0,2,0,0,0
56932000,47.3977417172,8.54559446477,553.737,61.9838,-0.0,-0.00207786,-0.0120843,1.00628,-4.05586e-05,2.29829,2.40035,0.0,2,0,0,0
57124000,47.3977417185,8.54559448108,553.541,61.768,-0.0,-0.00283431,-0.0162769,1.00539,-0.000298855,2.29824,2.4003,0.0,2,0,0,0
57316000,47.3977417198,8.54559449631,553.346,61.553,-0.0,-0.00141475,-0.0145042,1.00493,-2.33529e-06,2.29818,2.40039,0.0,2,0,0,0
57508000,47.3977417121,8.54559450075,553.151,61.348,-0.0,-0.00228744,-0.0175979,1.00475,0.000445839,2.29813,2.40035,0.0,2,0,0,0
57700000,47.3977416856,8.54559448916,552.96,61.1363,-0.0,-0.00421227,-0.0173023,1.00432,0.000187031,2.29807,2.40031,0.0,2,0,0,0
57892000,47.3977416502,8.54559447011,552.768,60.9249,-0.0,-0.00436207,-0.0190618,1.00312,-0.000100177,2.29801,2.40027,0.0,2,0,0,0
58084000,47.3977416181,8.54559444936,552.575,60.712,-0.0,0.00108036,-0.0157316,1.00695,-0.000224634,2.29796,2.40036,0.0,2,0,0,0
58276000,47.397741587,8.54559441327,552.382,60.4982,-0.0,0.00490736,-0.0173496,1.00436,-0.00015548,2.2979,2.40031,0.0,2,0,0,0
58468000,47.3977415531,8.54559436653,552.188,60.2845,-0.0,0.00845113,-0.0170354,1.00281,-0.000107001,2.2986,2.40037,0.0,2,0,0,0
58660000,47.39774152,8.54559432614,551.997,60.0733,-0.0,0.00887043,-0.0159566,1.0035,-1.9403e-06,2.29853,2.40033,0.0,2,0,0,0
58852000,47.3977414964,8.54559429793,551.806,59.8623,-0.0,0.0106577,-0.0130137,1.00261,9.72212e-05,2.29847,2.40042,0.0,2,0,0,0
59044000,47.3977414658,8.54559427069,551.615,59.6514,-0.0,0.0125228,-0.00898472,1.0039,0.000211273,2.29841,2.40038,0.0,2,0,0,0
59236000,47.3977414354,8.54559424027,551.423,59.4392,-0.0,0.0147409,-0.00885629,1.00253,3.82061e-05,2.29835,2.40034,0.0,2,0,0,0
59436000,47.3977414031,8.54559418822,551.222,59.2182,-0.0,0.0155301,-0.00964432,1.00071,-0.000379613,2.29835,2.40035,0.0,2,0,0,0
59628000,47.3977413658,8.54559414371,551.028,59.0042,-0.0,0.0197007,-0.00340122,1.00423,-0.00019346,2.29828,2.40031,0.0,2,0,0,0
59820000,47.3977413393,8.54559412756,550.833,58.7896,-0.0,0.0242398,0.00129465,1.00279,-0.000240684,2.29822,2.40039,0.0,2,0,0,0
60012000,47.3977413237,8.54559412635,550.639,58.5859,-0.0,0.0259838,0.0045799,1.00121,0.000135923,2.29816,2.40035,0.0,2,0,0,0
60204000,47.397741311,8.54559412019,550.446,58.3721,-0.0,0.02672,0.00276077,1.00277,-0.000208545,2.2981,2.40031,0.0,2,0,0,0
60396000,47.3977413068,8.54559410144,550.253,58.1593,-0.0,0.0296145,0.0019449,1.00092,-0.00013019,2.29804,2.40027,0.0,2,0,0,0
60588000,47.3977413006,8.54559407535,550.062,57.9479,-0.0,0.0297739,0.00168741,1.00157,-0.000386294,2.29798,2.40036,0.0,2,0,0,0
60780000,47.3977412897,8.5455940484,549.869,57.7356,-0.0,0.030965,0.00204396,1.00201,0.000275502,2.29792,2.40032,0.0,2,0,0,0
60972000,47.3977412797,8.54559402081,549.678,57.5239,-0.0,0.0316267,0.00180386,1.00153,6.14349e-05,2.29787,2.40028,0.0,2,0,0,0
61164000,47.3977412661,8.54559400935,549.487,57.313,-0.0,0.0307284,0.00308902,1.00098,-0.000297496,2.29855,2.40034,0.0,2,0,0,0
61356000,47.3977412673,8.54559399943,549.296,57.1023,-0.0,0.0311417,0.00351823,1.00187,-0.000583583,2.29849,2.40042,0.0,2,0,0,0
61548000,47.3977412623,8.545593994,549.105,56.8917,-0.0,0.0309155,0.00392352,1.00069,-0.000538513,2.29842,2.40038,0.0,2,0,0,0
61740000,47.3977412468,8.54559398785,548.914,56.6805,-0.0,0.0302437,0.00393798,0.999882,-0.000333736,2.29836,2.40034,0.0,2,0,0,0
61932000,47.397741235,8.54559399681,548.721,56.467,-0.0,0.0336172,0.0060449,1.00181,0.000125142,2.2983,2.4003,0.0,2,0,0,0
62132000,47.3977412357,8.5455940174,548.52,56.2464,-0.0,0.0378207,0.00847875,1.00053,0.000274679,2.2983,2.40031,0.0,2,0,0,0
62332000,47.3977412494,8.54559403291,548.322,56.0277,-0.0,0.0393377,0.00859937,1.00124,-0.000220423,2.2983,2.40033,0.0,2,0,0,0
62524000,47.3977412518,8.54559404634,548.129,55.8153,-0.0,0.038609,0.00638998,1.00027,-0.000202524,2.29824,2.40041,0.0,2,0,0,0
62716000,47.3977412582,8.54559407912,547.938,55.6037,-0.0,0.0389627,0.00630799,1.00184,0.000287786,2.29818,2.40037,0.0,2,0,0,0
62908000,47.3977412745,8.54559412897,547.748,55.4045,-0.0,0.0383944,0.0055456,1.00106,0.000142832,2.29812,2.40033,0.0,2,0,0,0
63108000,47.3977413037,8.54559418732,547.549,55.1855,-0.0,0.0362668,0.00662039,1.00038,1.57112e-05,2.29812,2.40034,0.0,2,0,0,0
63300000,47.3977413303,8.54559423474,547.357,54.973,-0.0,0.0331454,0.000503519,1.00035,-1.49046e-05,2.29806,2.4003,0.0,2,0,0,0
63492000,47.3977413647,8.54559427786,547.164,54.76,-0.0,0.0323646,-0.00269248,1.00056,-0.000330723,2.298,2.40039,0.0,2,0,0,0
63684000,47.3977414141,8.54559431987,546.971,54.5471,-0.0,0.0321432,-0.00312277,1.00125,-0.000355591,2.29794,2.40034,0.0,2,0,0,0
63876000,47.397741462,8.54559437328,546.779,54.3345,-0.0,0.0292973,-0.00419794,1.00096,6.72295e-05,2.29788,2.4003,0.0,2,0,0,0
64068000,47.3977415076,8.54559442611,546.587,54.1233,-0.0,0.0260409,-0.0056488,0.999877,-0.000310313,2.29857,2.40036,0.0,2,0,0,0
64260000,47.3977415433,8.54559446519,546.397,53.9128,-0.0,0.0215823,-0.0104595,1.00027,-0.000420757,2.29851,2.40044,0.0,2,0,0,0
64452000,47.397741578,8.54559448166,546.205,53.7006,-0.0,0.0209456,-0.0129287,0.999945,0.000203388,2.29845,2.4004,0.0,2,0,0,0
64644000,47.3977416073,8.54559448771,546.012,53.4878,-0.0,0.0200851,-0.0136699,0.999299,0.000103758,2.29838,2.40035,0.0,2,0,0,0
64836000,47.3977416289,8.54559449281,545.822,53.2775,-0.0,0.0145863,-0.0146182,1.00237,-0.000114991,2.29832,2.40044,0.0,2,0,0,0
65028000,47.3977416377,8.54559449399,545.632,53.0674,-0.0,0.00917775,-0.0143296,1.00072,8.76883e-06,2.29826,2.40039,0.0,2,0,0,0
65220000,47.3977416381,8.54559446808,545.439,52.8552,-0.0,0.00677228,-0.0200322,1.00062,-4.9502e-05,2.2982,2.40035,0.0,2,0,0,0
65412000,47.3977416445,8.54559442032,545.247,52.6526,-0.0,0.00503628,-0.020514,1.00151,-6.85788e-05,2.29814,2.40031,0.0,2,0,0,0
65604000,47.3977416566,8.54559438619,545.053,52.4388,-0.0,0.00503725,-0.0177501,1.0015,-0.00023262,2.29808,2.40039,0.0,2,0,0,0
65796000,47.397741674,8.54559438126,544.86,52.2261,-0.0,0.00638156,-0.0145952,1.00019,-0.000180043,2.29803,2.40035,0.0,2,0,0,0
65988000,47.3977416911,8.5455943889,544.667,52.0129,-0.0,0.00551639,-0.0117614,1.00063,0.000240791,2.29797,2.4003,0.0,2,0,0,0
66180000,47.3977417053,8.54559440362,544.474,51.7996,-0.0,0.00429326,-0.0120133,1.00123,0.000131299,2.29791,2.40039,0.0,2,0,0,0
66372000,47.3977417177,8.54559441855,544.282,51.5882,-0.0,0.00171103,-0.0125025,1.00025,0.00025061,2.29785,2.40034,0.0,2,0,0,0
66564000,47.3977417264,8.54559443572,544.087,51.3729,-0.0,-0.000248964,-0.0124256,1.00067,7.85213e-05,2.29854,2.40039,0.0,2,0,0,0
66756000,47.3977417212,8.54559444868,543.892,51.1573,-0.0,-0.00206993,-0.013366,1.00091,-0.000268646,2.29847,2.40035,0.0,2,0,0,0
66948000,47.3977417123,8.54559445845,543.696,50.942,-0.0,-0.00207869,-0.0132124,0.99958,-0.000464014,2.29841,2.40043,0.0,2,0,0,0
67140000,47.3977417102,8.54559446194,543.504,50.7295,-0.0,0.00221366,-0.0155171,1.00014,0.00014583,2.29835,2.40039,0.0,2,0,0,0
67340000,47.3977417159,8.54559445945,543.306,50.5118,-0.0,0.0034276,-0.0161513,1.00075,0.000350751,2.29835,2.4004,0.0,2,0,0,0
67532000,47.3977417174,8.54559444934,543.115,50.3009,-0.0,0.00198934,-0.0145008,1.00107,0.000127577,2.29829,2.40035,0.0,2,0,0,0
67724000,47.3977417188,8.54559444302,542.923,50.0884,-0.0,0.00107828,-0.011196,1.00099,-0.000241874,2.29823,2.40044,0.0,2,0,0,0
67924000,47.3977417158,8.54559442997,542.722,49.8675,-0.0,-8.25708e-05,-0.00967146,1.00036,-0.000243019,2.29823,2.40044,0.0,2,0,0,0
68116000,47.3977417154,8.54559440066,542.528,49.6539,-0.0,0.0023201,-0.0124236,1.00088,9.72906e-05,2.29817,2.40039,0.0,2,0,0,0
68308000,47.3977417165,8.54559436353,542.335,49.4503,-0.0,0.00136821,-0.0113407,1.00032,0.000693225,2.29811,2.40034,0.0,2,0,0,0
68500000,47.397741717,8.5455943197,542.14,49.2357,-0.0,0.000225018,-0.010131,0.99922,0.000359356,2.29805,2.40043,0.0,2,0,0,0
68692000,47.3977417155,8.54559426367,541.947,49.0226,-0.0,-0.000350525,-0.0124516,1.00178,0.000111032,2.29799,2.40038,0.0,2,0,0,0
68884000,47.3977417119,8.54559422152,541.756,48.8115,-0.0,0.00163301,-0.00732501,1.00025,0.000219506,2.29794,2.40033,0.0,2,0,0,0
69076000,47.3977417153,8.54559419355,541.565,48.6002,-0.0,0.00374375,-0.00373294,1.0013,0.000284583,2.29788,2.40028,0.0,2,0,0,0
69268000,47.3977417197,8.54559416245,541.372,48.3875,-0.0,0.00261457,0.000714799,0.999687,0.000155214,2.29857,2.40047,0.0,2,0,0,0
69460000,47.3977417339,8.54559413873,541.18,48.1756,-0.0,0.00110061,0.00103529,1.00057,0.00035447,2.29851,2.40042,0.0,2,0,0,0
69652000,47.3977417518,8.54559410798,540.99,47.9658,-0.0,-0.000365024,0.0001238,0.999749,-0.000353069,2.29844,2.40038,0.0,2,0,0,0
69844000,47.3977417669,8.54559406898,540.8,47.7552,-0.0,0.00122615,0.00309433,1.00074,-0.000721543,2.29838,2.40033,0.0,2,0,0,0
70036000,47.3977417899,8.54559403044,540.61,47.545,-0.0,-0.000915689,0.00382921,1.00065,-0.000288261,2.29832,2.40041,0.0,2,0,0,0
70236000,47.3977418253,8.54559397054,540.413,47.3281,-0.0,-0.00319789,0.00412076,1.00095,0.000112829,2.29832,2.40042,0.0,2,0,0,0
70428000,47.3977418527,8.54559389049,540.221,47.1168,-0.0,-0.00650672,0.00556519,1.00012,0.000434293,2.29826,2.40038,0.0,2,0,0,0
70620000,47.3977418595,8.54559382918,540.027,46.9026,-0.0,-0.0126646,0.00864508,1.00143,0.000321855,2.2982,2.40033,0.0,2,0,0,0
70812000,47.3977418568,8.54559379213,539.832,46.6973,-0.0,-0.0116734,0.014899,1.00036,0.0001909,2.29814,2.40041,0.0,2,0,0,0
71004000,47.3977418564,8.54559377906,539.639,46.484,-0.0,-0.0120826,0.0192875,1.00015,2.14373e-05,2.29808,2.40037,0.0,2,0,0,0
71196000,47.3977418578,8.54559377463,539.445,46.2706,-0.0,-0.0122925,0.0185247,0.999761,-0.000139836,2.29802,2.40032,0.0,2,0,0,0
71396000,47.3977418589,8.54559377315,539.242,46.0475,-0.0,-0.0136202,0.0240817,1.001,3.89124e-05,2.29802,2.40033,0.0,2,0,0,0
71588000,47.3977418552,8.545593783,539.047,45.8319,-0.0,-0.0112587,0.0245576,1.00129,0.000584624,2.29797,2.40029,0.0,2,0,0,0
71780000,47.3977418468,8.54559377877,538.853,45.6179,-0.0,-0.0119465,0.0207542,1.00011,9.73371e-05,2.29791,2.40037,0.0,2,0,0,0
71972000,47.3977418335,8.54559378765,538.659,45.4045,-0.0,-0.0123716,0.023303,1.00029,0.000115977,2.29785,2.40033,0.0,2,0,0,0
72164000,47.3977418093,8.5455938053,538.468,45.1929,-0.0,-0.0108497,0.021216,1.00031,0.000112446,2.29854,2.40038,0.0,2,0,0,0
72356000,47.3977417898,8.54559381577,538.276,44.9811,-0.0,-0.0109674,0.0222229,0.999145,4.77664e-05,2.29847,2.40034,0.0,2,0,0,0
72548000,47.3977417726,8.54559383421,538.081,44.7667,-0.0,-0.0075591,0.0242744,0.99852,-0.000404534,2.29841,2.40042,0.0,2,0,0,0
72740000,47.3977417546,8.54559384427,537.889,44.554,-0.0,-0.00531365,0.0232576,1.00088,-0.000107735,2.29835,2.40038,0.0,2,0,0,0
72932000,47.3977417382,8.54559385417,537.696,44.3416,-0.0,-0.00364814,0.0234704,0.999747,-0.000204677,2.29829,2.40033,0.0,2,0,0,0
73124000,47.3977417188,8.54559387709,537.505,44.1299,-0.0,0.000213926,0.0218587,0.999481,4.83544e-05,2.29823,2.40041,0.0,2,0,0,0
73316000,47.3977417001,8.54559390333,537.312,43.9172,-0.0,-0.000762256,0.0222179,1.00113,0.000169765,2.29817,2.40037,0.0,2,0,0,0
73508000,47.3977416823,8.5455939044,537.121,43.7158,-0.0,-0.000319083,0.0173739,0.999204,0.000469983,2.29811,2.40032,0.0,2,0,0,0
73700000,47.3977416621,8.54559389253,536.927,43.5018,-0.0,0.00209121,0.0160825,1.00093,7.55592e-05,2.29805,2.4004,0.0,2,0,0,0
73892000,47.3977416365,8.54559389413,536.733,43.2879,-0.0,-8.80056e-05,0.0180527,1.00091,-5.27718e-05,2.29799,2.40036,0.0,2,0,0,0
74084000,47.3977416122,8.54559391063,536.539,43.0738,-0.0,0.00225971,0.0179053,1.00023,1.02659e-05,2.29794,2.40032,0.0,2,0,0,0
74276000,47.3977415829,8.54559391961,536.345,42.8597,-0.0,0.00167671,0.0148431,1.00066,-0.000178622,2.29788,2.40027,0.0,2,0,0,0
74468000,47.3977415506,8.54559389519,536.149,42.6443,-0.0,0.00522684,0.0135503,0.999999,0.000223463,2.29857,2.40046,0.0,2,0,0,0
74660000,47.3977415268,8.54559386321,535.955,42.4299,-0.0,0.00744036,0.0124598,0.999628,-4.76886e-05,2.2985,2.40042,0.0,2,0,0,0
74852000,47.3977415139,8.54559384204,535.761,42.2159,-0.0,0.00951805,0.0147669,0.999775,-1.53193e-05,2.29844,2.40037,0.0,2,0,0,0
75044000,47.3977415094,8.5455938324,535.567,42.0022,-0.0,0.0129734,0.0149124,0.999689,-0.00011028,2.29838,2.40033,0.0,2,0,0,0
75236000,47.3977415111,8.54559381496,535.375,41.79,-0.0,0.0123738,0.0153325,0.999326,8.52993e-05,2.29832,2.40042,0.0,2,0,0,0
75428000,47.3977415206,8.54559379104,535.183,41.5775,-0.0,0.0155736,0.0174141,0.999406,0.000207668,2.29826,2.40037,0.0,2,0,0,0
75620000,47.3977415363,8.5455937691,534.991,41.3657,-0.0,0.0155195,0.0191907,0.999586,0.000430316,2.2982,2.40033,0.0,2,0,0,0
75812000,47.3977415462,8.54559373862,534.799,41.1643,-0.0,0.014775,0.0195379,0.998856,0.000110559,2.29814,2.40029,0.0,2,0,0,0
76004000,47.3977415459,8.5455937126,534.607,40.9521,-0.0,0.0133939,0.0214615,0.998404,-9.76534e-05,2.29808,2.40037,0.0,2,0,0,0
76196000,47.3977415394,8.54559368692,534.414,40.7391,-0.0,0.0122357,0.0218942,1.00112,-0.00055867,2.29802,2.40033,0.0,2,0,0,0
76396000,47.3977415232,8.54559367003,534.214,40.519,-0.0,0.00938973,0.0231994,0.999266,-0.000398157,2.29802,2.40034,0.0,2,0,0,0
76596000,47.3977415023,8.5455936575,534.014,40.2992,-0.0,0.00946724,0.0228395,1.00016,0.000198994,2.29802,2.40035,0.0,2,0,0,0
76796000,47.3977414763,8.54559364758,533.816,40.0808,-0.0,0.0118206,0.0244579,1.00031,0.000339376,2.29802,2.40036,0.0,2,0,0,0
76988000,47.3977414474,8.5455936392,533.625,39.8695,-0.0,0.0133879,0.0259377,1.0018,-2.72266e-05,2.29797,2.40031,0.0,2,0,0,0
77180000,47.3977414185,8.5455936475,533.433,39.6579,-0.0,0.0184775,0.0301106,0.999262,-6.38593e-05,2.29791,2.40039,0.0,2,0,0,0
77372000,47.3977414006,8.54559365354,533.241,39.4454,-0.0,0.0221562,0.0314,0.999489,0.00032464,2.29785,2.40035,0.0,2,0,0,0
77564000,47.3977413788,8.54559366711,533.047,39.2313,-0.0,0.0224217,0.0317159,0.999363,0.000192836,2.29853,2.4004,0.0,2,0,0,0
77756000,47.3977413499,8.54559369355,532.851,39.0161,-0.0,0.0244117,0.0320695,1.00044,-0.000389221,2.29847,2.40035,0.0,2,0,0,0
77948000,47.3977413398,8.54559373185,532.656,38.801,-0.0,0.0266017,0.0312226,0.999953,-0.000603373,2.29841,2.40043,0.0,2,0,0,0
78140000,47.3977413303,8.54559377977,532.462,38.5869,-0.0,0.0291729,0.030082,0.998999,7.08156e-05,2.29835,2.40039,0.0,2,0,0,0
78340000,47.3977413337,8.54559382919,532.261,38.3658,-0.0,0.0305485,0.0277916,0.999566,0.000280227,2.29835,2.40039,0.0,2,0,0,0
78532000,47.3977413487,8.54559386971,532.071,38.156,-0.0,0.0330225,0.0241724,0.999143,-0.000106679,2.29829,2.40035,0.0,2,0,0,0
78724000,47.3977413569,8.54559391525,531.883,37.9479,-0.0,0.0318912,0.024412,0.998539,8.96681e-05,2.29823,2.40043,0.0,2,0,0,0
78916000,47.3977413544,8.54559394986,531.695,37.7397,-0.0,0.029546,0.0181084,0.9996,0.000119663,2.29817,2.40038,0.0,2,0,0,0
79108000,47.3977413592,8.54559397361,531.504,37.5389,-0.0,0.0279643,0.0157097,0.998271,0.000389253,2.29811,2.40034,0.0,2,0,0,0
79308000,47.3977413817,8.54559399851,531.306,37.3202,-0.0,0.0266957,0.0133412,0.999496,9.03633e-05,2.29811,2.40034,0.0,2,0,0,0
79500000,47.3977414032,8.54559402379,531.115,37.1099,-0.0,0.024977,0.00900834,0.999687,-7.56895e-06,2.29805,2.4003,0.0,2,0,0,0
79692000,47.3977414207,8.54559406819,530.923,36.8975,-0.0,0.0247177,0.00685952,1.00123,-0.000142407,2.29799,2.40038,0.0,2,0,0,0
79884000,47.397741442,8.54559412673,530.732,36.6865,-0.0,0.0224885,0.00845794,0.999578,-0.000293544,2.29794,2.40034,0.0,2,0,0,0
80076000,47.397741479,8.5455941798,530.541,36.4755,-0.0,0.0253354,0.00513565,1.00028,-0.00039599,2.29788,2.40029,0.0,2,0,0,0
80268000,47.3977415189,8.54559421503,530.346,36.2606,-0.0,0.0222391,0.00439944,1.00111,-0.000598725,2.29857,2.40035,0.0,2,0,0,0
80460000,47.3977415608,8.54559424715,530.15,36.0446,-0.0,0.0186589,0.00222049,1.00012,6.39193e-06,2.2985,2.40043,0.0,2,0,0,0
80652000,47.3977416028,8.5455942744,529.955,35.8296,-0.0,0.017516,-0.000596767,1.00166,0.000278573,2.29844,2.40039,0.0,2,0,0,0
80844000,47.3977416398,8.54559429309,529.762,35.6163,-0.0,0.0124696,-0.00492072,1.00008,0.000295061,2.29838,2.40035,0.0,2,0,0,0
81036000,47.3977416696,8.54559429978,529.569,35.4033,-0.0,0.00776588,-0.0052315,1.00033,-6.45025e-05,2.29832,2.4003,0.0,2,0,0,0
81228000,47.3977416882,8.54559431316,529.377,35.1915,-0.0,0.00385623,-0.00492488,0.99936,-9.33668e-05,2.29826,2.40039,0.0,2,0,0,0
81420000,47.3977416935,8.54559433409,529.186,34.9802,-0.0,0.00232078,-0.00944066,1.00138,-0.000216068,2.2982,2.40035,0.0,2,0,0,0
81612000,47.3977417015,8.54559434716,528.995,34.7789,-0.0,0.000697302,-0.00707687,1.00096,0.000399491,2.29814,2.40043,0.0,2,0,0,0
81804000,47.3977417098,8.54559435834,528.805,34.5695,-0.0,2.36406e-05,-0.00746011,0.999161,0.000443796,2.29808,2.40038,0.0,2,0,0,0
81996000,47.3977417208,8.54559437765,528.615,34.3593,-0.0,0.000713571,-0.00914809,1.0005,-0.000146626,2.29802,2.40034,0.0,2,0,0,0
82188000,47.3977417334,8.54559439163,528.435,34.1589,-0.0,0.00117011,-0.0115058,0.870076,-0.000450587,2.29797,2.40029,0.0,2,0,0,0
82380000,47.3977417502,8.54559440439,528.284,33.9879,-0.0,-0.000788216,-0.0107619,0.702977,5.89251e-05,2.29791,2.40038,0.0,2,0,0,0
82572000,47.3977417661,8.54559441176,528.158,33.8425,-0.0,-0.000610216,-0.0104341,0.565905,0.000538979,2.29785,2.40033,0.0,2,0,0,0
82772000,47.3977417729,8.5455944179,528.051,33.7147,-0.0,-0.00374802,-0.0137245,0.446039,-5.81488e-05,2.29786,2.40035,0.0,2,0,0,0
82964000,47.3977417641,8.54559443525,527.969,33.6136,-0.0,-0.00636946,-0.0163613,0.354181,-0.000402525,2.29856,2.4004,0.0,2,0,0,0
83164000,47.3977417523,8.54559444783,527.904,33.5286,-0.0,-0.00881807,-0.0164207,0.279967,-0.000733769,2.29856,2.40042,0.0,2,0,0,0
83356000,47.397741731,8.54559445105,527.854,33.4586,-0.0,-0.00876175,-0.0172826,0.225698,-0.000114616,2.29851,2.40037,0.0,2,0,0,0
83548000,47.3977417075,8.54559444789,527.813,33.397,-0.0,-0.00402436,-0.0167054,0.178059,-0.000268431,2.29845,2.40033,0.0,2,0,0,0
83740000,47.3977416832,8.54559444405,527.784,33.3482,-0.0,-0.00405498,-0.0138417,0.144611,-7.40012e-05,2.29839,2.40042,0.0,2,0,0,0
83932000,47.3977416541,8.5455944505,527.762,33.3063,-0.0,-0.00254191,-0.0160826,0.122161,3.38024e-05,2.29834,2.40038,0.0,2,0,0,0
84124000,47.3977416139,8.54559445546,527.787,33.3115,-0.0,0.000317533,-0.0142735,-0.729459,-2.10174e-05,2.29828,2.40033,0.0,2,0,0,0
84316000,47.3977415687,8.54559461389,527.958,33.4623,-0.0,-0.003152,0.13353,-0.91325,-0.000415043,2.29822,2.40042,0.0,2,0,0,0
84508000,47.3977415129,8.54559526632,528.12,33.6144,-0.0,-0.00453613,0.33626,-0.912938,-3.40656e-05,2.29818,2.40037,0.0,2,0,0,0
84700000,47.3977414459,8.54559620009,528.292,33.7657,-0.0,-0.00833446,0.422713,-0.923478,3.46226e-05,2.29813,2.40033,0.0,2,0,0,0
84892000,47.3977413888,8.54559718277,528.469,33.9233,-0.0,-0.00391661,0.443777,-0.921743,-0.00028157,2.29808,2.40028,0.0,2,0,0,0
85084000,47.3977413348,8.54559820097,528.65,34.0836,-0.0,-0.000407611,0.447831,-0.916415,-0.000229759,2.29803,2.40037,0.0,2,0,0,0
85276000,47.3977412769,8.54559927452,528.831,34.2449,-0.0,-0.00381832,0.451398,-0.908978,-3.69367e-05,2.29797,2.40032,0.0,2,0,0,0
85468000,47.3977412204,8.54560039908,529.011,34.4045,-0.0,-0.00357107,0.450866,-0.902181,-0.00020579,2.29868,2.40037,0.0,2,0,0,0
85660000,47.3977411544,8.54560156189,529.191,34.5645,-0.0,-0.00332986,0.453945,-0.89776,-0.000582409,2.29861,2.40046,0.0,2,0,0,0
85852000,47.3977410744,8.54560278075,529.371,34.7249,-0.0,-0.00406947,0.459521,-0.892331,-0.000746409,2.29854,2.40041,0.0,2,0,0,0
86044000,47.3977410082,8.54560400235,529.55,34.8835,-0.0,-0.00244738,0.463279,-0.887987,-0.000544014,2.29846,2.40037,0.0,2,0,0,0
86236000,47.3977409469,8.5456052318,529.729,35.0424,-0.0,-0.000711477,0.46199,-0.884513,-0.000257668,2.29839,2.40032,0.0,2,0,0,0
86428000,47.3977408875,8.54560648441,529.906,35.1996,-0.0,-4.50649e-05,0.462599,-0.8811,-0.00033433,2.29832,2.40041,0.0,2,0,0,0
86620000,47.3977408302,8.54560775046,530.08,35.354,-0.0,-0.00133285,0.464521,-0.878075,-0.000549035,2.29825,2.40036,0.0,2,0,0,0
86812000,47.3977407804,8.54560902294,530.253,35.5167,-0.0,-0.000691772,0.463931,-0.878835,-0.000363011,2.29818,2.40032,0.0,2,0,0,0
87012000,47.3977407343,8.54561034486,530.431,35.6752,-0.0,-0.000777306,0.463974,-0.881689,-0.000165647,2.29817,2.40033,0.0,2,0,0,0
87212000,47.3977406897,8.54561165818,530.611,35.8346,-0.0,-0.00141469,0.463494,-0.883202,-0.000172236,2.29816,2.40033,0.0,2,0,0,0
87404000,47.3977406496,8.54561289988,530.784,35.9875,-0.0,-0.00233219,0.46142,-0.882868,-0.000105328,2.2981,2.40042,0.0,2,0,0,0
87596000,47.3977406066,8.54561415169,530.956,36.1393,-0.0,-0.000683633,0.462344,-0.885339,8.91262e-05,2.29803,2.40037,0.0,2,0,0,0
87788000,47.3977405682,8.54561540618,531.127,36.2905,-0.0,-0.0020547,0.461551,-0.886383,-9.27344e-05,2.29797,2.40033,0.0,2,0,0,0
87980000,47.3977405287,8.54561665967,531.298,36.4421,-0.0,-0.00047702,0.461057,-0.887972,0.000389558,2.29791,2.40028,0.0,2,0,0,0
88172000,47.3977404961,8.54561788681,531.472,36.5956,-0.0,0.00103052,0.457333,-0.890292,0.000355189,2.29784,2.40036,0.0,2,0,0,0
88364000,47.397740466,8.54561909427,531.646,36.7495,-0.0,0.00014083,0.459959,-0.886401,0.000184846,2.29852,2.40042,0.0,2,0,0,0
88556000,47.3977404261,8.54562027893,531.819,36.9028,-0.0,0.000435132,0.456718,-0.887211,-2.38648e-05,2.29846,2.40038,0.0,2,0,0,0
88748000,47.3977403904,8.54562145295,531.993,37.0562,-0.0,0.00104076,0.457734,-0.887052,0.000146722,2.29839,2.40033,0.0,2,0,0,0
88940000,47.3977403558,8.54562264371,532.164,37.2078,-0.0,0.0017773,0.460654,-0.887519,0.000402497,2.29833,2.40042,0.0,2,0,0,0
89132000,47.397740312,8.54562382001,532.335,37.3583,-0.0,-0.00115804,0.457401,-0.88815,0.000511741,2.29827,2.40038,0.0,2,0,0,0
89332000,47.3977402559,8.54562503113,532.511,37.5149,-0.0,-0.000199697,0.458031,-0.889843,0.000715597,2.29827,2.40039,0.0,2,0,0,0
89524000,47.3977402012,8.54562619678,532.682,37.6653,-0.0,-0.00125804,0.458718,-0.892169,0.000479802,2.29821,2.40035,0.0,2,0,0,0
89716000,47.3977401469,8.54562734776,532.854,37.8171,-0.0,-0.00405168,0.45847,-0.894133,0.000349713,2.29815,2.4003,0.0,2,0,0,0
89908000,47.3977400923,8.54562847204,533.026,37.9794,-0.0,-0.000810716,0.45609,-0.893551,0.000155972,2.29809,2.40039,0.0,2,0,0,0
90100000,47.3977400441,8.54562956876,533.198,38.1318,-0.0,0.00153045,0.452373,-0.893304,0.000536676,2.29804,2.40035,0.0,2,0,0,0
90292000,47.3977399948,8.54563065849,533.371,38.2849,-0.0,-0.00133016,0.45334,-0.893136,0.000683008,2.29798,2.4003,0.0,2,0,0,0
90484000,47.397739941,8.54563175194,533.544,38.4376,-0.0,-0.00133301,0.45118,-0.893754,0.000393798,2.29792,2.40026,0.0,2,0,0,0
90676000,47.3977398898,8.54563284638,533.716,38.5891,-0.0,-0.000117211,0.451977,-0.894313,0.000204911,2.29787,2.40035,0.0,2,0,0,0
90868000,47.3977398392,8.54563394705,533.887,38.7401,-0.0,-0.00255324,0.452076,-0.891744,0.000430754,2.29855,2.4004,0.0,2,0,0,0
91060000,47.3977397808,8.54563504705,534.059,38.8921,-0.0,-0.00196726,0.452686,-0.894171,-6.85289e-05,2.29849,2.40036,0.0,2,0,0,0
91252000,47.3977397231,8.54563613344,534.229,39.0426,-0.0,-0.00149354,0.451788,-0.89392,0.000325684,2.29843,2.40032,0.0,2,0,0,0
91444000,47.3977396606,8.54563722173,534.4,39.1932,-0.0,-0.00336469,0.450701,-0.89588,0.000542014,2.29837,2.4004,0.0,2,0,0,0
91636000,47.3977395903,8.54563831759,534.573,39.3458,-0.0,-0.0044236,0.450467,-0.898018,0.000667717,2.29831,2.40036,0.0,2,0,0,0
91828000,47.397739517,8.5456394161,534.745,39.4982,-0.0,-0.00462183,0.451116,-0.89507,0.000721144,2.29825,2.40032,0.0,2,0,0,0
92020000,47.3977394552,8.54564051885,534.917,39.65,-0.0,-0.00120108,0.448608,-0.896248,0.000319661,2.2982,2.40028,0.0,2,0,0,0
92212000,47.3977394039,8.54564163126,535.087,39.81,-0.0,-0.0010863,0.451067,-0.896305,1.34007e-05,2.29814,2.40037,0.0,2,0,0,0
92404000,47.397739351,8.54564275326,535.256,39.9597,-0.0,-0.000653633,0.454066,-0.897883,0.000372534,2.29808,2.40033,0.0,2,0,0,0
92596000,47.3977392959,8.54564387261,535.428,40.1112,-0.0,-0.000700591,0.452258,-0.89978,7.49559e-05,2.29802,2.40029,0.0,2,0,0,0
92796000,47.3977392325,8.54564503027,535.607,40.2698,-0.0,-0.0045216,0.449842,-0.899154,-1.62549e-05,2.29802,2.4003,0.0,2,0,0,0
92988000,47.3977391739,8.54564614269,535.779,40.4223,-0.0,-0.00292828,0.449739,-0.898604,0.000187268,2.29796,2.40026,0.0,2,0,0,0
93188000,47.3977391298,8.54564730662,535.96,40.5836,-0.0,-0.000727182,0.449977,-0.89935,0.000124038,2.29796,2.40027,0.0,2,0,0,0
93388000,47.3977390893,8.54564847714,536.141,40.7444,-0.0,-0.00115687,0.45151,-0.895452,6.26697e-05,2.29797,2.40029,0.0,2,0,0,0
93588000,47.397739044,8.545649661,536.32,40.9035,-0.0,-0.00132809,0.447795,-0.89613,0.000214387,2.29797,2.4003,0.0,2,0,0,0
93788000,47.3977389987,8.54565083395,536.498,41.0614,-0.0,-0.00101508,0.4499,-0.893983,0.000202852,2.29797,2.40032,0.0,2,0,0,0
93980000,47.3977389589,8.5456519626,536.668,41.2114,-0.0,-0.00174368,0.449796,-0.897142,0.000306888,2.29791,2.40028,0.0,2,0,0,0
94172000,47.3977389252,8.54565310676,536.84,41.363,-0.0,0.00156719,0.452613,-0.895962,0.000483607,2.29785,2.40024,0.0,2,0,0,0
94364000,47.3977388906,8.54565425998,537.011,41.5145,-0.0,-0.00218421,0.453753,-0.897401,0.000771482,2.29853,2.40042,0.0,2,0,0,0
94556000,47.3977388447,8.54565542375,537.184,41.6675,-0.0,-0.00223321,0.453288,-0.898011,0.00074609,2.29847,2.40038,0.0,2,0,0,0
94748000,47.3977387972,8.54565659898,537.357,41.8199,-0.0,-0.00255439,0.45387,-0.896411,0.000500776,2.29841,2.40034,0.0,2,0,0,0
94948000,47.3977387394,8.54565783342,537.536,41.9791,-0.0,-0.00229805,0.452669,-0.894748,0.000439911,2.29841,2.40036,0.0,2,0,0,0
95140000,47.3977386822,8.5456590029,537.707,42.1302,-0.0,-0.00248496,0.452503,-0.896353,0.000225426,2.29835,2.40032,0.0,2,0,0,0
95332000,47.3977386324,8.54566014014,537.878,42.2805,-0.0,-0.00224297,0.450936,-0.896921,0.000482913,2.29829,2.4004,0.0,2,0,0,0
95524000,47.3977385994,8.54566127956,538.047,42.4297,-0.0,0.000965181,0.453505,-0.898769,0.000265438,2.29823,2.40036,0.0,2,0,0,0
95716000,47.3977385612,8.54566242961,538.218,42.5807,-0.0,-0.00114588,0.452453,-0.899691,-0.000220628,2.29817,2.40032,0.0,2,0,0,0
95916000,47.3977385181,8.54566363188,538.397,42.7501,-0.0,0.00103778,0.450391,-0.900355,-0.000230883,2.29817,2.40033,0.0,2,0,0,0
96108000,47.3977384792,8.54566479578,538.571,42.9038,-0.0,0.000807134,0.453239,-0.899176,0.000231434,2.29811,2.40041,0.0,2,0,0,0
96300000,47.3977384483,8.54566596783,538.746,43.0584,-0.0,0.00138223,0.454459,-0.896271,0.000243421,2.29805,2.40037,0.0,2,0,0,0
96492000,47.3977384348,8.54566711965,538.919,43.2122,-0.0,0.00221081,0.452188,-0.894062,0.000696859,2.29799,2.40032,0.0,2,0,0,0
96684000,47.3977384353,8.5456682646,539.093,43.366,-0.0,0.00168705,0.453818,-0.891571,0.000549708,2.29794,2.40028,0.0,2,0,0,0
96876000,47.3977384244,8.54566941199,539.267,43.5198,-0.0,-0.00108659,0.451063,-0.890765,0.000563693,2.29788,2.40036,0.0,2,0,0,0
97068000,47.3977384079,8.54567055216,539.44,43.6727,-0.0,-0.000622708,0.451719,-0.889146,0.000417828,2.29857,2.40041,0.0,2,0,0,0
97260000,47.397738395,8.54567170191,539.614,43.8263,-0.0,0.00157081,0.448881,-0.888884,0.000316859,2.2985,2.40049,0.0,2,0,0,0
97452000,47.3977383925,8.54567284839,539.787,43.9794,-0.0,0.00236836,0.449957,-0.887145,0.000152892,2.29844,2.40044,0.0,2,0,0,0
97644000,47.3977384011,8.54567398954,539.959,44.1313,-0.0,0.00458836,0.449171,-0.884296,0.000253912,2.29838,2.40039,0.0,2,0,0,0
97836000,47.3977384156,8.54567511939,540.128,44.2806,-0.0,0.00501754,0.449742,-0.887441,0.000558445,2.29832,2.40035,0.0,2,0,0,0
98036000,47.3977384285,8.54567629724,540.303,44.4356,-0.0,0.00229203,0.449888,-0.890152,0.00108045,2.29832,2.40035,0.0,2,0,0,0
98228000,47.39773844,8.5456774171,540.471,44.5839,-0.0,0.00251462,0.447068,-0.894367,0.000892763,2.29826,2.40044,0.0,2,0,0,0
98420000,47.3977384544,8.54567853938,540.64,44.733,-0.0,0.00080908,0.446995,-0.893806,0.00063398,2.2982,2.40039,0.0,2,0,0,0
98612000,47.3977384707,8.54567967937,540.811,44.894,-0.0,0.00482443,0.44695,-0.898256,0.000564407,2.29814,2.40035,0.0,2,0,0,0
98804000,47.3977384915,8.54568081982,540.983,45.0454,-0.0,0.00482726,0.450562,-0.898396,0.000873593,2.29808,2.4003,0.0,2,0,0,0
98996000,47.3977385098,8.5456819568,541.156,45.1989,-0.0,0.00305246,0.451201,-0.898027,0.00036107,2.29802,2.40039,0.0,2,0,0,0
99188000,47.3977385201,8.5456830757,541.329,45.3518,-0.0,0.00192916,0.449498,-0.896117,0.00037057,2.29796,2.40034,0.0,2,0,0,0
99380000,47.3977385276,8.54568420557,541.5,45.5031,-0.0,0.00214949,0.451664,-0.895257,0.00025719,2.29791,2.4003,0.0,2,0,0,0
99572000,47.3977385405,8.54568535981,541.671,45.6539,-0.0,0.00328809,0.451541,-0.895295,9.25709e-05,2.29785,2.40038,0.0,2,0,0,0
99764000,47.3977385657,8.54568653322,541.843,45.8053,-0.0,0.0035187,0.453112,-0.894934,9.21064e-05,2.29853,2.40043,0.0,2,0,0,0
99964000,47.3977386003,8.54568776447,542.026,45.9681,-0.0,0.00520012,0.454893,-0.895721,-2.12472e-06,2.29853,2.40044,0.0,2,0,0,0
100156000,47.3977386313,8.5456889531,542.202,46.1243,-0.0,0.00383545,0.453005,-0.89184,-2.84942e-05,2.29847,2.4004,0.0,2,0,0,0
100348000,47.3977386678,8.54569013626,542.375,46.2777,-0.0,0.00479891,0.450838,-0.888571,-1.54585e-05,2.29841,2.40035,0.0,2,0,0,0
100548000,47.3977387025,8.54569138106,542.552,46.4342,-0.0,0.00600845,0.453815,-0.88971,-0.000231611,2.29841,2.40049,0.0,2,0,0,0
100740000,47.3977387436,8.54569257468,542.721,46.5836,-0.0,0.00757257,0.453515,-0.889494,-0.000447695,2.29835,2.40044,0.0,2,0,0,0
100932000,47.3977387853,8.54569378011,542.891,46.7333,-0.0,0.00694688,0.454934,-0.892109,-0.000513972,2.29829,2.40039,0.0,2,0,0,0
101124000,47.3977388244,8.54569499755,543.061,46.8834,-0.0,0.00624256,0.456663,-0.893333,-0.00013765,2.29823,2.40034,0.0,2,0,0,0
101316000,47.3977388537,8.54569623293,543.234,47.0359,-0.0,0.00344095,0.45548,-0.894282,-0.000181754,2.29817,2.40042,0.0,2,0,0,0
101508000,47.3977388763,8.54569748533,543.407,47.1992,-0.0,0.00286179,0.457077,-0.893178,-0.000103479,2.29811,2.40038,0.0,2,0,0,0
101708000,47.397738898,8.54569877319,543.585,47.3572,-0.0,0.00213014,0.455945,-0.893866,-0.000446399,2.29811,2.40039,0.0,2,0,0,0
101908000,47.3977389148,8.54570005945,543.764,47.5163,-0.0,0.00242406,0.455805,-0.8936,-0.000588339,2.29811,2.40039,0.0,2,0,0,0
102100000,47.3977389216,8.54570128848,543.938,47.6699,-0.0,0.00205901,0.455202,-0.89212,-0.000610251,2.29805,2.40035,0.0,2,0,0,0
102292000,47.3977389283,8.54570251859,544.109,47.8212,-0.0,0.0022591,0.453146,-0.892191,-0.000784743,2.29799,2.4003,0.0,2,0,0,0
102484000,47.3977389456,8.54570375708,544.281,47.9734,-0.0,0.00244524,0.45467,-0.891997,-0.00102113,2.29794,2.40038,0.0,2,0,0,0
102676000,47.397738954,8.54570502479,544.452,48.1247,-0.0,0.0032404,0.455683,-0.891477,-0.00104984,2.29788,2.40033,0.0,2,0,0,0
102868000,47.3977389475,8.54570627722,544.625,48.2776,-0.0,0.00184553,0.454848,-0.890766,-0.000643388,2.29857,2.40051,0.0,2,0,0,0
103060000,47.397738936,8.54570752019,544.795,48.4275,-0.0,0.000223072,0.454985,-0.891535,-0.000919057,2.2985,2.40046,0.0,2,0,0,0
103252000,47.3977389182,8.54570876463,544.965,48.5773,-0.0,-0.000764806,0.456144,-0.894126,-0.00108562,2.29844,2.40041,0.0,2,0,0,0
103444000,47.3977389036,8.54571002057,545.139,48.7312,-0.0,0.00175903,0.454708,-0.892796,-0.000948777,2.29838,2.40036,0.0,2,0,0,0
103636000,47.3977388891,8.54571127479,545.314,48.886,-0.0,0.000863594,0.455022,-0.891993,-0.000792657,2.29832,2.40044,0.0,2,0,0,0
103828000,47.3977388764,8.54571251318,545.489,49.0408,-0.0,0.00235649,0.453541,-0.889822,-0.000873033,2.29826,2.40039,0.0,2,0,0,0
104020000,47.3977388761,8.54571375292,545.662,49.1937,-0.0,0.00326445,0.451917,-0.885194,-0.000945537,2.2982,2.40034,0.0,2,0,0,0
104212000,47.3977388698,8.54571497995,545.834,49.3557,-0.0,0.000887121,0.454447,-0.885451,-0.000889841,2.29814,2.40043,0.0,2,0,0,0
104404000,47.3977388604,8.54571619911,546.004,49.5061,-0.0,0.00228178,0.455591,-0.88563,-0.000729643,2.29808,2.40038,0.0,2,0,0,0
104604000,47.3977388572,8.54571746582,546.182,49.6644,-0.0,0.00244839,0.454242,-0.886852,-0.00061953,2.29808,2.40039,0.0,2,0,0,0
104796000,47.397738863,8.5457186894,546.353,49.8148,-0.0,0.00163224,0.454229,-0.888618,-0.000675729,2.29802,2.40034,0.0,2,0,0,0
104988000,47.3977388688,8.54571990824,546.521,49.9625,-0.0,0.00137091,0.45287,-0.890343,-0.000538773,2.29796,2.40029,0.0,2,0,0,0
105180000,47.3977388692,8.54572112458,546.69,50.1116,-0.0,0.000603789,0.453853,-0.893362,-0.000756729,2.29791,2.40038,0.0,2,0,0,0
105372000,47.3977388572,8.54572233048,546.859,50.2614,-0.0,0.000481111,0.451695,-0.895263,-0.000290678,2.29785,2.40033,0.0,2,0,0,0
105564000,47.3977388473,8.54572352202,547.03,50.4116,-0.0,-0.000740442,0.453555,-0.8976,-0.000513649,2.29853,2.40051,0.0,2,0,0,0
105756000,47.3977388482,8.54572468897,547.199,50.5614,-0.0,8.4346e-05,0.451578,-0.896787,-0.000661055,2.29847,2.40046,0.0,2,0,0,0
105948000,47.397738853,8.54572584242,547.369,50.7108,-0.0,-0.000435246,0.450259,-0.898336,-0.000752521,2.29841,2.40041,0.0,2,0,0,0
