timestamp,rollspeed,pitchspeed,yawspeed,q[0],q[1],q[2],q[3],delta_q_reset[0],delta_q_reset[1],delta_q_reset[2],delta_q_reset[3],quat_reset_counter
1316000,0.00400002,0.00200003,0.00150858,0.999997,-0.000281253,-0.000127498,0.00264107,0.999997,7.92831e-07,-1.71253e-06,0.00240907,1
1344000,-0.00199999,0.00700003,0.00650942,0.999996,-0.000254724,-0.000110852,0.00274821,0.999997,7.92831e-07,-1.71253e-06,0.00240907,1
1372000,-0.00449997,-0.00499994,0.00750577,0.999996,-0.000272584,-0.000146596,0.00288335,0.999997,7.92831e-07,-1.71253e-06,0.00240907,1
1404000,0.00100007,-0.00449992,0.00200502,0.999995,-0.000292235,-0.000134927,0.00303292,0.999997,7.92831e-07,-1.71253e-06,0.00240907,1
1436000,-0.00249992,-0.00849989,-0.0124942,0.999996,-0.000253597,-7.4411e-05,0.00297147,0.999997,7.92831e-07,-1.71253e-06,0.00240907,1
1464000,0.0125001,-0.0059999,6.55089e-06,0.999995,-0.000180362,-0.00011506,0.00305012,0.999997,7.92831e-07,-1.71253e-06,0.00240907,1
1492000,0.0145001,-0.0114999,-0.00198732,0.999995,-0.000150012,-0.00012848,0.00305541,0.999997,7.92831e-07,-1.71253e-06,0.00240907,1
1520000,0.00100018,-0.000499833,-0.007987,0.999995,-0.000133492,-0.000152621,0.00309056,0.999997,7.92831e-07,-1.71253e-06,0.00240907,1
1552000,0.00900028,0.0165002,0.0135133,0.999995,-7.22593e-05,-3.13335e-05,0.00322082,0.999997,7.92831e-07,-1.71253e-06,0.00240907,1
1580000,-0.00499969,-0.00499976,-0.00348357,0.999995,-2.26523e-05,-2.68986e-05,0.0032556,0.999997,7.92831e-07,-1.71253e-06,0.00240907,1
1612000,-0.00849966,-0.00149973,0.00601651,0.999995,-0.000122648,-0.000106746,0.00331257,0.999997,7.92831e-07,-1.71253e-06,0.00240907,1
1640000,0.00150039,-0.000499622,0.0215149,0.999994,-0.000162098,-7.73342e-05,0.00342339,0.999997,7.92831e-07,-1.71253e-06,0.00240907,1
1668000,0.00650052,0.00250043,-0.00748126,0.999994,-8.67711e-05,1.75174e-05,0.0034167,0.999997,7.92831e-07,-1.71253e-06,0.00240907,1
1696000,-0.00499932,0.0145005,-0.00748123,0.999994,-0.000114154,2.30469e-05,0.00337165,0.999997,7.92831e-07,-1.71253e-06,0.00240907,1
1724000,0.00200071,0.00350054,0.00552038,0.999994,-9.88718e-05,0.000119743,0.0034183,0.999997,7.92831e-07,-1.71253e-06,0.00240907,1
1752000,0.00500087,0.000500629,0.020524,0.999994,-9.73077e-05,0.000123394,0.00347285,0.999997,7.92831e-07,-1.71253e-06,0.00240907,1
1780000,-0.00699895,-0.00949925,-0.0144753,0.999994,-4.66883e-05,0.000102198,0.0035149,0.999997,7.92831e-07,-1.71253e-06,0.00240907,1
1808000,-0.000998839,0.00900082,-0.00597706,0.999994,-0.000165364,0.000152368,0.00349412,0.999997,7.92831e-07,-1.71253e-06,0.00240907,1
1836000,-0.0129988,0.00500089,0.0145222,0.999993,-0.000174905,0.000161922,0.00366325,0.999997,7.92831e-07,-1.71253e-06,0.00240907,1
1864000,-0.00899844,0.00100107,0.0130274,0.999993,-0.000195457,0.000164392,0.00377214,0.999997,7.92831e-07,-1.71253e-06,0.00240907,1
1896000,0.00200169,-0.00749878,0.0035248,0.999993,-0.000278937,0.000148637,0.00377554,0.999997,7.92831e-07,-1.71253e-06,0.00240907,1
1928000,0.002002,-0.00149856,2.183e-05,0.999993,-0.000246483,0.000141264,0.00373579,0.999997,7.92831e-07,-1.71253e-06,0.00240907,1
1960000,-0.00499783,0.00550156,-0.0069762,0.999993,-0.000258115,0.000148678,0.00365579,0.999997,7.92831e-07,-1.71253e-06,0.00240907,1
1988000,-0.00649769,-0.0019983,-0.0059776,0.999993,-0.000315664,0.00011584,0.00361941,0.999997,7.92831e-07,-1.71253e-06,0.00240907,1
2016000,-0.0119973,-0.00899803,-0.00197985,0.999993,-0.000378317,0.000112989,0.00367035,0.999997,7.92831e-07,-1.71253e-06,0.00240907,1
2044000,0.00300284,-0.00949789,0.00452021,0.999993,-0.000371974,0.000108372,0.00371588,0.999997,7.92831e-07,-1.71253e-06,0.00240907,1
2072000,0.00300297,-0.000997725,0.0115184,0.999993,-0.000402321,1.6581e-05,0.00372002,0.999997,7.92831e-07,-1.71253e-06,0.00240907,1
2100000,-0.00249687,0.00250236,-0.00698648,0.999993,-0.000355114,4.50485e-05,0.00368237,0.999997,7.92831e-07,-1.71253e-06,0.00240907,1
2128000,0.00850346,-0.00699751,-0.0124856,0.999993,-0.000385841,5.41935e-05,0.00361536,0.999997,7.92831e-07,-1.71253e-06,0.00240907,1
2156000,-0.0069964,-0.00349749,-0.0004852,0.999994,-0.000433664,9.02664e-05,0.00357602,0.999997,7.92831e-07,-1.71253e-06,0.00240907,1
2188000,0.00250374,0.0130025,0.00851367,0.999993,-0.000359471,0.000135817,0.00362338,0.999997,7.92831e-07,-1.71253e-06,0.00240907,1
2220000,-0.00499596,0.00300239,0.00651062,0.999993,-0.000377196,0.000157982,0.00362767,0.999997,7.92831e-07,-1.71253e-06,0.00240907,1
2248000,-0.00599582,0.00950226,0.00101,0.999993,-0.000402838,0.000144051,0.00363786,0.999997,7.92831e-07,-1.71253e-06,0.00240907,1
2276000,-0.00399567,2.05434e-06,0.00200818,0.999993,-0.000462454,0.000122955,0.00365733,0.999997,7.92831e-07,-1.71253e-06,0.00240907,1
2304000,0.0080046,0.00100149,0.00550979,0.999993,-0.000421391,0.000190143,0.0036505,0.999997,7.92831e-07,-1.71253e-06,0.00240907,1
2332000,-0.00649527,-0.00149891,9.4936e-06,0.999993,-0.000485205,0.000225901,0.00368753,0.999997,7.92831e-07,-1.71253e-06,0.00240907,1
2360000,0.00150489,0.0010006,0.00801217,0.999994,-0.000468031,0.000252792,0.00354673,0.999997,7.92831e-07,-1.71253e-06,0.00240907,1
2388000,-0.0114949,0.0015,-0.0139847,0.999994,-0.000553454,0.00017626,0.00348976,0.999997,7.92831e-07,-1.71253e-06,0.00240907,1
2416000,0.00100549,-0.0120013,-0.000977689,0.999994,-0.000569661,4.18726e-05,0.00347223,0.999997,7.92831e-07,-1.71253e-06,0.00240907,1
2444000,-0.00799422,0.0124979,0.00302113,0.999994,-0.000575431,7.43873e-05,0.00346272,0.999997,7.92831e-07,-1.71253e-06,0.00240907,1
2476000,0.023006,-0.00850297,-0.0024801,0.999994,-0.000502061,8.69529e-05,0.00344949,0.999997,7.92831e-07,-1.71253e-06,0.00240907,1
2504000,-0.00399335,-0.00700489,-0.00547936,0.999994,-0.000456465,3.03075e-05,0.00341639,0.999997,7.92831e-07,-1.71253e-06,0.00240907,1
2532000,7.02973e-06,0.00799406,-0.0114775,0.999994,-0.000482857,-1.97339e-05,0.00337312,0.999997,7.92831e-07,-1.71253e-06,0.00240907,1
2564000,-0.0144925,-0.000507128,-0.00597982,0.999994,-0.000449433,1.81146e-05,0.00333008,0.999997,7.92831e-07,-1.71253e-06,0.00240907,1
2592000,-0.00349146,0.000490515,0.00701439,0.999994,-0.000533969,4.85175e-05,0.00333612,0.999997,7.92831e-07,-1.71253e-06,0.00240907,1
2620000,0.00600917,-0.00151079,0.0110127,0.999994,-0.000491319,4.52514e-05,0.00346336,0.999997,7.92831e-07,-1.71253e-06,0.00240907,1
2648000,-0.00349011,-0.00451223,0.0115124,0.999994,-0.000456372,-2.42439e-05,0.00350692,0.999997,7.92831e-07,-1.71253e-06,0.00240907,1
2676000,0.000510626,0.00298637,0.000508592,0.999994,-0.000474611,-7.16255e-06,0.00349675,0.999997,7.92831e-07,-1.71253e-06,0.00240907,1
2708000,1.24005e-05,-0.00951671,-0.00999447,0.999994,-0.000439444,-3.2421e-05,0.00343678,0.999997,7.92831e-07,-1.71253e-06,0.00240907,1
2740000,0.00851329,0.00748166,0.00750209,0.999994,-0.00042009,-7.28587e-05,0.00356494,0.999997,7.92831e-07,-1.71253e-06,0.00240907,1
2772000,0.00351539,0.000478236,0.00600628,0.999994,-0.000396711,-5.46752e-05,0.00352709,0.999997,7.92831e-07,-1.71253e-06,0.00240907,1
2800000,0.00201657,-0.00152355,-0.00699699,0.999994,-0.000320468,-1.11167e-05,0.00348218,0.999997,7.92831e-07,-1.71253e-06,0.00240907,1
2828000,-0.00848221,0.00597453,-0.014999,0.999994,-0.000333155,5.09593e-05,0.00344203,0.999997,7.92831e-07,-1.71253e-06,0.00240907,1
2856000,-0.00147975,-2.94198e-05,0.000499897,0.999994,-0.000285361,3.39795e-05,0.00344042,0.999997,7.92831e-07,-1.71253e-06,0.00240907,1
2888000,-0.0049784,0.00146845,-0.00100128,0.999994,-0.000297364,8.11539e-05,0.00350784,0.999997,7.92831e-07,-1.71253e-06,0.00240907,1
2916000,-0.014977,-0.0210337,0.00599896,0.999994,-0.000371265,6.43774e-05,0.00351238,0.999997,7.92831e-07,-1.71253e-06,0.00240907,1
2948000,-0.00447414,-0.00353832,-0.000997928,0.999994,-0.000399611,4.88651e-05,0.00346005,0.999997,7.92831e-07,-1.71253e-06,0.00240907,1
2976000,-0.00347263,0.00245927,0.00100561,0.999994,-0.000426047,6.74485e-06,0.00345143,0.999997,7.92831e-07,-1.71253e-06,0.00240907,1
3008000,0.00752898,-0.00654319,0.00550553,0.999994,-0.000383035,-1.39153e-05,0.00347673,0.999997,7.92831e-07,-1.71253e-06,0.00240907,1
3040000,3.2269e-05,0.00995186,-0.00148703,0.999994,-0.000391988,3.28816e-05,0.00348726,0.999997,7.92831e-07,-1.71253e-06,0.00240907,1
3068000,0.009534,-0.00755057,1.31794e-05,0.999994,-0.000370095,5.92524e-05,0.00355386,0.999997,7.92831e-07,-1.71253e-06,0.00240907,1
3096000,-0.0119625,-0.00955552,0.00600742,0.999994,-0.000394892,4.82276e-05,0.00355549,0.999997,7.92831e-07,-1.71253e-06,0.00240907,1
3128000,0.00103954,0.00844195,-0.0144928,0.999994,-0.000402872,6.25674e-06,0.00348036,0.999997,7.92831e-07,-1.71253e-06,0.00240907,1
3156000,0.00504153,-0.00806057,-0.00799474,0.999994,-0.000392243,-1.70216e-05,0.00345506,0.999997,7.92831e-07,-1.71253e-06,0.00240907,1
3184000,0.00554367,-0.00456318,-0.00549507,0.999994,-0.0003736,2.61544e-06,0.00345561,0.999997,7.92831e-07,-1.71253e-06,0.00240907,1
3212000,-0.00295408,0.00593419,0.000505501,0.999994,-0.000356597,-2.88758e-05,0.00346929,0.999997,7.92831e-07,-1.71253e-06,0.00240907,1
3240000,-0.0134493,0.00292888,-0.00349213,0.999994,-0.000420422,-4.28243e-05,0.00343747,0.999997,7.92831e-07,-1.71253e-06,0.00240907,1
3268000,0.00305322,0.0014262,-0.00149235,0.999994,-0.000407156,-2.76017e-05,0.00343891,0.999997,7.92831e-07,-1.71253e-06,0.00240907,1
3296000,-0.00294421,0.00042345,5.96753e-06,0.999994,-0.000439617,-3.66549e-05,0.00336917,0.999997,7.92831e-07,-1.71253e-06,0.00240907,1
3324000,0.00655828,-0.0100792,-0.00299738,0.999994,-0.000396826,-3.46149e-05,0.00338559,0.999997,7.92831e-07,-1.71253e-06,0.00240907,1
3352000,-0.00043667,0.00191545,-0.000996305,0.999994,-0.000487606,-9.21902e-05,0.00332739,0.999997,7.92831e-07,-1.71253e-06,0.00240907,1
3380000,-0.00793417,0.0174128,0.00250184,0.999994,-0.000555486,-7.27341e-05,0.00332697,0.999997,7.92831e-07,-1.71253e-06,0.00240907,1
3408000,0.00406817,0.00941024,0.00650346,0.999994,-0.000562192,-3.52226e-05,0.00334229,0.999997,7.92831e-07,-1.71253e-06,0.00240907,1
3436000,-0.000929435,0.00540772,0.00550472,0.999994,-0.000541646,-3.46745e-05,0.0033451,0.999997,7.92831e-07,-1.71253e-06,0.00240907,1
3464000,-0.00842457,0.00140279,0.0055004,0.999994,-0.000612192,4.2519e-05,0.00339111,0.999997,7.92831e-07,-1.71253e-06,0.00240907,1
3496000,-0.00342228,0.0044005,-0.00549337,0.999994,-0.000559549,7.00442e-05,0.0033766,0.999997,7.92831e-07,-1.71253e-06,0.00240907,1
3528000,0.00208252,-0.00210403,0.00349451,0.999994,-0.000537886,0.000130464,0.00336963,0.999997,7.92831e-07,-1.71253e-06,0.00240907,1
3556000,-0.00241507,-0.00110621,0.00249326,0.999994,-0.000440622,8.51492e-05,0.00343134,0.999997,7.92831e-07,-1.71253e-06,0.00240907,1
3584000,0.00108728,-0.0096082,-0.00250615,0.999994,-0.000440253,4.94609e-05,0.00343356,0.999997,7.92831e-07,-1.71253e-06,0.00240907,1
3612000,0.00308962,0.00838988,-0.0025084,0.999994,-0.0004692,0.000117726,0.00337515,0.999997,7.92831e-07,-1.71253e-06,0.00240907,1
3640000,-0.000405713,-0.000113599,-5.12748e-06,0.999994,-0.000422887,0.000136408,0.00348699,0.999997,7.92831e-07,-1.71253e-06,0.00240907,1
3668000,0.00409651,-0.000115128,0.00299706,0.999993,-0.000419084,5.00288e-05,0.00362868,0.999997,7.92831e-07,-1.71253e-06,0.00240907,1
3696000,-0.0134013,0.0128834,-0.010002,0.999993,-0.000405155,0.000196805,0.00362011,0.999997,7.92831e-07,-1.71253e-06,0.00240907,1
3728000,-0.00439667,-0.00261917,0.0110003,0.999993,-0.000443715,0.000193716,0.00365946,0.999997,7.92831e-07,-1.71253e-06,0.00240907,1
3756000,-0.0033944,0.0108796,0.00799879,0.999993,-0.000400106,0.000195956,0.00371021,0.999997,7.92831e-07,-1.71253e-06,0.00240907,1
3784000,-0.000392163,-0.00062149,-0.0100109,0.999993,-0.000426558,0.000205135,0.00368637,0.999997,7.92831e-07,-1.71253e-06,0.00240907,1
3812000,0.0151101,0.00137742,-1.46457e-05,0.999993,-0.000413822,0.000164678,0.00366848,0.999997,7.92831e-07,-1.71253e-06,0.00240907,1
3844000,-0.00688539,-0.00412435,0.00547989,0.999993,-0.000428911,0.000100552,0.00363956,0.999997,7.92831e-07,-1.71253e-06,0.00240907,1
3876000,-0.000383092,-0.00862527,0.011464,0.999993,-0.000421152,6.58188e-05,0.00360904,0.999997,7.92831e-07,-1.71253e-06,0.00240907,1
3904000,0.000121537,-0.00362674,0.00446201,0.999993,-0.000431528,9.79859e-05,0.00361524,0.999997,7.92831e-07,-1.71253e-06,0.00240907,1
3932000,0.00762381,-0.000127382,0.00196287,0.999993,-0.000412541,6.04427e-05,0.00361356,0.999997,7.92831e-07,-1.71253e-06,0.00240907,1
3960000,0.00112614,-0.004628,-0.000545354,0.999993,-0.000383961,0.000135196,0.00367329,0.999997,7.92831e-07,-1.71253e-06,0.00240907,1
3992000,0.00213091,0.00137092,0.000958351,0.999993,-0.000379125,0.000147453,0.0036519,0.999997,7.92831e-07,-1.71253e-06,0.00240907,1
4020000,-0.000866803,0.00487047,0.00246602,0.999993,-0.000389823,7.54394e-05,0.00363148,0.999997,7.92831e-07,-1.71253e-06,0.00240907,1
4052000,0.00163547,0.00637003,-0.00654449,0.999994,-0.000396927,0.000111112,0.00359193,0.999997,7.92831e-07,-1.71253e-06,0.00240907,1
4080000,-0.00285993,-0.00563079,0.00395606,0.999994,-0.000384777,9.85888e-05,0.00359561,0.999997,7.92831e-07,-1.71253e-06,0.00240907,1
4108000,-0.00685773,0.00386884,0.00744855,0.999993,-0.0003577,0.000137284,0.00364444,0.999997,7.92831e-07,-1.71253e-06,0.00240907,1
4140000,-0.00185554,0.00586852,0.00294966,0.999994,-0.000297686,0.000188755,0.00354238,0.999997,7.92831e-07,-1.71253e-06,0.00240907,1
4172000,0.00514864,0.00236802,0.00344763,0.999994,-0.000262312,0.000156346,0.00351643,0.999997,7.92831e-07,-1.71253e-06,0.00240907,1
4204000,-0.00484944,0.00236783,-0.0160628,0.999994,-0.000337861,0.000103707,0.00343976,0.999997,7.92831e-07,-1.71253e-06,0.00240907,1
4232000,0.000654276,-0.0101324,-0.00355803,0.999994,-0.000384531,6.97319e-05,0.00336774,0.999997,7.92831e-07,-1.71253e-06,0.00240907,1
4260000,0.000656079,-0.00763252,-0.00556186,0.999994,-0.000365247,3.11209e-05,0.00334494,0.999997,7.92831e-07,-1.71253e-06,0.00240907,1
4292000,0.0141578,0.00236747,0.00294046,0.999995,-0.000287327,9.84445e-05,0.0032585,0.999997,7.92831e-07,-1.71253e-06,0.00240907,1
4324000,0.00316125,-0.0011324,-0.00606818,0.999995,-0.000174251,0.00010006,0.00321503,0.999997,7.92831e-07,-1.71253e-06,0.00240907,1
4352000,-0.0103371,-0.00513218,-0.00256733,0.999995,-0.00020935,0.000117688,0.00317382,0.999997,7.92831e-07,-1.71253e-06,0.00240907,1
4380000,0.00166461,-0.00463192,0.00743362,0.999995,-0.000200263,7.1597e-05,0.00310075,0.999997,7.92831e-07,-1.71253e-06,0.00240907,1
4412000,-0.000332058,-0.0041311,0.0039282,0.999995,-0.000147316,5.2586e-05,0.00318364,0.999997,7.92831e-07,-1.71253e-06,0.00240907,1
4440000,0.0101696,0.00786943,0.0154174,0.999995,-0.000111829,0.00014694,0.00315851,0.999997,7.92831e-07,-1.71253e-06,0.00240907,1
4472000,0.00267127,0.00186998,0.0114208,0.999995,-4.92481e-05,0.000174343,0.00324594,0.999997,7.92831e-07,-1.71253e-06,0.00240907,1
4504000,-0.00232531,0.00887117,-0.00257773,0.999995,-5.1556e-05,0.000141747,0.00318382,0.999997,7.92831e-07,-1.71253e-06,0.00240907,1
4532000,-0.00382364,-0.00362826,0.00493359,0.999995,-4.8044e-05,0.000170539,0.00314335,0.999997,7.92831e-07,-1.71253e-06,0.00240907,1
4560000,0.007178,-0.00762767,0.00493454,0.999995,-3.23727e-05,0.000156545,0.00313437,0.999997,7.92831e-07,-1.71253e-06,0.00240907,1
4592000,0.00818124,-0.0051264,-0.00405517,0.999995,1.53128e-05,0.000110674,0.00313893,0.999997,7.92831e-07,-1.71253e-06,0.00240907,1
4620000,-0.0118171,-0.0161258,0.00194066,0.999995,-1.01202e-05,0.000113843,0.00316726,0.999997,7.92831e-07,-1.71253e-06,0.00240907,1
4648000,-0.00281553,-0.00912513,-0.0015594,0.999995,2.60233e-06,8.22793e-05,0.00318654,0.999997,7.92831e-07,-1.71253e-06,0.00240907,1
4676000,0.00518605,0.000375565,-0.00255452,0.999995,2.69864e-05,0.000150863,0.00324632,0.999997,7.92831e-07,-1.71253e-06,0.00240907,1
4704000,-0.000810938,-0.00812302,-0.00304942,0.999995,3.19995e-05,4.75427e-05,0.00321599,0.999997,7.92831e-07,-1.71253e-06,0.00240907,1
4732000,0.000690646,-0.0171222,0.00645104,0.999995,5.19482e-05,-4.36345e-05,0.00333585,0.999997,7.92831e-07,-1.71253e-06,0.00240907,1
4760000,-0.00430799,0.00637863,0.00145613,0.999995,8.5693e-05,-8.46476e-05,0.00324773,0.999997,7.92831e-07,-1.71253e-06,0.00240907,1
4788000,0.0066947,0.00138038,0.00145791,0.999995,0.00013005,1.51757e-06,0.00326022,0.999997,7.92831e-07,-1.71253e-06,0.00240907,1
4816000,-0.003304,-0.00611867,-0.00053818,0.999995,9.65652e-05,2.9547e-05,0.00331834,0.999997,7.92831e-07,-1.71253e-06,0.00240907,1
4844000,-0.00730276,0.0118823,0.00495319,0.999994,9.60642e-05,4.27859e-05,0.00342045,0.999997,7.92831e-07,-1.71253e-06,0.00240907,1
4876000,-0.0088015,-0.00511661,-4.49422e-05,0.999994,-9.61471e-06,6.28414e-05,0.00339045,0.999997,7.92831e-07,-1.71253e-06,0.00240907,1
4904000,-0.00129916,0.0023855,-0.00353036,0.999994,1.3881e-05,4.14297e-05,0.00342793,0.999997,7.92831e-07,-1.71253e-06,0.00240907,1
4932000,-0.000298133,0.0038866,-0.00503474,0.999994,0.000111237,3.63757e-05,0.00340837,0.999997,7.92831e-07,-1.71253e-06,0.00240907,1
4964000,0.0082028,0.00388764,0.0154695,0.999994,0.000165263,7.34121e-05,0.00348749,0.999997,7.92831e-07,-1.71253e-06,0.00240907,1
4992000,0.000204351,-0.00961033,0.0204766,0.999994,0.000204407,7.14063e-05,0.00358252,0.999997,7.92831e-07,-1.71253e-06,0.00240907,1
5024000,0.00420499,-0.00110927,-0.00350715,0.999993,0.000222475,9.60066e-06,0.00361806,0.999997,7.92831e-07,-1.71253e-06,0.00240907,1
5052000,0.00570553,-0.000608345,0.0144937,0.999993,0.000281438,-3.71524e-05,0.00369833,0.999997,7.92831e-07,-1.71253e-06,0.00240907,1
5080000,-0.00729365,0.00589344,0.00100309,0.999993,0.000255975,-1.91447e-05,0.0037007,0.999997,7.92831e-07,-1.71253e-06,0.00240907,1
5108000,-0.00179338,-0.00560578,0.00400309,0.999993,0.000294427,-3.08562e-05,0.0037191,0.999997,7.92831e-07,-1.71253e-06,0.00240907,1
5136000,0.00920684,-0.0071051,-0.013004,0.999993,0.000296065,-0.000157733,0.00372496,0.999997,7.92831e-07,-1.71253e-06,0.00240907,1
5164000,0.00320673,0.000396038,-0.00152909,0.999993,0.000255185,-0.000218793,0.00373749,0.999997,7.92831e-07,-1.71253e-06,0.00240907,1
5192000,-0.000793422,-0.00260354,-0.0150253,0.999993,0.000298104,-0.000299611,0.00369461,0.999997,7.92831e-07,-1.71253e-06,0.00240907,1
5220000,0.00320625,0.00239679,0.00197121,0.999993,0.000288202,-0.000242755,0.00368448,0.999997,7.92831e-07,-1.71253e-06,0.00240907,1
5252000,-0.00479463,0.00389723,-0.0120187,0.999993,0.000340617,-0.000218721,0.00368248,0.999997,7.92831e-07,-1.71253e-06,0.00240907,1
5280000,0.00370472,-0.00260264,0.00498499,0.999993,0.000377844,-0.000128025,0.00367401,0.999997,7.92831e-07,-1.71253e-06,0.00240907,1
5312000,-0.000295952,0.0138975,0.00299209,0.999993,0.000301977,1.00869e-05,0.00371493,0.999997,7.92831e-07,-1.71253e-06,0.00240907,1
5340000,-0.00979776,0.00289746,-0.014014,0.999993,0.000277538,6.3175e-05,0.00361287,0.999997,7.92831e-07,-1.71253e-06,0.00240907,1
5372000,-0.00929873,0.00489745,-0.0100125,0.999994,0.000290259,5.31294e-05,0.00358435,0.999997,7.92831e-07,-1.71253e-06,0.00240907,1
5400000,-0.012301,0.00139728,0.00897967,0.999994,0.000257238,3.67037e-05,0.00357279,0.999997,7.92831e-07,-1.71253e-06,0.00240907,1
5428000,0.00269779,0.00939718,-0.0045088,0.999993,0.000186561,8.59168e-05,0.00365057,0.999997,7.92831e-07,-1.71253e-06,0.00240907,1
5456000,-0.0143035,-0.00460295,-0.00250756,0.999993,0.000118849,4.99275e-05,0.00376636,0.999997,7.92831e-07,-1.71253e-06,0.00240907,1
5484000,0.000195165,-0.00460311,0.000501324,0.999993,6.97676e-05,1.68371e-05,0.0037887,0.999997,7.92831e-07,-1.71253e-06,0.00240907,1
5512000,-0.0088077,0.0108965,0.00400065,0.999993,4.07814e-06,2.24822e-05,0.0038184,0.999997,7.92831e-07,-1.71253e-06,0.00240907,1
5540000,0.00419076,-0.00710373,-0.00649848,0.999993,0.000130305,-3.63126e-05,0.00378664,0.999997,7.92831e-07,-1.71253e-06,0.00240907,1
5572000,-0.00231095,-0.00160404,-0.0124827,0.999993,0.00011713,-9.40132e-05,0.00369342,0.999997,7.92831e-07,-1.71253e-06,0.00240907,1
5604000,0.00318558,-0.00260465,0.00551451,0.999993,0.000134272,-0.000127845,0.0037073,0.999997,7.92831e-07,-1.71253e-06,0.00240907,1
5636000,0.00668376,-0.00560497,0.0105157,0.999993,0.000141846,-0.000111893,0.00377552,0.999997,7.92831e-07,-1.71253e-06,0.00240907,1
5664000,-0.000320215,0.00889438,0.0040063,0.999993,0.000128532,-0.0001809,0.00376125,0.999997,7.92831e-07,-1.71253e-06,0.00240907,1
5692000,-0.00582232,0.000894029,-0.00248114,0.999993,7.22666e-05,-0.0001072,0.0037497,0.999997,7.92831e-07,-1.71253e-06,0.00240907,1
5720000,-0.00782458,0.00189366,0.0045148,0.999993,2.91543e-06,-9.16518e-05,0.0037114,0.999997,7.92831e-07,-1.71253e-06,0.00240907,1
5748000,0.010173,-0.0116068,-0.0149982,0.999993,-4.3815e-05,-6.51169e-05,0.00371699,0.999997,7.92831e-07,-1.71253e-06,0.00240907,1
5780000,0.00766798,0.00539251,0.00299541,0.999993,-3.87382e-05,3.13975e-06,0.00370657,0.999997,7.92831e-07,-1.71253e-06,0.00240907,1
5808000,0.0016653,0.0113921,-0.00200125,0.999993,-5.23816e-05,2.85963e-05,0.00369769,0.999997,7.92831e-07,-1.71253e-06,0.00240907,1
5840000,0.00315975,0.00239138,0.0104991,0.999993,2.48995e-05,7.2959e-05,0.00377049,0.999997,7.92831e-07,-1.71253e-06,0.00240907,1
5868000,-0.00584306,0.00739113,-0.00297786,0.999993,-2.979e-05,0.000117135,0.00373101,0.999997,7.92831e-07,-1.71253e-06,0.00240907,1
5896000,0.00015407,0.00239091,-0.000474487,0.999993,-2.37595e-05,0.000150529,0.0036957,0.999997,7.92831e-07,-1.71253e-06,0.00240907,1
5924000,0.0206511,0.00489075,-0.000968427,0.999993,6.69361e-05,0.000189257,0.00376247,0.999997,7.92831e-07,-1.71253e-06,0.00240907,1
5952000,-0.00535483,0.00389059,-0.00646771,0.999993,7.69619e-05,0.000254704,0.00380625,0.999997,7.92831e-07,-1.71253e-06,0.00240907,1
5984000,-0.00635788,0.00689062,0.00053092,0.999993,0.000122997,0.00026002,0.00369587,0.999997,7.92831e-07,-1.71253e-06,0.00240907,1
6016000,-0.000364179,-0.00910918,-0.00446678,0.999993,0.000115474,0.000300263,0.00362478,0.999997,7.92831e-07,-1.71253e-06,0.00240907,1
6044000,-0.00236744,0.010391,0.0210413,0.999993,0.000129591,0.000296041,0.00374801,0.999997,7.92831e-07,-1.71253e-06,0.00240907,1
6076000,-0.000870722,-0.00910872,0.0020429,0.999993,7.64733e-05,0.000267441,0.00375706,0.999997,7.92831e-07,-1.71253e-06,0.00240907,1
6108000,-0.00187738,-0.00210802,0.0045455,0.999993,1.66308e-05,0.000299054,0.0038337,0.999997,7.92831e-07,-1.71253e-06,0.00240907,1
6140000,-0.00238082,-0.0111076,0.00255116,0.999993,-5.94838e-05,0.000275867,0.0038324,0.999997,7.92831e-07,-1.71253e-06,0.00240907,1
6172000,0.00361575,-0.00460716,-0.00245824,0.999993,1.36335e-06,0.000194449,0.00380001,0.999997,7.92831e-07,-1.71253e-06,0.00240907,1
6200000,0.00710882,-0.00310623,-0.00746114,0.999993,-5.89384e-05,4.5033e-05,0.00372647,0.999997,7.92831e-07,-1.71253e-06,0.00240907,1
6232000,-0.00889466,0.00789435,-0.00295806,0.999993,-7.14978e-05,0.000106879,0.00380557,0.999997,7.92831e-07,-1.71253e-06,0.00240907,1
6260000,-0.00289817,-0.00760509,-0.000450123,0.999993,-2.36896e-05,9.0293e-05,0.00374662,0.999997,7.92831e-07,-1.71253e-06,0.00240907,1
6288000,0.00709479,0.00439615,0.0100456,0.999993,-5.13323e-05,6.36888e-05,0.00380091,0.999997,7.92831e-07,-1.71253e-06,0.00240907,1
6316000,0.0125914,-0.00310321,0.022041,0.999993,-4.05356e-05,0.000149417,0.00380816,0.999997,7.92831e-07,-1.71253e-06,0.00240907,1
6344000,0.00708783,-0.0061025,0.00502102,0.999993,4.64735e-05,0.000152624,0.00384351,0.999997,7.92831e-07,-1.71253e-06,0.00240907,1
6372000,0.00858089,0.000398999,-0.00147968,0.999993,6.41255e-05,0.000154793,0.00384889,0.999997,7.92831e-07,-1.71253e-06,0.00240907,1
6400000,0.0085775,-0.0176003,-0.0114842,0.999993,7.67207e-05,0.000131137,0.003817,0.999997,7.92831e-07,-1.71253e-06,0.00240907,1
6432000,7.40694e-05,0.0134006,-0.00699567,0.999993,7.74686e-05,0.000187672,0.0038224,0.999997,7.92831e-07,-1.71253e-06,0.00240907,1
6460000,-0.00443255,-0.00659774,0.00150368,0.999993,9.35582e-05,0.000214438,0.0037727,0.999997,7.92831e-07,-1.71253e-06,0.00240907,1
6488000,0.000564248,0.0119031,-0.00449427,0.999993,2.56118e-05,0.00023706,0.00371091,0.999997,7.92831e-07,-1.71253e-06,0.00240907,1
6516000,0.022561,-0.00459593,0.00850338,0.999993,4.67021e-05,0.000264163,0.00376755,0.999997,7.92831e-07,-1.71253e-06,0.00240907,1
6544000,-0.00344515,0.00440599,0.00401803,0.999993,8.44983e-05,0.000357508,0.00381637,0.999997,7.92831e-07,-1.71253e-06,0.00240907,1
6572000,0.00255186,0.00240698,-0.00797028,0.999993,8.47438e-05,0.000295916,0.00375115,0.999997,7.92831e-07,-1.71253e-06,0.00240907,1
6604000,0.000548929,-0.00359203,0.00302893,0.999993,0.000150201,0.000340927,0.00367407,0.999997,7.92831e-07,-1.71253e-06,0.00240907,1
6636000,-0.00195663,-0.00108992,-0.000482094,0.999993,0.000179997,0.000316023,0.0036509,0.999997,7.92831e-07,-1.71253e-06,0.00240907,1
6668000,0.000540761,0.00991116,-0.0120051,0.999994,6.77824e-05,0.00032781,0.00358405,0.999997,7.92831e-07,-1.71253e-06,0.00240907,1
6696000,-0.00946187,-0.00558774,-0.00100211,0.999993,2.72516e-05,0.000378698,0.00365936,0.999997,7.92831e-07,-1.71253e-06,0.00240907,1
6724000,-0.00346684,-0.00158547,-0.00450094,0.999994,2.32614e-05,0.000280919,0.00359515,0.999997,7.92831e-07,-1.71253e-06,0.00240907,1
6752000,3.08078e-05,-0.00208435,-0.00700776,0.999994,6.43033e-05,0.000238435,0.00355431,0.999997,7.92831e-07,-1.71253e-06,0.00240907,1
6780000,-0.00997148,0.00891679,0.00249254,0.999993,-4.9709e-05,0.000295484,0.0036303,0.999997,7.92831e-07,-1.71253e-06,0.00240907,1
6812000,0.0100242,0.00791906,0.00349491,0.999993,1.33861e-05,0.00027969,0.00368243,0.999997,7.92831e-07,-1.71253e-06,0.00240907,1
6844000,0.00352216,-0.00157989,0.0134949,0.999993,2.63252e-06,0.000307766,0.00371296,0.999997,7.92831e-07,-1.71253e-06,0.00240907,1
6872000,0.0200202,-0.00757869,-0.00250062,0.999993,3.77402e-05,0.000288679,0.00371782,0.999997,7.92831e-07,-1.71253e-06,0.00240907,1
6900000,-0.0104836,-0.0100765,0.00500023,0.999993,7.42047e-05,0.00021374,0.00365339,0.999997,7.92831e-07,-1.71253e-06,0.00240907,1
6928000,-0.00298542,-0.00307534,-0.00251199,0.999993,5.87062e-05,0.000216675,0.00366163,0.999997,7.92831e-07,-1.71253e-06,0.00240907,1
6960000,-0.00998717,0.00542576,-0.00302219,0.999993,-1.27344e-05,0.00025787,0.00365774,0.999997,7.92831e-07,-1.71253e-06,0.00240907,1
6988000,0.00100953,-0.0095721,0.00747714,0.999993,-2.4254e-06,0.000198035,0.00366293,0.999997,7.92831e-07,-1.71253e-06,0.00240907,1
7016000,-0.0034921,-0.00607107,0.00848591,0.999994,-0.000111769,0.000121778,0.00362498,0.999997,7.92831e-07,-1.71253e-06,0.00240907,1
7048000,-0.0154936,-0.00106997,0.00949151,0.999994,-0.000213948,8.19714e-05,0.00355319,0.999997,7.92831e-07,-1.71253e-06,0.00240907,1
7080000,0.0045034,-0.00456812,0.0139914,0.999993,-0.000300996,7.73097e-05,0.00363249,0.999997,7.92831e-07,-1.71253e-06,0.00240907,1
7108000,-0.00999803,-0.00806716,0.00449818,0.999993,-0.000345694,5.32951e-05,0.00364385,0.999997,7.92831e-07,-1.71253e-06,0.00240907,1
7140000,-0.0109994,-0.00506619,-0.00502583,0.999994,-0.000434107,5.9457e-05,0.00355186,0.999997,7.92831e-07,-1.71253e-06,0.00240907,1
7172000,-0.0105019,-0.000564404,-2.546e-05,0.999994,-0.000448176,2.39692e-05,0.0035691,0.999997,7.92831e-07,-1.71253e-06,0.00240907,1
7200000,0.00899683,0.00243651,0.0114736,0.999993,-0.000446996,-2.49747e-05,0.00362726,0.999997,7.92831e-07,-1.71253e-06,0.00240907,1
7232000,0.0119945,-0.00256176,-0.0130304,0.999993,-0.000423663,5.16728e-07,0.00365768,0.999997,7.92831e-07,-1.71253e-06,0.00240907,1
7260000,0.00449344,0.00743913,-0.000534557,0.999993,-0.00046241,4.33349e-05,0.00362381,0.999997,7.92831e-07,-1.71253e-06,0.00240907,1
7292000,-0.00200762,-0.00705999,-0.00503043,0.999993,-0.000513078,-6.65501e-05,0.00363697,0.999997,7.92831e-07,-1.71253e-06,0.00240907,1
7320000,0.00199039,0.00294171,0.00696772,0.999993,-0.0005162,-6.47065e-05,0.00365163,0.999997,7.92831e-07,-1.71253e-06,0.00240907,1
7352000,0.000989456,-0.00455751,-0.00553936,0.999993,-0.000536286,5.24784e-05,0.00371461,0.999997,7.92831e-07,-1.71253e-06,0.00240907,1
7380000,0.000488612,0.0019433,-0.0100385,0.999993,-0.000521718,-2.37688e-05,0.00363521,0.999997,7.92831e-07,-1.71253e-06,0.00240907,1
7408000,0.00048685,-0.00205528,-0.00703166,0.999994,-0.000571564,5.96912e-05,0.00356594,0.999997,7.92831e-07,-1.71253e-06,0.00240907,1
7436000,0.000486024,-0.0015546,0.00197141,0.999993,-0.000554897,5.63705e-05,0.00362368,0.999997,7.92831e-07,-1.71253e-06,0.00240907,1
7464000,-0.00101474,-0.00305396,0.00395765,0.999993,-0.000517004,2.70388e-05,0.0036323,0.999997,7.92831e-07,-1.71253e-06,0.00240907,1
7492000,0.00448449,-5.33709e-05,0.00295482,0.999993,-0.000585952,1.19503e-06,0.00361346,0.999997,7.92831e-07,-1.71253e-06,0.00240907,1
7524000,-0.00151693,-0.00105233,-0.00604871,0.999993,-0.000579378,-2.16646e-06,0.00357497,0.999997,7.92831e-07,-1.71253e-06,0.00240907,1
7552000,-0.00351762,0.00844818,0.00344263,0.999994,-0.000563111,-4.91975e-06,0.00358114,0.999997,7.92831e-07,-1.71253e-06,0.00240907,1
7584000,0.00298111,-0.00455095,-0.00556006,0.999993,-0.000581247,4.34592e-06,0.00356581,0.999997,7.92831e-07,-1.71253e-06,0.00240907,1
7612000,-0.00501949,0.000449456,0.00293665,0.999993,-0.0006446,-2.09588e-05,0.00360283,0.999997,7.92831e-07,-1.71253e-06,0.00240907,1
7644000,0.00597998,0.0104498,0.00593115,0.999994,-0.000609533,2.11443e-05,0.0035536,0.999997,7.92831e-07,-1.71253e-06,0.00240907,1
7672000,0.00297898,0.00995044,-0.00257012,0.999993,-0.000599877,6.98086e-05,0.00358776,0.999997,7.92831e-07,-1.71253e-06,0.00240907,1
7700000,0.00397855,0.00295068,-6.77016e-05,0.999993,-0.000602077,0.000119261,0.00360554,0.999997,7.92831e-07,-1.71253e-06,0.00240907,1
7728000,0.00297812,-0.000549113,-0.0085649,0.999993,-0.000620962,0.000117501,0.00362593,0.999997,7.92831e-07,-1.71253e-06,0.00240907,1
7756000,0.00297774,0.00795111,0.0119334,0.999993,-0.00069394,0.000181391,0.00366155,0.999997,7.92831e-07,-1.71253e-06,0.00240907,1
7784000,0.018477,0.00195141,-0.00606545,0.999993,-0.00063171,0.000223589,0.00366965,0.999997,7.92831e-07,-1.71253e-06,0.00240907,1
7816000,-0.000523336,0.0074515,-0.00856477,0.999994,-0.000658761,0.00027232,0.00355584,0.999997,7.92831e-07,-1.71253e-06,0.00240907,1
7844000,0.00497635,0.00545157,0.00342591,0.999994,-0.000659153,0.000282907,0.00352916,0.999997,7.92831e-07,-1.71253e-06,0.00240907,1
7876000,-0.00102429,-0.0150483,0.0029253,0.999994,-0.000713555,0.000236155,0.00344567,0.999997,7.92831e-07,-1.71253e-06,0.00240907,1
7904000,-0.000524475,0.0174516,0.0154352,0.999994,-0.000708108,0.000373461,0.00349539,0.999997,7.92831e-07,-1.71253e-06,0.00240907,1
7936000,-0.00302491,0.0159516,-0.00456573,0.999993,-0.000734433,0.00039949,0.00352995,0.999997,7.92831e-07,-1.71253e-06,0.00240907,1
7964000,-0.00052511,-0.0130485,0.00243205,0.999994,-0.00071696,0.000311455,0.00350908,0.999997,7.92831e-07,-1.71253e-06,0.00240907,1
7996000,0.00447477,-0.00254856,0.00993717,0.999993,-0.000681602,0.000234349,0.00358828,0.999997,7.92831e-07,-1.71253e-06,0.00240907,1
8024000,-0.0120254,-0.00754869,-0.00556589,0.999993,-0.000661163,0.000233005,0.00355787,0.999997,7.92831e-07,-1.71253e-06,0.00240907,1
8052000,-0.0100254,-4.8821e-05,0.00143041,0.999993,-0.000672623,0.000245489,0.00362494,0.999997,7.92831e-07,-1.71253e-06,0.00240907,1
8080000,0.00347458,-0.00154882,-0.007084,0.999994,-0.000603934,0.000245041,0.00351517,0.999997,7.92831e-07,-1.71253e-06,0.00240907,1
8108000,0.00397458,0.00145112,0.00391353,0.999994,-0.000646909,0.000194148,0.00346155,0.999997,7.92831e-07,-1.71253e-06,0.00240907,1
8136000,-0.00702526,-0.010549,0.000912876,0.999994,-0.000650878,0.000186323,0.00341853,0.999997,7.92831e-07,-1.71253e-06,0.00240907,1
8168000,-0.00802518,0.015951,-0.00409289,0.999994,-0.000680896,0.000207229,0.0033973,0.999997,7.92831e-07,-1.71253e-06,0.00240907,1
8196000,0.00247496,0.000450926,0.00890531,0.999994,-0.000705765,0.000271299,0.00348665,0.999997,7.92831e-07,-1.71253e-06,0.00240907,1
8224000,0.00247527,0.00295079,-9.77018e-05,0.999994,-0.000678973,0.00018748,0.00353647,0.999997,7.92831e-07,-1.71253e-06,0.00240907,1
8252000,0.0089755,-0.0100492,0.00240035,0.999994,-0.000531602,0.000266015,0.0035385,0.999997,7.92831e-07,-1.71253e-06,0.00240907,1
8280000,0.000975686,0.00195067,-0.00760323,0.999994,-0.000509382,0.000141062,0.00349432,0.999997,7.92831e-07,-1.71253e-06,0.00240907,1
8308000,-0.00252413,-0.000549435,-0.0166026,0.999994,-0.000505536,0.000159008,0.00341921,0.999997,7.92831e-07,-1.71253e-06,0.00240907,1
8340000,0.00547629,0.0149504,-0.00110802,0.999994,-0.000397763,0.000256142,0.0034022,0.999997,7.92831e-07,-1.71253e-06,0.00240907,1
8368000,-0.0100234,0.0104503,0.00338658,0.999994,-0.000469673,0.000287793,0.00334699,0.999997,7.92831e-07,-1.71253e-06,0.00240907,1
8396000,-0.00402321,-0.00654978,-0.00311337,0.999995,-0.000516397,0.000289488,0.00323176,0.999997,7.92831e-07,-1.71253e-06,0.00240907,1
8424000,0.0139773,0.00845006,-0.0151009,0.999995,-0.000490774,0.000229433,0.00318748,0.999997,7.92831e-07,-1.71253e-06,0.00240907,1
8452000,0.0134776,-0.00354998,0.00840178,0.999995,-0.000457489,0.000313465,0.0032572,0.999997,7.92831e-07,-1.71253e-06,0.00240907,1
8480000,0.0074779,0.000449973,0.000400648,0.999995,-0.00039586,0.000308553,0.00323006,0.999997,7.92831e-07,-1.71253e-06,0.00240907,1
8512000,0.00797857,-0.0035501,-0.00209646,0.999994,-0.000379017,0.000321393,0.00329989,0.999997,7.92831e-07,-1.71253e-06,0.00240907,1
8540000,-0.00602109,-0.00305018,-0.0110951,0.999995,-0.000386054,0.000281272,0.00322361,0.999997,7.92831e-07,-1.71253e-06,0.00240907,1
8568000,0.0139793,0.0109497,-0.00810032,0.999995,-0.000450115,0.000279998,0.00319435,0.999997,7.92831e-07,-1.71253e-06,0.00240907,1
8596000,-0.00251989,-0.0030503,-0.0130991,0.999995,-0.000461319,0.000354871,0.00307929,0.999997,7.92831e-07,-1.71253e-06,0.00240907,1
8628000,-0.00651944,-0.0105504,0.00239997,0.999995,-0.000546703,0.000264429,0.00306344,0.999997,7.92831e-07,-1.71253e-06,0.00240907,1
8656000,-0.012519,-5.04077e-05,0.00739879,0.999995,-0.000534462,0.000268446,0.00304302,0.999997,7.92831e-07,-1.71253e-06,0.00240907,1
8684000,0.00148182,0.00244945,-0.0140884,0.999995,-0.000528154,0.000289452,0.00304041,0.999997,7.92831e-07,-1.71253e-06,0.00240907,1
8712000,0.00298221,-0.00205066,0.0114101,0.999995,-0.000492828,0.000324518,0.00298705,0.999997,7.92831e-07,-1.71253e-06,0.00240907,1
8740000,0.00148262,0.00744926,0.00140704,0.999995,-0.000476459,0.000371563,0.003012,0.999997,7.92831e-07,-1.71253e-06,0.00240907,1
8768000,-0.0105166,-0.0160509,-0.0135942,0.999996,-0.00050907,0.00042041,0.00294928,0.999997,7.92831e-07,-1.71253e-06,0.00240907,1
8796000,-0.00951619,-0.011551,-0.00659384,0.999995,-0.000516245,0.00036337,0.00299306,0.999997,7.92831e-07,-1.71253e-06,0.00240907,1
8824000,0.00348423,0.00194891,-9.65012e-05,0.999995,-0.000573615,0.000380176,0.00303437,0.999997,7.92831e-07,-1.71253e-06,0.00240907,1
8852000,0.00398463,-0.0125512,0.00790601,0.999995,-0.000512624,0.000282311,0.00305488,0.999997,7.92831e-07,-1.71253e-06,0.00240907,1
8880000,0.00248538,0.00694857,-0.00459459,0.999995,-0.000456782,0.000254415,0.00309835,0.999997,7.92831e-07,-1.71253e-06,0.00240907,1
8908000,-0.00201421,0.00744845,0.00340562,0.999995,-0.000398234,0.000319491,0.00310849,0.999997,7.92831e-07,-1.71253e-06,0.00240907,1
8940000,-0.00551385,0.0129483,-0.00358905,0.999995,-0.000416269,0.000324128,0.00307478,0.999997,7.92831e-07,-1.71253e-06,0.00240907,1
8972000,-1.31634e-05,0.0034481,0.000413216,0.999995,-0.000437317,0.000348736,0.00308652,0.999997,7.92831e-07,-1.71253e-06,0.00240907,1
9000000,0.00498719,-0.00355201,-0.00309074,0.999995,-0.000441535,0.000338554,0.00311642,0.999997,7.92831e-07,-1.71253e-06,0.00240907,1
9032000,-0.00451214,-0.000552291,0.0089144,0.999995,-0.000421483,0.000311228,0.00310202,0.999997,7.92831e-07,-1.71253e-06,0.00240907,1
9064000,0.00098821,-0.0005524,0.00441204,0.999995,-0.000499248,0.00023259,0.00314155,0.999997,7.92831e-07,-1.71253e-06,0.00240907,1
9092000,-0.00801142,-0.00605256,0.00441289,0.999995,-0.000532345,0.000166216,0.00312171,0.999997,7.92831e-07,-1.71253e-06,0.00240907,1
9120000,-0.00351071,0.00544714,-0.0155807,0.999995,-0.000562626,0.000155802,0.0030873,0.999997,7.92831e-07,-1.71253e-06,0.00240907,1
9148000,-0.000510374,0.000946941,-0.00507676,0.999995,-0.000605093,0.00020931,0.00305748,0.999997,7.92831e-07,-1.71253e-06,0.00240907,1
9180000,-0.00201,0.00744676,-0.000572396,0.999995,-0.00069212,0.00018846,0.00303651,0.999997,7.92831e-07,-1.71253e-06,0.00240907,1
9212000,0.00149067,-0.00105363,0.00642949,0.999995,-0.000672961,0.0001219,0.00308204,0.999997,7.92831e-07,-1.71253e-06,0.00240907,1
9240000,-0.00550897,0.000946162,0.00142919,0.999995,-0.000739234,0.000102177,0.00303676,0.999997,7.92831e-07,-1.71253e-06,0.00240907,1
9272000,0.000991717,-0.00355437,-0.00107123,0.999995,-0.000774303,9.33089e-05,0.00305055,0.999997,7.92831e-07,-1.71253e-06,0.00240907,1
9304000,-0.00550793,0.0104453,-0.00457999,0.999995,-0.000827528,0.00014227,0.00305841,0.999997,7.92831e-07,-1.71253e-06,0.00240907,1
9332000,-0.000507605,0.00244502,0.00642214,0.999995,-0.000804803,0.000121628,0.0030692,0.999997,7.92831e-07,-1.71253e-06,0.00240907,1
9360000,0.00849311,-0.00255566,-0.0010812,0.999995,-0.000788019,7.98087e-05,0.0030013,0.999997,7.92831e-07,-1.71253e-06,0.00240907,1
9388000,-0.00150654,0.00894402,0.00591171,0.999995,-0.000858392,0.000101666,0.00298313,0.999997,7.92831e-07,-1.71253e-06,0.00240907,1
9416000,0.000993843,-0.00355633,0.00140679,0.999995,-0.000912654,8.45402e-05,0.00301965,0.999997,7.92831e-07,-1.71253e-06,0.00240907,1
9444000,0.00049424,0.00244323,0.0129117,0.999995,-0.000873113,0.000133612,0.00305645,0.999997,7.92831e-07,-1.71253e-06,0.00240907,1
9476000,-0.00400509,-0.00155746,0.00190349,0.999995,-0.000926058,0.000107888,0.00303528,0.999997,7.92831e-07,-1.71253e-06,0.00240907,1
9504000,0.00249525,-0.00555787,-0.00260047,0.999995,-0.000862348,0.000111804,0.00305846,0.999997,7.92831e-07,-1.71253e-06,0.00240907,1
9532000,0.0034956,-5.8268e-05,0.00489583,0.999995,-0.00087953,7.8342e-05,0.00303122,0.999997,7.92831e-07,-1.71253e-06,0.00240907,1
9564000,-3.73187e-06,0.0054409,0.00689955,0.999995,-0.000852304,1.47074e-06,0.00296094,0.999997,7.92831e-07,-1.71253e-06,0.00240907,1
9592000,0.00549662,0.00194048,-0.00760027,0.999995,-0.00090245,-3.63101e-05,0.00292263,0.999997,7.92831e-07,-1.71253e-06,0.00240907,1
9620000,-0.00500306,-0.00555993,-0.00409757,0.999995,-0.000952562,-8.9071e-05,0.00298399,0.999997,7.92831e-07,-1.71253e-06,0.00240907,1
9652000,-0.00400245,-0.00456076,0.00340662,0.999995,-0.000970429,-0.000129326,0.00297967,0.999997,7.92831e-07,-1.71253e-06,0.00240907,1
9680000,0.00799792,-0.00556118,0.00740649,0.999995,-0.000918562,-0.000171035,0.00296815,0.999997,7.92831e-07,-1.71253e-06,0.00240907,1
9712000,-0.00450138,0.00143792,0.00639795,0.999995,-0.000908441,-0.000217251,0.00306554,0.999997,7.92831e-07,-1.71253e-06,0.00240907,1
9744000,-0.012001,0.00293751,-0.00359924,0.999995,-0.00089546,-0.000192673,0.00304648,0.999997,7.92831e-07,-1.71253e-06,0.00240907,1
9772000,0.00249945,-0.0105629,-0.00460046,0.999995,-0.000936323,-0.000300821,0.00307682,0.999997,7.92831e-07,-1.71253e-06,0.00240907,1
9804000,0.00350027,0.0159362,-0.0121042,0.999995,-0.000969411,-0.000220546,0.00300123,0.999997,7.92831e-07,-1.71253e-06,0.00240907,1
9832000,7.60753e-07,0.000935787,-0.00311579,0.999995,-0.000919292,-0.000277599,0.00295187,0.999997,7.92831e-07,-1.71253e-06,0.00240907,1
9864000,-0.0084987,-0.0165647,0.00389222,0.999995,-0.000918022,-0.000285125,0.00304621,0.999997,7.92831e-07,-1.71253e-06,0.00240907,1
9892000,-0.00599774,0.00493454,-0.0061092,0.999995,-0.000922724,-0.000343396,0.00300562,0.999997,7.92831e-07,-1.71253e-06,0.00240907,1
9920000,-0.0044972,-0.0110658,-0.000620936,0.999995,-0.00098732,-0.000411811,0.00300971,0.999997,7.92831e-07,-1.71253e-06,0.00240907,1
9948000,0.00550335,0.00893377,0.000378086,0.999995,-0.00104885,-0.000466254,0.00296484,0.999997,7.92831e-07,-1.71253e-06,0.00240907,1
9980000,-0.000995508,-0.00206697,0.00987338,0.999995,-0.00108806,-0.000475064,0.00294291,0.999997,7.92831e-07,-1.71253e-06,0.00240907,1
10012000,0.00150509,0.00143268,-0.00113034,0.999995,-0.00111116,-0.000463804,0.00293405,0.999997,7.92831e-07,-1.71253e-06,0.00240907,1
10044000,-0.00149428,0.00193232,0.011863,0.999995,-0.00110412,-0.000466355,0.00296427,0.999997,7.92831e-07,-1.71253e-06,0.00240907,1
10072000,-0.00799294,0.000931693,0.0123596,0.999995,-0.00121858,-0.000359821,0.00300172,0.999997,7.92831e-07,-1.71253e-06,0.00240907,1
10104000,-0.0024923,0.0164313,0.00335624,0.999994,-0.00125131,-0.000323382,0.00307186,0.999997,7.92831e-07,-1.71253e-06,0.00240907,1
10132000,0.0160084,0.000930985,-0.00264631,0.999995,-0.0012074,-0.000249408,0.00298302,0.999997,7.92831e-07,-1.71253e-06,0.00240907,1
10160000,-0.000490184,0.00243042,-0.00314909,0.999995,-0.00117414,-0.000229276,0.00303473,0.999997,7.92831e-07,-1.71253e-06,0.00240907,1
10192000,-0.00598946,-0.00606983,-0.000650345,0.999995,-0.00117328,-0.000197745,0.0029575,0.999997,7.92831e-07,-1.71253e-06,0.00240907,1
10220000,0.00601133,0.00542989,-0.00315199,0.999995,-0.00112354,-0.000249495,0.00295004,0.999997,7.92831e-07,-1.71253e-06,0.00240907,1
10248000,0.00201295,0.00542939,-0.00715199,0.999999,-0.00113986,-0.000230062,0.0010676,0.999998,-1.62215e-06,4.17535e-06,-0.00185935,2
10276000,-0.00148622,-0.0125708,0.00584802,0.999999,-0.00114125,-0.000222703,0.00102646,0.999998,-1.62215e-06,4.17535e-06,-0.00185935,2
10304000,-0.00248536,0.00792895,-0.00315189,0.999999,-0.00102477,-0.000238964,0.00105638,0.999998,-1.62215e-06,4.17535e-06,-0.00185935,2
10336000,-0.00348358,-0.00207144,0.00184812,0.999999,-0.001037,-0.000229557,0.001115,0.999998,-1.62215e-06,4.17535e-06,-0.00185935,2
10368000,0.00801733,0.0109284,0.000848076,0.999999,-0.00106055,-0.000136989,0.0011558,0.999998,-1.62215e-06,4.17535e-06,-0.00185935,2
10396000,0.00151825,0.0009282,0.0048482,0.999999,-0.000962577,-0.000187875,0.00114682,0.999998,-1.62215e-06,4.17535e-06,-0.00185935,2
10424000,0.00502014,-0.0145721,0.00334821,0.999999,-0.0010137,-0.000244118,0.00116518,0.999998,-1.62215e-06,4.17535e-06,-0.00185935,2
10452000,-0.00647888,0.0019278,0.0123482,0.999999,-0.00103306,-0.000263161,0.00121414,0.999998,-1.62215e-06,4.17535e-06,-0.00185935,2
10480000,-0.00947791,0.00242773,0.0108485,0.999999,-0.00106564,-0.00023109,0.00128537,0.999998,-1.62215e-06,4.17535e-06,-0.00185935,2
10512000,0.0015241,-0.00257245,-0.00365155,0.999999,-0.00110599,-0.000189258,0.00130119,0.999998,-1.62215e-06,4.17535e-06,-0.00185935,2
10540000,0.00502513,-0.0040725,0.00184846,0.999998,-0.00108772,-0.000204941,0.00135442,0.999998,-1.62215e-06,4.17535e-06,-0.00185935,2
10568000,-0.0159738,-0.0130725,-0.00515152,0.999998,-0.00111549,-0.000235664,0.00134633,0.999998,-1.62215e-06,4.17535e-06,-0.00185935,2
10596000,0.0115283,-0.0090726,-0.00865147,0.999999,-0.00116136,-0.000190412,0.00127491,0.999998,-1.62215e-06,4.17535e-06,-0.00185935,2
10624000,0.0110294,-0.00207257,-0.00315179,0.999999,-0.00116706,-0.000279926,0.00126419,0.999998,-1.62215e-06,4.17535e-06,-0.00185935,2
10652000,0.00503055,-0.00507259,0.00184822,0.999999,-0.00110184,-0.000298189,0.00131907,0.999998,-1.62215e-06,4.17535e-06,-0.00185935,2
10680000,0.0195328,0.00642746,-0.00815179,0.999999,-0.00102955,-0.000266426,0.00131342,0.999998,-1.62215e-06,4.17535e-06,-0.00185935,2
10708000,0.00453394,0.0144275,-0.000652072,0.999999,-0.00101024,-0.000182676,0.00128846,0.999998,-1.62215e-06,4.17535e-06,-0.00185935,2
10740000,0.0135351,0.00542758,-0.000151989,0.999999,-0.000994287,-0.000211983,0.00129585,0.999998,-1.62215e-06,4.17535e-06,-0.00185935,2
10768000,0.00603736,-0.00257231,0.00134812,0.999999,-0.000890545,-0.00016193,0.00131489,0.999998,-1.62215e-06,4.17535e-06,-0.00185935,2
10796000,0.00253855,0.000427807,0.00484828,0.999999,-0.000861596,-0.000119926,0.00131751,0.999998,-1.62215e-06,4.17535e-06,-0.00185935,2
10828000,-0.000460226,-0.00307208,-0.0156514,0.999999,-0.000848923,-9.20063e-05,0.00134543,0.999998,-1.62215e-06,4.17535e-06,-0.00185935,2
10856000,0.00504207,-0.000571886,-0.00415056,0.999999,-0.000807225,-0.000131908,0.00130582,0.999998,-1.62215e-06,4.17535e-06,-0.00185935,2
10884000,0.00404328,0.00692827,-0.0126498,0.999999,-0.000716266,-0.000148706,0.00125146,0.999998,-1.62215e-06,4.17535e-06,-0.00185935,2
10916000,-0.00595555,-0.00207164,0.00384999,0.999999,-0.000722439,-0.000121605,0.00131355,0.999998,-1.62215e-06,4.17535e-06,-0.00185935,2
10944000,-0.0034532,0.0149286,0.00934987,0.999999,-0.000713753,-6.22647e-05,0.00138134,0.999998,-1.62215e-06,4.17535e-06,-0.00185935,2
10972000,-0.0009521,0.0104288,-0.00214951,0.999999,-0.000725659,-3.88821e-05,0.00145931,0.999998,-1.62215e-06,4.17535e-06,-0.00185935,2
11004000,0.00304909,-0.0110711,-0.00514958,0.999999,-0.000591305,-5.82996e-05,0.00152806,0.999998,-1.62215e-06,4.17535e-06,-0.00185935,2
11032000,-0.000448669,-0.00707074,-0.00114863,0.999999,-0.000586178,-3.07737e-05,0.00152252,0.999998,-1.62215e-06,4.17535e-06,-0.00185935,2
11060000,-0.00144756,0.000429414,-0.000648045,0.999999,-0.000563553,-5.60828e-05,0.00161384,0.999998,-1.62215e-06,4.17535e-06,-0.00185935,2
11088000,-0.0074465,0.0154296,0.000852403,0.999999,-0.00052576,7.46995e-05,0.00168201,0.999998,-1.62215e-06,4.17535e-06,-0.00185935,2
11116000,-0.00644545,-0.00657026,-0.00714703,0.999998,-0.000536211,0.000112479,0.00169604,0.999998,-1.62215e-06,4.17535e-06,-0.00185935,2
11144000,0.0105566,0.00143004,0.00735376,0.999999,-0.000446159,0.000159524,0.00170725,0.999998,-1.62215e-06,4.17535e-06,-0.00185935,2
11172000,-0.00194242,-0.00456981,0.00935407,0.999998,-0.000420475,0.0001076,0.00181144,0.999998,-1.62215e-06,4.17535e-06,-0.00185935,2
11200000,0.0025585,0.00343038,0.00435418,0.999998,-0.000311355,5.49097e-05,0.00185465,0.999998,-1.62215e-06,4.17535e-06,-0.00185935,2
11228000,0.00855945,0.0129305,-0.00214563,0.999998,-0.000303892,6.21408e-05,0.00189636,0.999998,-1.62215e-06,4.17535e-06,-0.00185935,2
11256000,-0.0114389,0.00943085,0.00085446,0.999998,-0.000325814,0.000136477,0.00191428,0.999998,-1.62215e-06,4.17535e-06,-0.00185935,2
11284000,-0.00543812,0.005431,0.00485544,0.999998,-0.000356247,0.000176926,0.00197402,0.999998,-1.62215e-06,4.17535e-06,-0.00185935,2
11316000,-0.00643738,-0.00856884,0.00235637,0.999998,-0.000372443,9.36032e-05,0.00202917,0.999998,-1.62215e-06,4.17535e-06,-0.00185935,2
11344000,0.00406402,0.00293141,-0.00214245,0.999998,-0.000344552,4.7478e-05,0.00207574,0.999998,-1.62215e-06,4.17535e-06,-0.00185935,2
11376000,0.00256464,-0.00106846,-0.00464394,0.999998,-0.000294654,6.56505e-05,0.00210439,0.999998,-1.62215e-06,4.17535e-06,-0.00185935,2
11408000,0.00206575,0.00643176,-0.0106443,0.999998,-0.000374272,9.77038e-05,0.00212187,0.999998,-1.62215e-06,4.17535e-06,-0.00185935,2
11436000,0.000566265,-0.00356813,-0.00364336,0.999998,-0.00033386,2.0125e-06,0.00210516,0.999998,-1.62215e-06,4.17535e-06,-0.00185935,2
11468000,0.00506671,0.00743196,0.00385738,0.999998,-0.000325452,-3.45451e-06,0.0021095,0.999998,-1.62215e-06,4.17535e-06,-0.00185935,2
11500000,0.00556748,0.000432121,0.00335735,0.999998,-0.000314683,5.12342e-05,0.00207335,0.999998,-1.62215e-06,4.17535e-06,-0.00185935,2
11532000,-0.000932202,0.000432204,0.00685801,0.999998,-0.000332419,6.00432e-05,0.00215246,0.999998,-1.62215e-06,4.17535e-06,-0.00185935,2
11560000,0.0080681,-0.00956773,0.00635904,0.999998,-0.000294966,1.27943e-05,0.00215507,0.999998,-1.62215e-06,4.17535e-06,-0.00185935,2
11592000,-0.0129314,-0.0160676,0.00135773,0.999998,-0.000318105,-1.51737e-05,0.0021943,0.999998,-1.62215e-06,4.17535e-06,-0.00185935,2
11624000,-0.00643129,0.0049324,0.0103598,0.999997,-0.00026229,9.12694e-06,0.00222158,0.999998,-1.62215e-06,4.17535e-06,-0.00185935,2
11652000,0.00456882,0.00543246,-0.00564005,0.999997,-0.00026855,4.09975e-06,0.00230606,0.999998,-1.62215e-06,4.17535e-06,-0.00185935,2
11680000,0.00256902,0.00743249,0.00286034,0.999997,-0.000166686,4.34563e-05,0.00234029,0.999998,-1.62215e-06,4.17535e-06,-0.00185935,2
11708000,0.00756906,-0.00506751,-0.000138889,0.999997,-0.000181738,-1.64082e-05,0.00238079,0.999998,-1.62215e-06,4.17535e-06,-0.00185935,2
11740000,-0.00393092,0.00243251,-0.00363772,0.999997,-0.0001339,-0.00010378,0.00237645,0.999998,-1.62215e-06,4.17535e-06,-0.00185935,2
11772000,-0.00493102,-0.00356749,-0.0146387,0.999997,-8.4366e-05,-4.89759e-05,0.00237414,0.999998,-1.62215e-06,4.17535e-06,-0.00185935,2
11804000,0.00606898,0.00993248,-0.00363721,0.999997,-3.71912e-05,-3.31514e-05,0.00240163,0.999998,-1.62215e-06,4.17535e-06,-0.00185935,2
11836000,0.0155688,0.00893243,-0.00363622,0.999997,3.35912e-05,1.18095e-05,0.00249235,0.999998,-1.62215e-06,4.17535e-06,-0.00185935,2
11864000,0.00256873,0.00293238,0.00486568,0.999997,2.88492e-05,0.000152306,0.00245332,0.999998,-1.62215e-06,4.17535e-06,-0.00185935,2
11896000,-0.00143153,0.000932278,0.00786648,0.999997,6.2874e-05,0.000164271,0.00249763,0.999998,-1.62215e-06,4.17535e-06,-0.00185935,2
11924000,-0.00643168,0.0029322,0.00836655,0.999997,9.3496e-05,0.000196884,0.00247094,0.999998,-1.62215e-06,4.17535e-06,-0.00185935,2
11956000,-0.00893182,0.00293214,-0.000633775,0.999997,8.03132e-05,0.000279783,0.00249051,0.999998,-1.62215e-06,4.17535e-06,-0.00185935,2
11988000,0.00706786,0.007432,-0.0056317,0.999997,0.000101775,0.000257774,0.00243189,0.999998,-1.62215e-06,4.17535e-06,-0.00185935,2
12016000,0.00556771,0.00793193,-0.0131305,0.999997,0.000136883,0.000259377,0.00235157,0.999998,-1.62215e-06,4.17535e-06,-0.00185935,2
12044000,-0.00143243,0.00893176,0.012869,0.999997,0.000232499,0.000306097,0.00247153,0.999998,-1.62215e-06,4.17535e-06,-0.00185935,2
12076000,-0.00893275,-0.00056831,-0.00363071,0.999997,0.000195192,0.00026482,0.00249576,0.999998,-1.62215e-06,4.17535e-06,-0.00185935,2
12108000,-0.0074329,-0.00556842,0.00487038,0.999996,0.00011809,0.000256293,0.00270927,0.999998,-1.62215e-06,4.17535e-06,-0.00185935,2
12140000,-0.00493322,0.00893138,-0.0031268,0.999996,0.00020508,0.000350195,0.00279767,0.999998,-1.62215e-06,4.17535e-06,-0.00185935,2
12172000,-0.00593341,0.00243129,0.0158736,0.999996,0.000223787,0.000277757,0.0028965,0.999998,-1.62215e-06,4.17535e-06,-0.00185935,2
12204000,0.0115664,0.00193114,-0.0061226,0.999996,0.000339715,0.000235525,0.00288788,0.999998,-1.62215e-06,4.17535e-06,-0.00185935,2
12236000,-0.000933718,0.00843105,0.0058789,0.999996,0.000285905,0.000222673,0.00290661,0.999998,-1.62215e-06,4.17535e-06,-0.00185935,2
12264000,0.00706619,0.00243093,0.000381382,0.999996,0.000334329,0.000272698,0.00289628,0.999998,-1.62215e-06,4.17535e-06,-0.00185935,2
12296000,-0.00793397,0.00443076,-0.00811703,0.999996,0.000309313,0.000251698,0.00276861,0.999998,-1.62215e-06,4.17535e-06,-0.00185935,2
12324000,0.000565913,-0.00206932,-0.000616327,0.999996,0.000311736,0.000312338,0.00276572,0.999998,-1.62215e-06,4.17535e-06,-0.00185935,2
12352000,-0.000934166,-0.0045694,-0.0031132,0.999996,0.000336829,0.000317905,0.00270575,0.999998,-1.62215e-06,4.17535e-06,-0.00185935,2
12380000,0.0110657,-0.00406957,-0.0101096,0.999996,0.000360644,0.000279347,0.00265523,0.999998,-1.62215e-06,4.17535e-06,-0.00185935,2
12408000,-0.00893431,-0.00806963,0.000891391,0.999996,0.000351915,0.00030351,0.00272818,0.999998,-1.62215e-06,4.17535e-06,-0.00185935,2
12436000,-0.00593435,0.00293031,0.000391849,0.999996,0.000247856,0.000302277,0.00276644,0.999998,-1.62215e-06,4.17535e-06,-0.00185935,2
12464000,-0.00243437,0.000430177,0.00339397,0.999996,0.000293341,0.000320334,0.0027193,0.999998,-1.62215e-06,4.17535e-06,-0.00185935,2
12496000,0.00106564,0.00143013,-0.00110577,0.999996,0.000244193,0.000254066,0.00283215,0.999998,-1.62215e-06,4.17535e-06,-0.00185935,2
12524000,-0.00593434,0.00193007,-0.00360492,0.999996,0.000194085,0.000229564,0.00282836,0.999998,-1.62215e-06,4.17535e-06,-0.00185935,2
12552000,-0.00593427,-0.00257007,-0.0051033,0.999996,0.000134623,0.000213923,0.00280008,0.999998,-1.62215e-06,4.17535e-06,-0.00185935,2
12580000,-0.0129342,-7.01233e-05,-0.000602026,0.999996,0.000125742,0.000248314,0.00286868,0.999998,-1.62215e-06,4.17535e-06,-0.00185935,2
12612000,0.0115659,-0.00457015,0.0044002,0.999995,0.000220997,0.000235921,0.00302321,0.999998,-1.62215e-06,4.17535e-06,-0.00185935,2
12640000,0.00156604,0.00192969,-0.00209594,0.999995,0.000179415,0.00030299,0.00304845,0.999998,-1.62215e-06,4.17535e-06,-0.00185935,2
12668000,-0.00493386,-0.0165704,-0.00209451,0.999995,0.000183966,0.000242121,0.00306266,0.999998,-1.62215e-06,4.17535e-06,-0.00185935,2
12696000,0.00456626,0.00442959,0.00390969,0.999995,0.000108071,0.000255908,0.00311714,0.999998,-1.62215e-06,4.17535e-06,-0.00185935,2
12728000,-0.00493347,-7.04913e-05,-0.0100889,0.999995,9.22613e-05,0.000201788,0.00305123,0.999998,-1.62215e-06,4.17535e-06,-0.00185935,2
12756000,0.00906667,-0.00307055,-0.000589082,0.999996,0.00015199,0.000180826,0.00299558,0.999998,-1.62215e-06,4.17535e-06,-0.00185935,2
12784000,6.683e-05,-7.05526e-05,0.00691409,0.999995,0.000156687,0.000120594,0.00309401,0.999998,-1.62215e-06,4.17535e-06,-0.00185935,2
12812000,0.00506696,-0.0130706,0.00891519,0.999995,0.000122144,8.71825e-05,0.00313025,0.999998,-1.62215e-06,4.17535e-06,-0.00185935,2
12840000,-0.00443264,-0.00857066,0.00341746,0.999995,0.000180627,-1.10195e-05,0.0032686,0.999998,-1.62215e-06,4.17535e-06,-0.00185935,2
12868000,-0.00243249,-0.0025707,-0.0115805,0.999995,0.000106667,-8.68422e-06,0.00321303,0.999998,-1.62215e-06,4.17535e-06,-0.00185935,2
12896000,0.00156773,-0.00657071,-0.00308004,0.999995,7.1803e-05,-6.92879e-05,0.00319012,0.999998,-1.62215e-06,4.17535e-06,-0.00185935,2
12928000,0.00056809,0.00342926,-0.0135795,0.999995,6.35122e-05,-4.8937e-05,0.00319705,0.999998,-1.62215e-06,4.17535e-06,-0.00185935,2
12956000,0.00256831,-0.00557073,0.0124183,0.999995,8.15263e-05,-0.00014348,0.00320046,0.999998,-1.62215e-06,4.17535e-06,-0.00185935,2
12984000,0.0100686,-0.0085708,-0.0150817,0.999995,0.000180302,-0.000180809,0.0032095,0.999998,-1.62215e-06,4.17535e-06,-0.00185935,2
13012000,0.00656879,-0.00857079,0.00441966,0.999995,0.000156134,-0.000255587,0.00327344,0.999998,-1.62215e-06,4.17535e-06,-0.00185935,2
13040000,-0.00743076,0.00192918,-0.00907583,0.999995,0.000100514,-0.000203493,0.00323429,0.999998,-1.62215e-06,4.17535e-06,-0.00185935,2
13068000,-0.000430487,-0.00657082,0.00892483,0.999995,0.00011305,-0.000229226,0.00329346,0.999998,-1.62215e-06,4.17535e-06,-0.00185935,2
13096000,-0.00393023,-0.0155708,0.000426046,0.999994,0.000118692,-0.000294024,0.0034028,0.999998,-1.62215e-06,4.17535e-06,-0.00185935,2
13124000,0.00456997,-7.08413e-05,-0.00157403,0.999994,7.70563e-05,-0.000293004,0.00346356,0.999998,-1.62215e-06,4.17535e-06,-0.00185935,2
13156000,-0.00292957,0.0114291,-0.0100699,0.999994,9.04187e-05,-0.000311931,0.00339539,0.999998,-1.62215e-06,4.17535e-06,-0.00185935,2
13184000,-0.00592928,-0.00307087,0.00243362,0.999994,2.65386e-05,-0.000236024,0.00337418,0.999998,-1.62215e-06,4.17535e-06,-0.00185935,2
13212000,0.00557099,-0.00207088,-0.00156588,0.999994,-1.69781e-05,-0.000272066,0.00340777,0.999998,-1.62215e-06,4.17535e-06,-0.00185935,2
13240000,0.0045715,-0.0125709,0.0084373,0.999994,3.04625e-05,-0.000309808,0.00344931,0.999998,-1.62215e-06,4.17535e-06,-0.00185935,2
13268000,0.00957178,0.00342904,-0.000564577,0.999994,0.000135565,-0.000241355,0.00343989,0.999998,-1.62215e-06,4.17535e-06,-0.00185935,2
13296000,0.00907204,0.00192901,0.00593655,0.999994,0.000165129,-0.000301166,0.00343547,0.999998,-1.62215e-06,4.17535e-06,-0.00185935,2
13328000,-0.00542743,0.00092898,0.00243713,0.999994,0.000143495,-0.000339271,0.00342362,0.999998,-1.62215e-06,4.17535e-06,-0.00185935,2
13356000,0.00557283,0.00192892,-0.010064,0.999994,8.88544e-05,-0.000341357,0.00339131,0.999998,-1.62215e-06,4.17535e-06,-0.00185935,2
13384000,-0.00692688,-0.0110711,-0.00506372,0.999994,-1.29747e-05,-0.000281588,0.00337106,0.999998,-1.62215e-06,4.17535e-06,-0.00185935,2
13412000,0.0125734,-0.0120711,-0.0105592,0.999994,4.24566e-05,-0.000293273,0.00335567,0.999998,-1.62215e-06,4.17535e-06,-0.00185935,2
13440000,-0.00192604,0.0024288,0.00493698,0.999994,7.61703e-06,-0.000228249,0.00342039,0.999998,-1.62215e-06,4.17535e-06,-0.00185935,2
13468000,0.00407419,-0.0125713,0.00393803,0.999994,-1.66382e-05,-0.000335165,0.00341113,0.999998,-1.62215e-06,4.17535e-06,-0.00185935,2
13500000,0.00457456,-0.00907129,0.00143998,0.999994,-5.41431e-05,-0.000394216,0.00351479,0.999998,-1.62215e-06,4.17535e-06,-0.00185935,2
13528000,0.00307508,-0.00257141,-0.000558853,0.999994,-2.66705e-06,-0.000406823,0.00350845,0.999998,-1.62215e-06,4.17535e-06,-0.00185935,2
13556000,0.00357535,-0.00407147,-0.00355937,0.999994,9.08809e-05,-0.000440251,0.00346976,0.999998,-1.62215e-06,4.17535e-06,-0.00185935,2
13584000,-0.00492435,0.00392849,0.0039411,0.999994,8.5344e-05,-0.000447009,0.00348603,0.999998,-1.62215e-06,4.17535e-06,-0.00185935,2
13612000,0.00607592,0.0024284,0.0119407,0.999994,0.000120772,-0.000435601,0.00349538,0.999998,-1.62215e-06,4.17535e-06,-0.00185935,2
13644000,0.00207646,-0.00707171,0.00444263,0.999994,0.000105214,-0.000463436,0.00355116,0.999998,-1.62215e-06,4.17535e-06,-0.00185935,2
13676000,-0.00992325,0.0104282,0.00394375,0.999994,0.00012462,-0.000455109,0.00350417,0.999998,-1.62215e-06,4.17535e-06,-0.00185935,2
13704000,-0.00542273,0.00542808,-0.00705508,0.999994,0.000105929,-0.000408812,0.00356965,0.999998,-1.62215e-06,4.17535e-06,-0.00185935,2
13732000,0.00557759,-0.00057199,-0.00655447,0.999994,0.000125658,-0.000465335,0.00349023,0.999998,-1.62215e-06,4.17535e-06,-0.00185935,2
13760000,0.0100778,0.00192795,-0.00755554,0.999994,0.000201881,-0.00037865,0.00349835,0.999998,-1.62215e-06,4.17535e-06,-0.00185935,2
13792000,-0.00692166,-0.00407217,-0.00105358,0.999994,0.000145372,-0.000375482,0.00346318,0.999998,-1.62215e-06,4.17535e-06,-0.00185935,2
13820000,0.00157862,0.00092773,-0.00105233,0.999994,6.69707e-05,-0.000386286,0.00343346,0.999998,-1.62215e-06,4.17535e-06,-0.00185935,2
13848000,-0.0134212,0.00992763,0.000946644,0.999994,2.94027e-05,-0.000341937,0.00345565,0.999998,-1.62215e-06,4.17535e-06,-0.00185935,2
13876000,0.00907911,-7.24224e-05,-0.00105272,0.999994,8.89558e-05,-0.00032523,0.00339443,0.999998,-1.62215e-06,4.17535e-06,-0.00185935,2
13908000,0.0135796,0.00292745,0.00544943,0.999994,0.000200283,-0.0002584,0.00344279,0.999998,-1.62215e-06,4.17535e-06,-0.00185935,2
13940000,-0.00342022,0.0189274,0.0104477,0.999994,0.000246971,-0.000278786,0.00348996,0.999998,-1.62215e-06,4.17535e-06,-0.00185935,2
13968000,0.00808027,-0.00107285,-0.0140504,0.999994,0.000239773,-0.000310243,0.00344325,0.999998,-1.62215e-06,4.17535e-06,-0.00185935,2
13996000,-0.000419525,-0.00157291,-0.00604959,0.999994,0.0001968,-0.000396818,0.00341601,0.999998,-1.62215e-06,4.17535e-06,-0.00185935,2
14024000,-0.0024193,0.000427055,0.00895418,0.999994,0.000159406,-0.000343365,0.00338878,0.999998,-1.62215e-06,4.17535e-06,-0.00185935,2
14056000,-0.00691892,-0.00257308,-0.00904397,0.999994,0.000205438,-0.000419665,0.00334525,0.999998,-1.62215e-06,4.17535e-06,-0.00185935,2
14088000,-0.00141872,0.0104268,-0.00854018,0.999994,0.000220387,-0.000464071,0.0033694,0.999998,-1.62215e-06,4.17535e-06,-0.00185935,2
14120000,0.0100817,0.00842666,-0.00354004,0.999995,0.000303124,-0.000416218,0.00328855,0.999998,-1.62215e-06,4.17535e-06,-0.00185935,2
14148000,8.18569e-05,-0.00157341,0.00696545,0.999995,0.000333051,-0.000419473,0.00324552,0.999998,-1.62215e-06,4.17535e-06,-0.00185935,2
14180000,-0.002418,-0.00607349,0.00496592,0.999994,0.000309061,-0.00044598,0.00329599,0.999998,-1.62215e-06,4.17535e-06,-0.00185935,2
14208000,-0.000417635,-0.0145736,-0.00453243,0.999994,0.000307218,-0.00050336,0.00334686,0.999998,-1.62215e-06,4.17535e-06,-0.00185935,2
14236000,-0.0149175,-0.00257378,0.00846806,0.999994,0.000307272,-0.00053875,0.00347215,0.999998,-1.62215e-06,4.17535e-06,-0.00185935,2
14268000,0.00408264,-0.00357379,0.00846798,0.999994,0.00033656,-0.000607054,0.00349239,0.999998,-1.62215e-06,4.17535e-06,-0.00185935,2
14296000,-0.000917067,0.0069261,0.000970848,0.999994,0.000293439,-0.000559571,0.00356493,0.999998,-1.62215e-06,4.17535e-06,-0.00185935,2
14328000,-0.00291692,0.00692603,-0.00402777,0.999994,0.000155272,-0.000474437,0.00352955,0.999998,-1.62215e-06,4.17535e-06,-0.00185935,2
