timestamp,noutputs,output[0],output[1],output[2],output[3],output[4],output[5],output[6],output[7],output[8],output[9],output[10],output[11],output[12],output[13],output[14],output[15]
100000,6,900.0,900.0,900.0,900.0,900.0,900.0,nan,nan,nan,nan,nan,nan,nan,nan,nan,nan
196000,6,900.0,900.0,900.0,900.0,900.0,900.0,nan,nan,nan,nan,nan,nan,nan,nan,nan,nan
292000,6,900.0,900.0,900.0,900.0,900.0,900.0,nan,nan,nan,nan,nan,nan,nan,nan,nan,nan
388000,6,900.0,900.0,900.0,900.0,900.0,900.0,nan,nan,nan,nan,nan,nan,nan,nan,nan,nan
484000,6,900.0,900.0,900.0,900.0,900.0,900.0,nan,nan,nan,nan,nan,nan,nan,nan,nan,nan
580000,6,900.0,900.0,900.0,900.0,900.0,900.0,nan,nan,nan,nan,nan,nan,nan,nan,nan,nan
676000,6,900.0,900.0,900.0,900.0,900.0,900.0,nan,nan,nan,nan,nan,nan,nan,nan,nan,nan
776000,6,900.0,900.0,900.0,900.0,900.0,900.0,nan,nan,nan,nan,nan,nan,nan,nan,nan,nan
872000,6,900.0,900.0,900.0,900.0,900.0,900.0,nan,nan,nan,nan,nan,nan,nan,nan,nan,nan
968000,6,900.0,900.0,900.0,900.0,900.0,900.0,nan,nan,nan,nan,nan,nan,nan,nan,nan,nan
1068000,6,900.0,900.0,900.0,900.0,900.0,900.0,nan,nan,nan,nan,nan,nan,nan,nan,nan,nan
1164000,6,900.0,900.0,900.0,900.0,900.0,900.0,nan,nan,nan,nan,nan,nan,nan,nan,nan,nan
1260000,6,900.0,900.0,900.0,900.0,900.0,900.0,nan,nan,nan,nan,nan,nan,nan,nan,nan,nan
1356000,6,900.0,900.0,900.0,900.0,900.0,900.0,nan,nan,nan,nan,nan,nan,nan,nan,nan,nan
1452000,6,900.0,900.0,900.0,900.0,900.0,900.0,nan,nan,nan,nan,nan,nan,nan,nan,nan,nan
1552000,6,900.0,900.0,900.0,900.0,900.0,900.0,nan,nan,nan,nan,nan,nan,nan,nan,nan,nan
1652000,6,900.0,900.0,900.0,900.0,900.0,900.0,nan,nan,nan,nan,nan,nan,nan,nan,nan,nan
1752000,6,900.0,900.0,900.0,900.0,900.0,900.0,nan,nan,nan,nan,nan,nan,nan,nan,nan,nan
1852000,6,900.0,900.0,900.0,900.0,900.0,900.0,nan,nan,nan,nan,nan,nan,nan,nan,nan,nan
1948000,6,900.0,900.0,900.0,900.0,900.0,900.0,nan,nan,nan,nan,nan,nan,nan,nan,nan,nan
2044000,6,900.0,900.0,900.0,900.0,900.0,900.0,nan,nan,nan,nan,nan,nan,nan,nan,nan,nan
2140000,6,900.0,900.0,900.0,900.0,900.0,900.0,nan,nan,nan,nan,nan,nan,nan,nan,nan,nan
2236000,6,900.0,900.0,900.0,900.0,900.0,900.0,nan,nan,nan,nan,nan,nan,nan,nan,nan,nan
2332000,6,900.0,900.0,900.0,900.0,900.0,900.0,nan,nan,nan,nan,nan,nan,nan,nan,nan,nan
2428000,6,900.0,900.0,900.0,900.0,900.0,900.0,nan,nan,nan,nan,nan,nan,nan,nan,nan,nan
2524000,6,900.0,900.0,900.0,900.0,900.0,900.0,nan,nan,nan,nan,nan,nan,nan,nan,nan,nan
2620000,6,900.0,900.0,900.0,900.0,900.0,900.0,nan,nan,nan,nan,nan,nan,nan,nan,nan,nan
2716000,6,900.0,900.0,900.0,900.0,900.0,900.0,nan,nan,nan,nan,nan,nan,nan,nan,nan,nan
2812000,6,900.0,900.0,900.0,900.0,900.0,900.0,nan,nan,nan,nan,nan,nan,nan,nan,nan,nan
2908000,6,900.0,900.0,900.0,900.0,900.0,900.0,nan,nan,nan,nan,nan,nan,nan,nan,nan,nan
3004000,6,900.0,900.0,900.0,900.0,900.0,900.0,nan,nan,nan,nan,nan,nan,nan,nan,nan,nan
3100000,6,900.0,900.0,900.0,900.0,900.0,900.0,nan,nan,nan,nan,nan,nan,nan,nan,nan,nan
3196000,6,900.0,900.0,900.0,900.0,900.0,900.0,nan,nan,nan,nan,nan,nan,nan,nan,nan,nan
3292000,6,900.0,900.0,900.0,900.0,900.0,900.0,nan,nan,nan,nan,nan,nan,nan,nan,nan,nan
3388000,6,900.0,900.0,900.0,900.0,900.0,900.0,nan,nan,nan,nan,nan,nan,nan,nan,nan,nan
3484000,6,900.0,900.0,900.0,900.0,900.0,900.0,nan,nan,nan,nan,nan,nan,nan,nan,nan,nan
3580000,6,900.0,900.0,900.0,900.0,900.0,900.0,nan,nan,nan,nan,nan,nan,nan,nan,nan,nan
3676000,6,900.0,900.0,900.0,900.0,900.0,900.0,nan,nan,nan,nan,nan,nan,nan,nan,nan,nan
3776000,6,900.0,900.0,900.0,900.0,900.0,900.0,nan,nan,nan,nan,nan,nan,nan,nan,nan,nan
3876000,6,900.0,900.0,900.0,900.0,900.0,900.0,nan,nan,nan,nan,nan,nan,nan,nan,nan,nan
3972000,6,900.0,900.0,900.0,900.0,900.0,900.0,nan,nan,nan,nan,nan,nan,nan,nan,nan,nan
4068000,6,900.0,900.0,900.0,900.0,900.0,900.0,nan,nan,nan,nan,nan,nan,nan,nan,nan,nan
4168000,6,900.0,900.0,900.0,900.0,900.0,900.0,nan,nan,nan,nan,nan,nan,nan,nan,nan,nan
4264000,6,900.0,900.0,900.0,900.0,900.0,900.0,nan,nan,nan,nan,nan,nan,nan,nan,nan,nan
4360000,6,900.0,900.0,900.0,900.0,900.0,900.0,nan,nan,nan,nan,nan,nan,nan,nan,nan,nan
4460000,6,900.0,900.0,900.0,900.0,900.0,900.0,nan,nan,nan,nan,nan,nan,nan,nan,nan,nan
4556000,6,900.0,900.0,900.0,900.0,900.0,900.0,nan,nan,nan,nan,nan,nan,nan,nan,nan,nan
4652000,6,900.0,900.0,900.0,900.0,900.0,900.0,nan,nan,nan,nan,nan,nan,nan,nan,nan,nan
4752000,6,900.0,900.0,900.0,900.0,900.0,900.0,nan,nan,nan,nan,nan,nan,nan,nan,nan,nan
4848000,6,900.0,900.0,900.0,900.0,900.0,900.0,nan,nan,nan,nan,nan,nan,nan,nan,nan,nan
4944000,6,900.0,900.0,900.0,900.0,900.0,900.0,nan,nan,nan,nan,nan,nan,nan,nan,nan,nan
5044000,6,900.0,900.0,900.0,900.0,900.0,900.0,nan,nan,nan,nan,nan,nan,nan,nan,nan,nan
5140000,6,900.0,900.0,900.0,900.0,900.0,900.0,nan,nan,nan,nan,nan,nan,nan,nan,nan,nan
5236000,6,900.0,900.0,900.0,900.0,900.0,900.0,nan,nan,nan,nan,nan,nan,nan,nan,nan,nan
5332000,6,900.0,900.0,900.0,900.0,900.0,900.0,nan,nan,nan,nan,nan,nan,nan,nan,nan,nan
5428000,6,900.0,900.0,900.0,900.0,900.0,900.0,nan,nan,nan,nan,nan,nan,nan,nan,nan,nan
5524000,6,900.0,900.0,900.0,900.0,900.0,900.0,nan,nan,nan,nan,nan,nan,nan,nan,nan,nan
5624000,6,900.0,900.0,900.0,900.0,900.0,900.0,nan,nan,nan,nan,nan,nan,nan,nan,nan,nan
5720000,6,900.0,900.0,900.0,900.0,900.0,900.0,nan,nan,nan,nan,nan,nan,nan,nan,nan,nan
5816000,6,900.0,900.0,900.0,900.0,900.0,900.0,nan,nan,nan,nan,nan,nan,nan,nan,nan,nan
5912000,6,900.0,900.0,900.0,900.0,900.0,900.0,nan,nan,nan,nan,nan,nan,nan,nan,nan,nan
6012000,6,900.0,900.0,900.0,900.0,900.0,900.0,nan,nan,nan,nan,nan,nan,nan,nan,nan,nan
6108000,6,900.0,900.0,900.0,900.0,900.0,900.0,nan,nan,nan,nan,nan,nan,nan,nan,nan,nan
6208000,6,900.0,900.0,900.0,900.0,900.0,900.0,nan,nan,nan,nan,nan,nan,nan,nan,nan,nan
6304000,6,900.0,900.0,900.0,900.0,900.0,900.0,nan,nan,nan,nan,nan,nan,nan,nan,nan,nan
6400000,6,900.0,900.0,900.0,900.0,900.0,900.0,nan,nan,nan,nan,nan,nan,nan,nan,nan,nan
6500000,6,900.0,900.0,900.0,900.0,900.0,900.0,nan,nan,nan,nan,nan,nan,nan,nan,nan,nan
6596000,6,900.0,900.0,900.0,900.0,900.0,900.0,nan,nan,nan,nan,nan,nan,nan,nan,nan,nan
6696000,6,900.0,900.0,900.0,900.0,900.0,900.0,nan,nan,nan,nan,nan,nan,nan,nan,nan,nan
6792000,6,900.0,900.0,900.0,900.0,900.0,900.0,nan,nan,nan,nan,nan,nan,nan,nan,nan,nan
6888000,6,900.0,900.0,900.0,900.0,900.0,900.0,nan,nan,nan,nan,nan,nan,nan,nan,nan,nan
6984000,6,900.0,900.0,900.0,900.0,900.0,900.0,nan,nan,nan,nan,nan,nan,nan,nan,nan,nan
7084000,6,900.0,900.0,900.0,900.0,900.0,900.0,nan,nan,nan,nan,nan,nan,nan,nan,nan,nan
7180000,6,900.0,900.0,900.0,900.0,900.0,900.0,nan,nan,nan,nan,nan,nan,nan,nan,nan,nan
7276000,6,900.0,900.0,900.0,900.0,900.0,900.0,nan,nan,nan,nan,nan,nan,nan,nan,nan,nan
7376000,6,900.0,900.0,900.0,900.0,900.0,900.0,nan,nan,nan,nan,nan,nan,nan,nan,nan,nan
7472000,6,900.0,900.0,900.0,900.0,900.0,900.0,nan,nan,nan,nan,nan,nan,nan,nan,nan,nan
7572000,6,900.0,900.0,900.0,900.0,900.0,900.0,nan,nan,nan,nan,nan,nan,nan,nan,nan,nan
7668000,6,900.0,900.0,900.0,900.0,900.0,900.0,nan,nan,nan,nan,nan,nan,nan,nan,nan,nan
7764000,6,900.0,900.0,900.0,900.0,900.0,900.0,nan,nan,nan,nan,nan,nan,nan,nan,nan,nan
7860000,6,900.0,900.0,900.0,900.0,900.0,900.0,nan,nan,nan,nan,nan,nan,nan,nan,nan,nan
7956000,6,900.0,900.0,900.0,900.0,900.0,900.0,nan,nan,nan,nan,nan,nan,nan,nan,nan,nan
8052000,6,900.0,900.0,900.0,900.0,900.0,900.0,nan,nan,nan,nan,nan,nan,nan,nan,nan,nan
8148000,6,900.0,900.0,900.0,900.0,900.0,900.0,nan,nan,nan,nan,nan,nan,nan,nan,nan,nan
8244000,6,900.0,900.0,900.0,900.0,900.0,900.0,nan,nan,nan,nan,nan,nan,nan,nan,nan,nan
8340000,6,900.0,900.0,900.0,900.0,900.0,900.0,nan,nan,nan,nan,nan,nan,nan,nan,nan,nan
8440000,6,900.0,900.0,900.0,900.0,900.0,900.0,nan,nan,nan,nan,nan,nan,nan,nan,nan,nan
8536000,6,900.0,900.0,900.0,900.0,900.0,900.0,nan,nan,nan,nan,nan,nan,nan,nan,nan,nan
8636000,6,900.0,900.0,900.0,900.0,900.0,900.0,nan,nan,nan,nan,nan,nan,nan,nan,nan,nan
8736000,6,900.0,900.0,900.0,900.0,900.0,900.0,nan,nan,nan,nan,nan,nan,nan,nan,nan,nan
8832000,6,900.0,900.0,900.0,900.0,900.0,900.0,nan,nan,nan,nan,nan,nan,nan,nan,nan,nan
8932000,6,900.0,900.0,900.0,900.0,900.0,900.0,nan,nan,nan,nan,nan,nan,nan,nan,nan,nan
9028000,6,900.0,900.0,900.0,900.0,900.0,900.0,nan,nan,nan,nan,nan,nan,nan,nan,nan,nan
9124000,6,900.0,900.0,900.0,900.0,900.0,900.0,nan,nan,nan,nan,nan,nan,nan,nan,nan,nan
9220000,6,900.0,900.0,900.0,900.0,900.0,900.0,nan,nan,nan,nan,nan,nan,nan,nan,nan,nan
9316000,6,900.0,900.0,900.0,900.0,900.0,900.0,nan,nan,nan,nan,nan,nan,nan,nan,nan,nan
9416000,6,900.0,900.0,900.0,900.0,900.0,900.0,nan,nan,nan,nan,nan,nan,nan,nan,nan,nan
9512000,6,900.0,900.0,900.0,900.0,900.0,900.0,nan,nan,nan,nan,nan,nan,nan,nan,nan,nan
9612000,6,900.0,900.0,900.0,900.0,900.0,900.0,nan,nan,nan,nan,nan,nan,nan,nan,nan,nan
9708000,6,900.0,900.0,900.0,900.0,900.0,900.0,nan,nan,nan,nan,nan,nan,nan,nan,nan,nan
9804000,6,900.0,900.0,900.0,900.0,900.0,900.0,nan,nan,nan,nan,nan,nan,nan,nan,nan,nan
9900000,6,900.0,900.0,900.0,900.0,900.0,900.0,nan,nan,nan,nan,nan,nan,nan,nan,nan,nan
10000000,6,900.0,900.0,900.0,900.0,900.0,900.0,nan,nan,nan,nan,nan,nan,nan,nan,nan,nan
10096000,6,900.0,900.0,900.0,900.0,900.0,900.0,nan,nan,nan,nan,nan,nan,nan,nan,nan,nan
10196000,6,900.0,900.0,900.0,900.0,900.0,900.0,nan,nan,nan,nan,nan,nan,nan,nan,nan,nan
10292000,6,900.0,900.0,900.0,900.0,900.0,900.0,nan,nan,nan,nan,nan,nan,nan,nan,nan,nan
10388000,6,900.0,900.0,900.0,900.0,900.0,900.0,nan,nan,nan,nan,nan,nan,nan,nan,nan,nan
10488000,6,900.0,900.0,900.0,900.0,900.0,900.0,nan,nan,nan,nan,nan,nan,nan,nan,nan,nan
10588000,6,900.0,900.0,900.0,900.0,900.0,900.0,nan,nan,nan,nan,nan,nan,nan,nan,nan,nan
10684000,6,900.0,900.0,900.0,900.0,900.0,900.0,nan,nan,nan,nan,nan,nan,nan,nan,nan,nan
10780000,6,900.0,900.0,900.0,900.0,900.0,900.0,nan,nan,nan,nan,nan,nan,nan,nan,nan,nan
10876000,6,900.0,900.0,900.0,900.0,900.0,900.0,nan,nan,nan,nan,nan,nan,nan,nan,nan,nan
10972000,6,900.0,900.0,900.0,900.0,900.0,900.0,nan,nan,nan,nan,nan,nan,nan,nan,nan,nan
11068000,6,900.0,900.0,900.0,900.0,900.0,900.0,nan,nan,nan,nan,nan,nan,nan,nan,nan,nan
11168000,6,900.0,900.0,900.0,900.0,900.0,900.0,nan,nan,nan,nan,nan,nan,nan,nan,nan,nan
11268000,6,900.0,900.0,900.0,900.0,900.0,900.0,nan,nan,nan,nan,nan,nan,nan,nan,nan,nan
11368000,6,900.0,900.0,900.0,900.0,900.0,900.0,nan,nan,nan,nan,nan,nan,nan,nan,nan,nan
11468000,6,900.0,900.0,900.0,900.0,900.0,900.0,nan,nan,nan,nan,nan,nan,nan,nan,nan,nan
11564000,6,900.0,900.0,900.0,900.0,900.0,900.0,nan,nan,nan,nan,nan,nan,nan,nan,nan,nan
11660000,6,900.0,900.0,900.0,900.0,900.0,900.0,nan,nan,nan,nan,nan,nan,nan,nan,nan,nan
11756000,6,900.0,900.0,900.0,900.0,900.0,900.0,nan,nan,nan,nan,nan,nan,nan,nan,nan,nan
11852000,6,900.0,900.0,900.0,900.0,900.0,900.0,nan,nan,nan,nan,nan,nan,nan,nan,nan,nan
11952000,6,900.0,900.0,900.0,900.0,900.0,900.0,nan,nan,nan,nan,nan,nan,nan,nan,nan,nan
12048000,6,900.0,900.0,900.0,900.0,900.0,900.0,nan,nan,nan,nan,nan,nan,nan,nan,nan,nan
12144000,6,900.0,900.0,900.0,900.0,900.0,900.0,nan,nan,nan,nan,nan,nan,nan,nan,nan,nan
12240000,6,900.0,900.0,900.0,900.0,900.0,900.0,nan,nan,nan,nan,nan,nan,nan,nan,nan,nan
12336000,6,900.0,900.0,900.0,900.0,900.0,900.0,nan,nan,nan,nan,nan,nan,nan,nan,nan,nan
12432000,6,900.0,900.0,900.0,900.0,900.0,900.0,nan,nan,nan,nan,nan,nan,nan,nan,nan,nan
12528000,6,900.0,900.0,900.0,900.0,900.0,900.0,nan,nan,nan,nan,nan,nan,nan,nan,nan,nan
12624000,6,900.0,900.0,900.0,900.0,900.0,900.0,nan,nan,nan,nan,nan,nan,nan,nan,nan,nan
12720000,6,900.0,900.0,900.0,900.0,900.0,900.0,nan,nan,nan,nan,nan,nan,nan,nan,nan,nan
12816000,6,900.0,900.0,900.0,900.0,900.0,900.0,nan,nan,nan,nan,nan,nan,nan,nan,nan,nan
12912000,6,900.0,900.0,900.0,900.0,900.0,900.0,nan,nan,nan,nan,nan,nan,nan,nan,nan,nan
13008000,6,900.0,900.0,900.0,900.0,900.0,900.0,nan,nan,nan,nan,nan,nan,nan,nan,nan,nan
13104000,6,900.0,900.0,900.0,900.0,900.0,900.0,nan,nan,nan,nan,nan,nan,nan,nan,nan,nan
13200000,6,900.0,900.0,900.0,900.0,900.0,900.0,nan,nan,nan,nan,nan,nan,nan,nan,nan,nan
13296000,6,900.0,900.0,900.0,900.0,900.0,900.0,nan,nan,nan,nan,nan,nan,nan,nan,nan,nan
13392000,6,900.0,900.0,900.0,900.0,900.0,900.0,nan,nan,nan,nan,nan,nan,nan,nan,nan,nan
13488000,6,900.0,900.0,900.0,900.0,900.0,900.0,nan,nan,nan,nan,nan,nan,nan,nan,nan,nan
13584000,6,900.0,900.0,900.0,900.0,900.0,900.0,nan,nan,nan,nan,nan,nan,nan,nan,nan,nan
13680000,6,900.0,900.0,900.0,900.0,900.0,900.0,nan,nan,nan,nan,nan,nan,nan,nan,nan,nan
13776000,6,900.0,900.0,900.0,900.0,900.0,900.0,nan,nan,nan,nan,nan,nan,nan,nan,nan,nan
13876000,6,900.0,900.0,900.0,900.0,900.0,900.0,nan,nan,nan,nan,nan,nan,nan,nan,nan,nan
13972000,6,900.0,900.0,900.0,900.0,900.0,900.0,nan,nan,nan,nan,nan,nan,nan,nan,nan,nan
14068000,6,900.0,900.0,900.0,900.0,900.0,900.0,nan,nan,nan,nan,nan,nan,nan,nan,nan,nan
14164000,6,900.0,900.0,900.0,900.0,900.0,900.0,nan,nan,nan,nan,nan,nan,nan,nan,nan,nan
14260000,6,900.0,900.0,900.0,900.0,900.0,900.0,nan,nan,nan,nan,nan,nan,nan,nan,nan,nan
14356000,6,900.0,900.0,900.0,900.0,900.0,900.0,nan,nan,nan,nan,nan,nan,nan,nan,nan,nan
14456000,6,900.0,900.0,900.0,900.0,900.0,900.0,nan,nan,nan,nan,nan,nan,nan,nan,nan,nan
14552000,6,900.0,900.0,900.0,900.0,900.0,900.0,nan,nan,nan,nan,nan,nan,nan,nan,nan,nan
14652000,6,900.0,900.0,900.0,900.0,900.0,900.0,nan,nan,nan,nan,nan,nan,nan,nan,nan,nan
14748000,6,900.0,900.0,900.0,900.0,900.0,900.0,nan,nan,nan,nan,nan,nan,nan,nan,nan,nan
14844000,6,900.0,900.0,900.0,900.0,900.0,900.0,nan,nan,nan,nan,nan,nan,nan,nan,nan,nan
14940000,6,900.0,900.0,900.0,900.0,900.0,900.0,nan,nan,nan,nan,nan,nan,nan,nan,nan,nan
15036000,6,900.0,900.0,900.0,900.0,900.0,900.0,nan,nan,nan,nan,nan,nan,nan,nan,nan,nan
15136000,6,900.0,900.0,900.0,900.0,900.0,900.0,nan,nan,nan,nan,nan,nan,nan,nan,nan,nan
15232000,6,900.0,900.0,900.0,900.0,900.0,900.0,nan,nan,nan,nan,nan,nan,nan,nan,nan,nan
15328000,6,900.0,900.0,900.0,900.0,900.0,900.0,nan,nan,nan,nan,nan,nan,nan,nan,nan,nan
15428000,6,900.0,900.0,900.0,900.0,900.0,900.0,nan,nan,nan,nan,nan,nan,nan,nan,nan,nan
15528000,6,900.0,900.0,900.0,900.0,900.0,900.0,nan,nan,nan,nan,nan,nan,nan,nan,nan,nan
15624000,6,900.0,900.0,900.0,900.0,900.0,900.0,nan,nan,nan,nan,nan,nan,nan,nan,nan,nan
15724000,6,900.0,900.0,900.0,900.0,900.0,900.0,nan,nan,nan,nan,nan,nan,nan,nan,nan,nan
15820000,6,900.0,900.0,900.0,900.0,900.0,900.0,nan,nan,nan,nan,nan,nan,nan,nan,nan,nan
15920000,6,900.0,900.0,900.0,900.0,900.0,900.0,nan,nan,nan,nan,nan,nan,nan,nan,nan,nan
16016000,6,900.0,900.0,900.0,900.0,900.0,900.0,nan,nan,nan,nan,nan,nan,nan,nan,nan,nan
16112000,6,900.0,900.0,900.0,900.0,900.0,900.0,nan,nan,nan,nan,nan,nan,nan,nan,nan,nan
16208000,6,900.0,900.0,900.0,900.0,900.0,900.0,nan,nan,nan,nan,nan,nan,nan,nan,nan,nan
16304000,6,900.0,900.0,900.0,900.0,900.0,900.0,nan,nan,nan,nan,nan,nan,nan,nan,nan,nan
16400000,6,900.0,900.0,900.0,900.0,900.0,900.0,nan,nan,nan,nan,nan,nan,nan,nan,nan,nan
16496000,6,900.0,900.0,900.0,900.0,900.0,900.0,nan,nan,nan,nan,nan,nan,nan,nan,nan,nan
16596000,6,900.0,900.0,900.0,900.0,900.0,900.0,nan,nan,nan,nan,nan,nan,nan,nan,nan,nan
16692000,6,900.0,900.0,900.0,900.0,900.0,900.0,nan,nan,nan,nan,nan,nan,nan,nan,nan,nan
16788000,6,900.0,900.0,900.0,900.0,900.0,900.0,nan,nan,nan,nan,nan,nan,nan,nan,nan,nan
16884000,6,900.0,900.0,900.0,900.0,900.0,900.0,nan,nan,nan,nan,nan,nan,nan,nan,nan,nan
16980000,6,1000.0,1000.0,1000.0,1000.0,1500.0,1500.0,nan,nan,nan,nan,nan,nan,nan,nan,nan,nan
17076000,6,1000.0,1000.0,1000.0,1000.0,1500.0,1500.0,nan,nan,nan,nan,nan,nan,nan,nan,nan,nan
17172000,6,1000.0,1000.0,1000.0,1000.0,1500.0,1500.0,nan,nan,nan,nan,nan,nan,nan,nan,nan,nan
17268000,6,1000.0,1000.0,1000.0,1000.0,1500.0,1500.0,nan,nan,nan,nan,nan,nan,nan,nan,nan,nan
17368000,6,1000.0,1000.0,1000.0,1000.0,1500.0,1500.0,nan,nan,nan,nan,nan,nan,nan,nan,nan,nan
17464000,6,1000.0,1000.0,1000.0,1000.0,1500.0,1500.0,nan,nan,nan,nan,nan,nan,nan,nan,nan,nan
17560000,6,1000.0,1000.0,1000.0,1000.0,1500.0,1500.0,nan,nan,nan,nan,nan,nan,nan,nan,nan,nan
17660000,6,1000.0,1000.0,1000.0,1000.0,1500.0,1500.0,nan,nan,nan,nan,nan,nan,nan,nan,nan,nan
17756000,6,1000.0,1000.0,1000.0,1000.0,1500.0,1500.0,nan,nan,nan,nan,nan,nan,nan,nan,nan,nan
17852000,6,1000.0,1000.0,1000.0,1000.0,1500.0,1500.0,nan,nan,nan,nan,nan,nan,nan,nan,nan,nan
17948000,6,1118.55,1119.72,1116.13,1125.61,1500.0,1500.0,nan,nan,nan,nan,nan,nan,nan,nan,nan,nan
18044000,6,1157.44,1083.05,1094.3,1145.87,1500.0,1500.0,nan,nan,nan,nan,nan,nan,nan,nan,nan,nan
18140000,6,1184.88,1120.68,1138.93,1166.38,1500.0,1500.0,nan,nan,nan,nan,nan,nan,nan,nan,nan,nan
18236000,6,1255.03,1204.51,1222.24,1235.34,1500.0,1500.0,nan,nan,nan,nan,nan,nan,nan,nan,nan,nan
18332000,6,1313.96,1275.27,1286.91,1301.8,1500.0,1500.0,nan,nan,nan,nan,nan,nan,nan,nan,nan,nan
18428000,6,1382.4,1345.97,1358.43,1367.99,1500.0,1500.0,nan,nan,nan,nan,nan,nan,nan,nan,nan,nan
18524000,6,1447.4,1414.7,1425.19,1435.58,1500.0,1500.0,nan,nan,nan,nan,nan,nan,nan,nan,nan,nan
18620000,6,1525.7,1507.7,1512.82,1519.31,1500.0,1500.0,nan,nan,nan,nan,nan,nan,nan,nan,nan,nan
18716000,6,1545.57,1551.04,1554.47,1547.83,1500.0,1500.0,nan,nan,nan,nan,nan,nan,nan,nan,nan,nan
18812000,6,1557.01,1559.11,1560.02,1561.26,1500.0,1500.0,nan,nan,nan,nan,nan,nan,nan,nan,nan,nan
18908000,6,1560.28,1552.68,1557.65,1553.22,1500.0,1500.0,nan,nan,nan,nan,nan,nan,nan,nan,nan,nan
19008000,6,1555.65,1549.75,1552.96,1555.19,1500.0,1500.0,nan,nan,nan,nan,nan,nan,nan,nan,nan,nan
19108000,6,1552.42,1556.17,1548.38,1557.6,1500.0,1500.0,nan,nan,nan,nan,nan,nan,nan,nan,nan,nan
19204000,6,1561.9,1562.35,1563.59,1557.9,1500.0,1500.0,nan,nan,nan,nan,nan,nan,nan,nan,nan,nan
19300000,6,1557.14,1562.12,1557.67,1555.38,1500.0,1500.0,nan,nan,nan,nan,nan,nan,nan,nan,nan,nan
19396000,6,1562.02,1551.75,1557.01,1551.02,1500.0,1500.0,nan,nan,nan,nan,nan,nan,nan,nan,nan,nan
19492000,6,1562.71,1559.58,1563.42,1560.4,1500.0,1500.0,nan,nan,nan,nan,nan,nan,nan,nan,nan,nan
19588000,6,1558.55,1556.79,1562.61,1557.68,1500.0,1500.0,nan,nan,nan,nan,nan,nan,nan,nan,nan,nan
19684000,6,1556.19,1558.74,1560.31,1556.52,1500.0,1500.0,nan,nan,nan,nan,nan,nan,nan,nan,nan,nan
19784000,6,1561.42,1551.58,1565.14,1553.74,1500.0,1500.0,nan,nan,nan,nan,nan,nan,nan,nan,nan,nan
19880000,6,1558.37,1571.7,1557.82,1566.45,1500.0,1500.0,nan,nan,nan,nan,nan,nan,nan,nan,nan,nan
19976000,6,1560.98,1561.73,1559.63,1561.18,1500.0,1500.0,nan,nan,nan,nan,nan,nan,nan,nan,nan,nan
20072000,6,1555.34,1557.67,1555.6,1554.77,1500.0,1500.0,nan,nan,nan,nan,nan,nan,nan,nan,nan,nan
20168000,6,1563.52,1563.71,1562.12,1561.11,1500.0,1500.0,nan,nan,nan,nan,nan,nan,nan,nan,nan,nan
20264000,6,1561.88,1559.67,1559.76,1565.83,1500.0,1500.0,nan,nan,nan,nan,nan,nan,nan,nan,nan,nan
20360000,6,1558.51,1562.11,1554.53,1559.14,1500.0,1500.0,nan,nan,nan,nan,nan,nan,nan,nan,nan,nan
20456000,6,1556.2,1556.16,1552.65,1557.15,1500.0,1500.0,nan,nan,nan,nan,nan,nan,nan,nan,nan,nan
20552000,6,1552.51,1547.88,1548.5,1558.16,1500.0,1500.0,nan,nan,nan,nan,nan,nan,nan,nan,nan,nan
20648000,6,1451.65,1457.48,1455.82,1453.58,1500.0,1500.0,nan,nan,nan,nan,nan,nan,nan,nan,nan,nan
20744000,6,1438.75,1438.05,1440.75,1440.0,1500.0,1500.0,nan,nan,nan,nan,nan,nan,nan,nan,nan,nan
20840000,6,1446.1,1454.26,1446.58,1452.56,1500.0,1500.0,nan,nan,nan,nan,nan,nan,nan,nan,nan,nan
20940000,6,1451.52,1457.11,1455.86,1455.52,1500.0,1500.0,nan,nan,nan,nan,nan,nan,nan,nan,nan,nan
21036000,6,1447.77,1453.28,1452.03,1457.41,1500.0,1500.0,nan,nan,nan,nan,nan,nan,nan,nan,nan,nan
21132000,6,1447.65,1449.6,1448.56,1455.0,1500.0,1500.0,nan,nan,nan,nan,nan,nan,nan,nan,nan,nan
21228000,6,1454.49,1461.96,1463.27,1458.3,1500.0,1500.0,nan,nan,nan,nan,nan,nan,nan,nan,nan,nan
21328000,6,1459.03,1467.69,1457.92,1468.27,1500.0,1500.0,nan,nan,nan,nan,nan,nan,nan,nan,nan,nan
21424000,6,1464.49,1465.73,1463.11,1461.69,1500.0,1500.0,nan,nan,nan,nan,nan,nan,nan,nan,nan,nan
21520000,6,1467.75,1457.07,1461.73,1466.99,1500.0,1500.0,nan,nan,nan,nan,nan,nan,nan,nan,nan,nan
21620000,6,1473.91,1470.52,1476.77,1468.38,1500.0,1500.0,nan,nan,nan,nan,nan,nan,nan,nan,nan,nan
21716000,6,1471.46,1472.5,1469.66,1476.23,1500.0,1500.0,nan,nan,nan,nan,nan,nan,nan,nan,nan,nan
21812000,6,1474.04,1477.2,1472.53,1474.31,1500.0,1500.0,nan,nan,nan,nan,nan,nan,nan,nan,nan,nan
21908000,6,1480.02,1481.71,1476.69,1482.18,1500.0,1500.0,nan,nan,nan,nan,nan,nan,nan,nan,nan,nan
22004000,6,1483.56,1478.75,1484.53,1481.46,1500.0,1500.0,nan,nan,nan,nan,nan,nan,nan,nan,nan,nan
22100000,6,1475.49,1480.98,1476.91,1481.89,1500.0,1500.0,nan,nan,nan,nan,nan,nan,nan,nan,nan,nan
22196000,6,1480.55,1476.64,1478.67,1477.56,1500.0,1500.0,nan,nan,nan,nan,nan,nan,nan,nan,nan,nan
22292000,6,1484.38,1486.21,1485.57,1487.33,1500.0,1500.0,nan,nan,nan,nan,nan,nan,nan,nan,nan,nan
22388000,6,1479.49,1487.7,1483.33,1485.76,1500.0,1500.0,nan,nan,nan,nan,nan,nan,nan,nan,nan,nan
22484000,6,1487.66,1484.42,1487.42,1482.78,1500.0,1500.0,nan,nan,nan,nan,nan,nan,nan,nan,nan,nan
22584000,6,1484.12,1482.01,1484.76,1484.73,1500.0,1500.0,nan,nan,nan,nan,nan,nan,nan,nan,nan,nan
22680000,6,1492.66,1490.44,1492.38,1492.77,1500.0,1500.0,nan,nan,nan,nan,nan,nan,nan,nan,nan,nan
22780000,6,1491.64,1483.69,1491.49,1486.61,1500.0,1500.0,nan,nan,nan,nan,nan,nan,nan,nan,nan,nan
22876000,6,1490.5,1483.23,1487.19,1484.3,1500.0,1500.0,nan,nan,nan,nan,nan,nan,nan,nan,nan,nan
22976000,6,1481.11,1491.83,1485.7,1485.76,1500.0,1500.0,nan,nan,nan,nan,nan,nan,nan,nan,nan,nan
23072000,6,1495.29,1490.32,1492.43,1492.89,1500.0,1500.0,nan,nan,nan,nan,nan,nan,nan,nan,nan,nan
23168000,6,1490.3,1490.64,1494.73,1482.52,1500.0,1500.0,nan,nan,nan,nan,nan,nan,nan,nan,nan,nan
23268000,6,1481.98,1496.23,1486.27,1491.76,1500.0,1500.0,nan,nan,nan,nan,nan,nan,nan,nan,nan,nan
23364000,6,1486.46,1493.09,1480.83,1491.63,1500.0,1500.0,nan,nan,nan,nan,nan,nan,nan,nan,nan,nan
23460000,6,1489.85,1498.54,1493.89,1497.41,1500.0,1500.0,nan,nan,nan,nan,nan,nan,nan,nan,nan,nan
23556000,6,1484.56,1494.15,1484.08,1498.85,1500.0,1500.0,nan,nan,nan,nan,nan,nan,nan,nan,nan,nan
23652000,6,1482.63,1490.2,1487.94,1488.48,1500.0,1500.0,nan,nan,nan,nan,nan,nan,nan,nan,nan,nan
23748000,6,1488.67,1498.57,1488.12,1497.34,1500.0,1500.0,nan,nan,nan,nan,nan,nan,nan,nan,nan,nan
23844000,6,1491.23,1487.83,1496.43,1487.59,1500.0,1500.0,nan,nan,nan,nan,nan,nan,nan,nan,nan,nan
23940000,6,1488.32,1486.41,1491.59,1485.4,1500.0,1500.0,nan,nan,nan,nan,nan,nan,nan,nan,nan,nan
24036000,6,1485.85,1494.19,1482.42,1493.38,1500.0,1500.0,nan,nan,nan,nan,nan,nan,nan,nan,nan,nan
24132000,6,1496.88,1493.8,1494.62,1495.71,1500.0,1500.0,nan,nan,nan,nan,nan,nan,nan,nan,nan,nan
24232000,6,1495.01,1489.61,1495.51,1490.52,1500.0,1500.0,nan,nan,nan,nan,nan,nan,nan,nan,nan,nan
24328000,6,1484.29,1495.37,1491.0,1487.37,1500.0,1500.0,nan,nan,nan,nan,nan,nan,nan,nan,nan,nan
24424000,6,1491.47,1498.79,1491.36,1500.39,1500.0,1500.0,nan,nan,nan,nan,nan,nan,nan,nan,nan,nan
24520000,6,1497.21,1485.82,1496.87,1484.71,1500.0,1500.0,nan,nan,nan,nan,nan,nan,nan,nan,nan,nan
24620000,6,1497.66,1485.49,1493.62,1493.16,1500.0,1500.0,nan,nan,nan,nan,nan,nan,nan,nan,nan,nan
24720000,6,1486.36,1491.22,1491.6,1488.91,1500.0,1500.0,nan,nan,nan,nan,nan,nan,nan,nan,nan,nan
24820000,6,1484.43,1495.27,1487.69,1487.58,1500.0,1500.0,nan,nan,nan,nan,nan,nan,nan,nan,nan,nan
24916000,6,1492.73,1496.16,1493.64,1498.02,1500.0,1500.0,nan,nan,nan,nan,nan,nan,nan,nan,nan,nan
25012000,6,1496.38,1490.57,1492.93,1487.77,1500.0,1500.0,nan,nan,nan,nan,nan,nan,nan,nan,nan,nan
25108000,6,1491.27,1491.44,1495.26,1491.47,1500.0,1500.0,nan,nan,nan,nan,nan,nan,nan,nan,nan,nan
25204000,6,1527.21,1537.74,1525.55,1538.89,1500.0,1500.0,nan,nan,nan,nan,nan,nan,nan,nan,nan,nan
25300000,6,1568.62,1567.67,1568.73,1565.18,1500.0,1500.0,nan,nan,nan,nan,nan,nan,nan,nan,nan,nan
25396000,6,1603.4,1596.51,1608.1,1590.63,1500.0,1500.0,nan,nan,nan,nan,nan,nan,nan,nan,nan,nan
25496000,6,1640.15,1648.92,1641.3,1646.37,1500.0,1500.0,nan,nan,nan,nan,nan,nan,nan,nan,nan,nan
25592000,6,1673.74,1671.65,1669.51,1674.83,1500.0,1500.0,nan,nan,nan,nan,nan,nan,nan,nan,nan,nan
25692000,6,1629.71,1627.1,1629.8,1628.84,1500.0,1500.0,nan,nan,nan,nan,nan,nan,nan,nan,nan,nan
25788000,6,1576.64,1569.01,1579.03,1570.72,1500.0,1500.0,nan,nan,nan,nan,nan,nan,nan,nan,nan,nan
25884000,6,1505.3,1523.06,1509.45,1523.89,1500.0,1500.0,nan,nan,nan,nan,nan,nan,nan,nan,nan,nan
25984000,6,1498.61,1500.05,1499.21,1504.42,1500.0,1500.0,nan,nan,nan,nan,nan,nan,nan,nan,nan,nan
26080000,6,1501.54,1500.08,1504.68,1497.23,1500.0,1500.0,nan,nan,nan,nan,nan,nan,nan,nan,nan,nan
26176000,6,1504.44,1494.99,1501.4,1496.68,1500.0,1500.0,nan,nan,nan,nan,nan,nan,nan,nan,nan,nan
26272000,6,1501.56,1494.96,1499.76,1494.56,1500.0,1500.0,nan,nan,nan,nan,nan,nan,nan,nan,nan,nan
26368000,6,1494.44,1495.78,1496.25,1495.1,1500.0,1500.0,nan,nan,nan,nan,nan,nan,nan,nan,nan,nan
26464000,6,1496.84,1492.69,1491.16,1495.43,1500.0,1500.0,nan,nan,nan,nan,nan,nan,nan,nan,nan,nan
26560000,6,1497.18,1493.18,1492.86,1493.39,1500.0,1500.0,nan,nan,nan,nan,nan,nan,nan,nan,nan,nan
26656000,6,1494.83,1491.79,1495.54,1489.62,1500.0,1500.0,nan,nan,nan,nan,nan,nan,nan,nan,nan,nan
26756000,6,1497.39,1488.36,1491.83,1490.18,1500.0,1500.0,nan,nan,nan,nan,nan,nan,nan,nan,nan,nan
26856000,6,1488.68,1492.24,1493.56,1493.47,1500.0,1500.0,nan,nan,nan,nan,nan,nan,nan,nan,nan,nan
26952000,6,1496.89,1488.23,1489.98,1497.37,1500.0,1500.0,nan,nan,nan,nan,nan,nan,nan,nan,nan,nan
27048000,6,1500.38,1482.44,1493.28,1491.0,1500.0,1500.0,nan,nan,nan,nan,nan,nan,nan,nan,nan,nan
27144000,6,1490.7,1493.15,1491.79,1495.35,1500.0,1500.0,nan,nan,nan,nan,nan,nan,nan,nan,nan,nan
27244000,6,1492.16,1491.51,1495.61,1488.56,1500.0,1500.0,nan,nan,nan,nan,nan,nan,nan,nan,nan,nan
27340000,6,1492.51,1493.55,1486.17,1498.2,1500.0,1500.0,nan,nan,nan,nan,nan,nan,nan,nan,nan,nan
27436000,6,1494.99,1493.5,1492.34,1495.38,1500.0,1500.0,nan,nan,nan,nan,nan,nan,nan,nan,nan,nan
27532000,6,1496.76,1493.51,1495.45,1495.72,1500.0,1500.0,nan,nan,nan,nan,nan,nan,nan,nan,nan,nan
27628000,6,1493.69,1498.16,1492.22,1496.34,1500.0,1500.0,nan,nan,nan,nan,nan,nan,nan,nan,nan,nan
27724000,6,1495.07,1495.61,1494.75,1494.41,1500.0,1500.0,nan,nan,nan,nan,nan,nan,nan,nan,nan,nan
27820000,6,1494.3,1493.93,1495.74,1494.58,1500.0,1500.0,nan,nan,nan,nan,nan,nan,nan,nan,nan,nan
27920000,6,1496.8,1491.37,1495.9,1493.5,1500.0,1500.0,nan,nan,nan,nan,nan,nan,nan,nan,nan,nan
28016000,6,1491.35,1504.32,1489.86,1498.88,1500.0,1500.0,nan,nan,nan,nan,nan,nan,nan,nan,nan,nan
28112000,6,1496.65,1495.19,1494.73,1498.32,1500.0,1500.0,nan,nan,nan,nan,nan,nan,nan,nan,nan,nan
28208000,6,1495.6,1496.7,1493.81,1497.13,1500.0,1500.0,nan,nan,nan,nan,nan,nan,nan,nan,nan,nan
28304000,6,1492.93,1496.89,1493.47,1499.68,1500.0,1500.0,nan,nan,nan,nan,nan,nan,nan,nan,nan,nan
28404000,6,1498.4,1494.83,1496.04,1496.66,1500.0,1500.0,nan,nan,nan,nan,nan,nan,nan,nan,nan,nan
28504000,6,1491.09,1503.03,1492.27,1499.24,1500.0,1500.0,nan,nan,nan,nan,nan,nan,nan,nan,nan,nan
28600000,6,1496.13,1499.19,1492.84,1498.45,1500.0,1500.0,nan,nan,nan,nan,nan,nan,nan,nan,nan,nan
28700000,6,1494.75,1495.71,1498.17,1494.46,1500.0,1500.0,nan,nan,nan,nan,nan,nan,nan,nan,nan,nan
28796000,6,1495.71,1493.67,1497.62,1493.23,1500.0,1500.0,nan,nan,nan,nan,nan,nan,nan,nan,nan,nan
28896000,6,1497.49,1491.82,1494.8,1500.31,1500.0,1500.0,nan,nan,nan,nan,nan,nan,nan,nan,nan,nan
28996000,6,1499.21,1492.52,1494.3,1495.69,1500.0,1500.0,nan,nan,nan,nan,nan,nan,nan,nan,nan,nan
29092000,6,1489.63,1499.81,1489.29,1503.14,1500.0,1500.0,nan,nan,nan,nan,nan,nan,nan,nan,nan,nan
29188000,6,1485.97,1493.63,1486.01,1488.25,1500.0,1500.0,nan,nan,nan,nan,nan,nan,nan,nan,nan,nan
29288000,6,1488.15,1487.4,1489.09,1490.38,1500.0,1500.0,nan,nan,nan,nan,nan,nan,nan,nan,nan,nan
29384000,6,1497.65,1502.59,1500.51,1504.36,1500.0,1500.0,nan,nan,nan,nan,nan,nan,nan,nan,nan,nan
29480000,6,1493.5,1491.51,1493.81,1497.95,1500.0,1500.0,nan,nan,nan,nan,nan,nan,nan,nan,nan,nan
29580000,6,1496.83,1494.08,1492.95,1495.22,1500.0,1500.0,nan,nan,nan,nan,nan,nan,nan,nan,nan,nan
29676000,6,1492.23,1489.26,1495.96,1486.32,1500.0,1500.0,nan,nan,nan,nan,nan,nan,nan,nan,nan,nan
29772000,6,1498.66,1498.67,1492.96,1505.49,1500.0,1500.0,nan,nan,nan,nan,nan,nan,nan,nan,nan,nan
29872000,6,1496.78,1500.31,1497.92,1497.56,1500.0,1500.0,nan,nan,nan,nan,nan,nan,nan,nan,nan,nan
29968000,6,1492.63,1488.73,1496.69,1489.69,1500.0,1500.0,nan,nan,nan,nan,nan,nan,nan,nan,nan,nan
30064000,6,1498.67,1506.18,1504.93,1497.8,1500.0,1500.0,nan,nan,nan,nan,nan,nan,nan,nan,nan,nan
30160000,6,1494.85,1496.73,1493.25,1496.99,1500.0,1500.0,nan,nan,nan,nan,nan,nan,nan,nan,nan,nan
30256000,6,1499.19,1495.75,1496.32,1495.72,1500.0,1500.0,nan,nan,nan,nan,nan,nan,nan,nan,nan,nan
30352000,6,1486.13,1493.58,1488.6,1491.73,1500.0,1500.0,nan,nan,nan,nan,nan,nan,nan,nan,nan,nan
30448000,6,1496.0,1503.52,1498.72,1501.92,1500.0,1500.0,nan,nan,nan,nan,nan,nan,nan,nan,nan,nan
30548000,6,1493.78,1494.22,1495.31,1498.77,1500.0,1500.0,nan,nan,nan,nan,nan,nan,nan,nan,nan,nan
30644000,6,1491.48,1498.77,1489.83,1500.37,1500.0,1500.0,nan,nan,nan,nan,nan,nan,nan,nan,nan,nan
30740000,6,1487.48,1488.7,1485.75,1494.89,1500.0,1500.0,nan,nan,nan,nan,nan,nan,nan,nan,nan,nan
30840000,6,1511.47,1493.62,1505.82,1498.65,1500.0,1500.0,nan,nan,nan,nan,nan,nan,nan,nan,nan,nan
30936000,6,1498.65,1486.68,1499.26,1492.68,1500.0,1500.0,nan,nan,nan,nan,nan,nan,nan,nan,nan,nan
31032000,6,1491.51,1499.63,1497.85,1496.05,1500.0,1500.0,nan,nan,nan,nan,nan,nan,nan,nan,nan,nan
31128000,6,1480.91,1491.1,1483.83,1497.6,1500.0,1500.0,nan,nan,nan,nan,nan,nan,nan,nan,nan,nan
31224000,6,1499.08,1506.63,1498.76,1507.6,1500.0,1500.0,nan,nan,nan,nan,nan,nan,nan,nan,nan,nan
31324000,6,1499.24,1506.9,1497.31,1505.86,1500.0,1500.0,nan,nan,nan,nan,nan,nan,nan,nan,nan,nan
31420000,6,1493.93,1494.0,1492.54,1498.76,1500.0,1500.0,nan,nan,nan,nan,nan,nan,nan,nan,nan,nan
31516000,6,1489.77,1491.81,1488.22,1492.64,1500.0,1500.0,nan,nan,nan,nan,nan,nan,nan,nan,nan,nan
31612000,6,1506.82,1502.0,1505.58,1506.61,1500.0,1500.0,nan,nan,nan,nan,nan,nan,nan,nan,nan,nan
31708000,6,1489.91,1502.69,1490.97,1498.59,1500.0,1500.0,nan,nan,nan,nan,nan,nan,nan,nan,nan,nan
31804000,6,1485.35,1495.07,1490.51,1489.92,1500.0,1500.0,nan,nan,nan,nan,nan,nan,nan,nan,nan,nan
31900000,6,1492.71,1489.88,1488.01,1489.05,1500.0,1500.0,nan,nan,nan,nan,nan,nan,nan,nan,nan,nan
32000000,6,1507.23,1499.37,1512.76,1495.17,1500.0,1500.0,nan,nan,nan,nan,nan,nan,nan,nan,nan,nan
32096000,6,1495.71,1496.59,1492.74,1495.87,1500.0,1500.0,nan,nan,nan,nan,nan,nan,nan,nan,nan,nan
32192000,6,1490.93,1486.29,1491.71,1489.37,1500.0,1500.0,nan,nan,nan,nan,nan,nan,nan,nan,nan,nan
32288000,6,1504.38,1499.51,1504.22,1498.53,1500.0,1500.0,nan,nan,nan,nan,nan,nan,nan,nan,nan,nan
32388000,6,1505.41,1503.84,1503.7,1502.02,1500.0,1500.0,nan,nan,nan,nan,nan,nan,nan,nan,nan,nan
32484000,6,1497.9,1496.86,1502.95,1491.27,1500.0,1500.0,nan,nan,nan,nan,nan,nan,nan,nan,nan,nan
32580000,6,1491.66,1489.24,1488.23,1494.78,1500.0,1500.0,nan,nan,nan,nan,nan,nan,nan,nan,nan,nan
32676000,6,1501.38,1503.0,1498.35,1505.56,1500.0,1500.0,nan,nan,nan,nan,nan,nan,nan,nan,nan,nan
32772000,6,1501.98,1488.56,1501.55,1498.09,1500.0,1500.0,nan,nan,nan,nan,nan,nan,nan,nan,nan,nan
32872000,6,1502.46,1491.79,1497.64,1495.4,1500.0,1500.0,nan,nan,nan,nan,nan,nan,nan,nan,nan,nan
32968000,6,1488.49,1489.44,1491.18,1485.34,1500.0,1500.0,nan,nan,nan,nan,nan,nan,nan,nan,nan,nan
33064000,6,1498.19,1508.59,1493.66,1508.77,1500.0,1500.0,nan,nan,nan,nan,nan,nan,nan,nan,nan,nan
33160000,6,1492.94,1501.33,1493.12,1502.33,1500.0,1500.0,nan,nan,nan,nan,nan,nan,nan,nan,nan,nan
33256000,6,1493.86,1487.01,1488.09,1495.84,1500.0,1500.0,nan,nan,nan,nan,nan,nan,nan,nan,nan,nan
33352000,6,1499.64,1503.65,1502.12,1499.34,1500.0,1500.0,nan,nan,nan,nan,nan,nan,nan,nan,nan,nan
33448000,6,1501.42,1498.5,1501.18,1505.43,1500.0,1500.0,nan,nan,nan,nan,nan,nan,nan,nan,nan,nan
33548000,6,1505.02,1491.99,1498.37,1491.29,1500.0,1500.0,nan,nan,nan,nan,nan,nan,nan,nan,nan,nan
33644000,6,1491.23,1489.83,1491.55,1492.7,1500.0,1500.0,nan,nan,nan,nan,nan,nan,nan,nan,nan,nan
33740000,6,1503.0,1501.81,1497.12,1503.82,1500.0,1500.0,nan,nan,nan,nan,nan,nan,nan,nan,nan,nan
33840000,6,1496.9,1497.9,1502.45,1498.07,1500.0,1500.0,nan,nan,nan,nan,nan,nan,nan,nan,nan,nan
33936000,6,1498.78,1501.36,1497.8,1494.21,1500.0,1500.0,nan,nan,nan,nan,nan,nan,nan,nan,nan,nan
34032000,6,1487.76,1492.52,1491.51,1495.43,1500.0,1500.0,nan,nan,nan,nan,nan,nan,nan,nan,nan,nan
34132000,6,1494.08,1505.41,1493.99,1505.97,1500.0,1500.0,nan,nan,nan,nan,nan,nan,nan,nan,nan,nan
34228000,6,1504.23,1492.53,1498.32,1493.78,1500.0,1500.0,nan,nan,nan,nan,nan,nan,nan,nan,nan,nan
34324000,6,1487.26,1492.7,1492.27,1489.57,1500.0,1500.0,nan,nan,nan,nan,nan,nan,nan,nan,nan,nan
34420000,6,1497.15,1500.32,1489.75,1504.73,1500.0,1500.0,nan,nan,nan,nan,nan,nan,nan,nan,nan,nan
34516000,6,1495.92,1499.66,1499.95,1496.75,1500.0,1500.0,nan,nan,nan,nan,nan,nan,nan,nan,nan,nan
34616000,6,1496.0,1498.21,1496.69,1496.66,1500.0,1500.0,nan,nan,nan,nan,nan,nan,nan,nan,nan,nan
34712000,6,1495.88,1489.32,1491.55,1486.39,1500.0,1500.0,nan,nan,nan,nan,nan,nan,nan,nan,nan,nan
34812000,6,1492.6,1486.6,1489.25,1493.28,1500.0,1500.0,nan,nan,nan,nan,nan,nan,nan,nan,nan,nan
34912000,6,1495.56,1499.61,1491.69,1506.0,1500.0,1500.0,nan,nan,nan,nan,nan,nan,nan,nan,nan,nan
35008000,6,1493.58,1497.59,1496.55,1500.9,1500.0,1500.0,nan,nan,nan,nan,nan,nan,nan,nan,nan,nan
35108000,6,1507.24,1492.4,1501.21,1491.91,1500.0,1500.0,nan,nan,nan,nan,nan,nan,nan,nan,nan,nan
35208000,6,1493.22,1488.55,1490.36,1489.18,1500.0,1500.0,nan,nan,nan,nan,nan,nan,nan,nan,nan,nan
35304000,6,1492.94,1502.74,1494.47,1500.75,1500.0,1500.0,nan,nan,nan,nan,nan,nan,nan,nan,nan,nan
35404000,6,1494.51,1500.22,1496.18,1498.97,1500.0,1500.0,nan,nan,nan,nan,nan,nan,nan,nan,nan,nan
35500000,6,1497.47,1498.3,1499.87,1496.95,1500.0,1500.0,nan,nan,nan,nan,nan,nan,nan,nan,nan,nan
35596000,6,1495.08,1488.41,1487.34,1497.24,1500.0,1500.0,nan,nan,nan,nan,nan,nan,nan,nan,nan,nan
35692000,6,1501.49,1495.09,1502.15,1496.76,1500.0,1500.0,nan,nan,nan,nan,nan,nan,nan,nan,nan,nan
35788000,6,1494.29,1497.42,1502.79,1494.11,1500.0,1500.0,nan,nan,nan,nan,nan,nan,nan,nan,nan,nan
35884000,6,1488.77,1494.41,1491.72,1489.47,1500.0,1500.0,nan,nan,nan,nan,nan,nan,nan,nan,nan,nan
35984000,6,1500.67,1495.17,1501.87,1495.07,1500.0,1500.0,nan,nan,nan,nan,nan,nan,nan,nan,nan,nan
36080000,6,1501.28,1498.97,1502.64,1497.09,1500.0,1500.0,nan,nan,nan,nan,nan,nan,nan,nan,nan,nan
36180000,6,1498.8,1496.34,1496.15,1501.23,1500.0,1500.0,nan,nan,nan,nan,nan,nan,nan,nan,nan,nan
36276000,6,1490.16,1490.84,1488.19,1493.42,1500.0,1500.0,nan,nan,nan,nan,nan,nan,nan,nan,nan,nan
36372000,6,1496.76,1503.31,1499.29,1496.01,1500.0,1500.0,nan,nan,nan,nan,nan,nan,nan,nan,nan,nan
36472000,6,1498.76,1505.12,1497.5,1498.45,1500.0,1500.0,nan,nan,nan,nan,nan,nan,nan,nan,nan,nan
36568000,6,1493.25,1498.61,1495.0,1495.72,1500.0,1500.0,nan,nan,nan,nan,nan,nan,nan,nan,nan,nan
36664000,6,1487.73,1489.9,1490.81,1487.96,1500.0,1500.0,nan,nan,nan,nan,nan,nan,nan,nan,nan,nan
36760000,6,1504.82,1499.12,1503.12,1501.97,1500.0,1500.0,nan,nan,nan,nan,nan,nan,nan,nan,nan,nan
36856000,6,1491.56,1499.14,1490.98,1499.88,1500.0,1500.0,nan,nan,nan,nan,nan,nan,nan,nan,nan,nan
36952000,6,1486.42,1488.04,1492.55,1490.41,1500.0,1500.0,nan,nan,nan,nan,nan,nan,nan,nan,nan,nan
37048000,6,1507.05,1502.32,1508.23,1499.45,1500.0,1500.0,nan,nan,nan,nan,nan,nan,nan,nan,nan,nan
37148000,6,1505.06,1501.03,1501.64,1505.45,1500.0,1500.0,nan,nan,nan,nan,nan,nan,nan,nan,nan,nan
37244000,6,1496.22,1498.1,1500.84,1491.09,1500.0,1500.0,nan,nan,nan,nan,nan,nan,nan,nan,nan,nan
37340000,6,1492.56,1489.46,1488.84,1489.67,1500.0,1500.0,nan,nan,nan,nan,nan,nan,nan,nan,nan,nan
37440000,6,1500.86,1499.59,1496.3,1505.79,1500.0,1500.0,nan,nan,nan,nan,nan,nan,nan,nan,nan,nan
37536000,6,1493.65,1496.87,1495.1,1497.54,1500.0,1500.0,nan,nan,nan,nan,nan,nan,nan,nan,nan,nan
37632000,6,1495.07,1493.92,1496.39,1496.29,1500.0,1500.0,nan,nan,nan,nan,nan,nan,nan,nan,nan,nan
37732000,6,1479.1,1494.73,1483.04,1492.7,1500.0,1500.0,nan,nan,nan,nan,nan,nan,nan,nan,nan,nan
37832000,6,1494.48,1501.59,1496.02,1507.37,1500.0,1500.0,nan,nan,nan,nan,nan,nan,nan,nan,nan,nan
37928000,6,1494.28,1490.07,1491.11,1495.06,1500.0,1500.0,nan,nan,nan,nan,nan,nan,nan,nan,nan,nan
38024000,6,1491.72,1493.49,1493.52,1493.87,1500.0,1500.0,nan,nan,nan,nan,nan,nan,nan,nan,nan,nan
38120000,6,1482.31,1495.6,1488.83,1488.31,1500.0,1500.0,nan,nan,nan,nan,nan,nan,nan,nan,nan,nan
38216000,6,1507.98,1493.96,1505.26,1499.02,1500.0,1500.0,nan,nan,nan,nan,nan,nan,nan,nan,nan,nan
38312000,6,1488.42,1499.95,1487.32,1497.47,1500.0,1500.0,nan,nan,nan,nan,nan,nan,nan,nan,nan,nan
38412000,6,1488.62,1499.41,1490.22,1495.67,1500.0,1500.0,nan,nan,nan,nan,nan,nan,nan,nan,nan,nan
38508000,6,1482.34,1494.02,1480.27,1494.46,1500.0,1500.0,nan,nan,nan,nan,nan,nan,nan,nan,nan,nan
38604000,6,1501.6,1500.5,1499.48,1502.88,1500.0,1500.0,nan,nan,nan,nan,nan,nan,nan,nan,nan,nan
38700000,6,1491.64,1498.12,1494.86,1495.31,1500.0,1500.0,nan,nan,nan,nan,nan,nan,nan,nan,nan,nan
38796000,6,1487.94,1488.22,1488.58,1490.64,1500.0,1500.0,nan,nan,nan,nan,nan,nan,nan,nan,nan,nan
38892000,6,1499.81,1501.82,1497.29,1502.66,1500.0,1500.0,nan,nan,nan,nan,nan,nan,nan,nan,nan,nan
38992000,6,1500.7,1496.55,1495.6,1505.61,1500.0,1500.0,nan,nan,nan,nan,nan,nan,nan,nan,nan,nan
39092000,6,1488.5,1500.59,1490.19,1499.27,1500.0,1500.0,nan,nan,nan,nan,nan,nan,nan,nan,nan,nan
39188000,6,1483.74,1491.0,1486.43,1492.19,1500.0,1500.0,nan,nan,nan,nan,nan,nan,nan,nan,nan,nan
39284000,6,1502.49,1501.85,1504.93,1499.15,1500.0,1500.0,nan,nan,nan,nan,nan,nan,nan,nan,nan,nan
39380000,6,1495.94,1496.79,1497.13,1491.91,1500.0,1500.0,nan,nan,nan,nan,nan,nan,nan,nan,nan,nan
39476000,6,1483.79,1493.88,1481.63,1496.65,1500.0,1500.0,nan,nan,nan,nan,nan,nan,nan,nan,nan,nan
39576000,6,1489.05,1493.17,1490.8,1489.36,1500.0,1500.0,nan,nan,nan,nan,nan,nan,nan,nan,nan,nan
39676000,6,1505.96,1503.3,1502.11,1502.84,1500.0,1500.0,nan,nan,nan,nan,nan,nan,nan,nan,nan,nan
39772000,6,1492.44,1498.72,1493.49,1497.02,1500.0,1500.0,nan,nan,nan,nan,nan,nan,nan,nan,nan,nan
39868000,6,1492.5,1493.48,1498.3,1493.55,1500.0,1500.0,nan,nan,nan,nan,nan,nan,nan,nan,nan,nan
39964000,6,1484.06,1490.93,1485.9,1493.93,1500.0,1500.0,nan,nan,nan,nan,nan,nan,nan,nan,nan,nan
40060000,6,1500.18,1501.18,1498.55,1506.37,1500.0,1500.0,nan,nan,nan,nan,nan,nan,nan,nan,nan,nan
40156000,6,1492.61,1496.07,1494.03,1494.03,1500.0,1500.0,nan,nan,nan,nan,nan,nan,nan,nan,nan,nan
40256000,6,1484.77,1490.76,1484.15,1493.66,1500.0,1500.0,nan,nan,nan,nan,nan,nan,nan,nan,nan,nan
40352000,6,1508.0,1501.17,1506.42,1498.33,1500.0,1500.0,nan,nan,nan,nan,nan,nan,nan,nan,nan,nan
40448000,6,1495.14,1493.23,1495.83,1498.0,1500.0,1500.0,nan,nan,nan,nan,nan,nan,nan,nan,nan,nan
40548000,6,1496.28,1489.23,1498.44,1495.49,1500.0,1500.0,nan,nan,nan,nan,nan,nan,nan,nan,nan,nan
40644000,6,1485.63,1491.88,1491.15,1484.01,1500.0,1500.0,nan,nan,nan,nan,nan,nan,nan,nan,nan,nan
40744000,6,1503.07,1501.4,1502.13,1501.78,1500.0,1500.0,nan,nan,nan,nan,nan,nan,nan,nan,nan,nan
40840000,6,1497.53,1506.61,1499.52,1505.49,1500.0,1500.0,nan,nan,nan,nan,nan,nan,nan,nan,nan,nan
40940000,6,1495.36,1493.24,1494.6,1498.3,1500.0,1500.0,nan,nan,nan,nan,nan,nan,nan,nan,nan,nan
41036000,6,1487.46,1492.39,1489.29,1493.38,1500.0,1500.0,nan,nan,nan,nan,nan,nan,nan,nan,nan,nan
41136000,6,1504.43,1501.05,1508.05,1504.14,1500.0,1500.0,nan,nan,nan,nan,nan,nan,nan,nan,nan,nan
41236000,6,1509.45,1497.55,1509.23,1500.81,1500.0,1500.0,nan,nan,nan,nan,nan,nan,nan,nan,nan,nan
41332000,6,1496.05,1493.37,1493.13,1497.92,1500.0,1500.0,nan,nan,nan,nan,nan,nan,nan,nan,nan,nan
41428000,6,1491.74,1485.11,1489.97,1493.33,1500.0,1500.0,nan,nan,nan,nan,nan,nan,nan,nan,nan,nan
41524000,6,1501.06,1504.14,1501.18,1502.85,1500.0,1500.0,nan,nan,nan,nan,nan,nan,nan,nan,nan,nan
41620000,6,1492.6,1496.37,1494.65,1497.56,1500.0,1500.0,nan,nan,nan,nan,nan,nan,nan,nan,nan,nan
41716000,6,1486.04,1493.37,1484.38,1496.99,1500.0,1500.0,nan,nan,nan,nan,nan,nan,nan,nan,nan,nan
41812000,6,1497.28,1483.48,1491.11,1491.76,1500.0,1500.0,nan,nan,nan,nan,nan,nan,nan,nan,nan,nan
41912000,6,1508.78,1498.81,1500.77,1506.99,1500.0,1500.0,nan,nan,nan,nan,nan,nan,nan,nan,nan,nan
42012000,6,1490.8,1500.06,1494.92,1496.4,1500.0,1500.0,nan,nan,nan,nan,nan,nan,nan,nan,nan,nan
42112000,6,1494.92,1497.16,1492.49,1496.73,1500.0,1500.0,nan,nan,nan,nan,nan,nan,nan,nan,nan,nan
42208000,6,1463.34,1464.31,1465.66,1465.23,1500.0,1500.0,nan,nan,nan,nan,nan,nan,nan,nan,nan,nan
42304000,6,1458.46,1453.84,1461.45,1453.15,1500.0,1500.0,nan,nan,nan,nan,nan,nan,nan,nan,nan,nan
42404000,6,1454.4,1455.13,1447.6,1456.62,1500.0,1500.0,nan,nan,nan,nan,nan,nan,nan,nan,nan,nan
42500000,6,1450.85,1449.2,1443.08,1452.36,1500.0,1500.0,nan,nan,nan,nan,nan,nan,nan,nan,nan,nan
42596000,6,1442.64,1448.9,1447.48,1444.94,1500.0,1500.0,nan,nan,nan,nan,nan,nan,nan,nan,nan,nan
42692000,6,1455.38,1454.71,1455.84,1453.42,1500.0,1500.0,nan,nan,nan,nan,nan,nan,nan,nan,nan,nan
42792000,6,1460.16,1446.65,1455.33,1446.06,1500.0,1500.0,nan,nan,nan,nan,nan,nan,nan,nan,nan,nan
42888000,6,1453.81,1448.92,1451.76,1453.81,1500.0,1500.0,nan,nan,nan,nan,nan,nan,nan,nan,nan,nan
42984000,6,1458.33,1458.46,1464.61,1455.37,1500.0,1500.0,nan,nan,nan,nan,nan,nan,nan,nan,nan,nan
43080000,6,1458.09,1450.55,1457.13,1451.75,1500.0,1500.0,nan,nan,nan,nan,nan,nan,nan,nan,nan,nan
43180000,6,1460.47,1449.38,1458.39,1455.0,1500.0,1500.0,nan,nan,nan,nan,nan,nan,nan,nan,nan,nan
43276000,6,1459.87,1448.29,1450.9,1453.15,1500.0,1500.0,nan,nan,nan,nan,nan,nan,nan,nan,nan,nan
43376000,6,1456.87,1465.57,1458.16,1460.78,1500.0,1500.0,nan,nan,nan,nan,nan,nan,nan,nan,nan,nan
43472000,6,1453.91,1468.44,1457.8,1460.35,1500.0,1500.0,nan,nan,nan,nan,nan,nan,nan,nan,nan,nan
43568000,6,1464.67,1462.18,1460.5,1462.01,1500.0,1500.0,nan,nan,nan,nan,nan,nan,nan,nan,nan,nan
43664000,6,1458.87,1463.19,1462.21,1456.68,1500.0,1500.0,nan,nan,nan,nan,nan,nan,nan,nan,nan,nan
43760000,6,1470.34,1464.82,1469.71,1465.58,1500.0,1500.0,nan,nan,nan,nan,nan,nan,nan,nan,nan,nan
43856000,6,1470.0,1464.65,1471.75,1464.24,1500.0,1500.0,nan,nan,nan,nan,nan,nan,nan,nan,nan,nan
43956000,6,1465.22,1469.15,1466.56,1469.8,1500.0,1500.0,nan,nan,nan,nan,nan,nan,nan,nan,nan,nan
44052000,6,1471.13,1464.07,1468.14,1466.87,1500.0,1500.0,nan,nan,nan,nan,nan,nan,nan,nan,nan,nan
44148000,6,1472.31,1469.26,1468.9,1477.39,1500.0,1500.0,nan,nan,nan,nan,nan,nan,nan,nan,nan,nan
44244000,6,1469.85,1468.72,1471.36,1473.1,1500.0,1500.0,nan,nan,nan,nan,nan,nan,nan,nan,nan,nan
44340000,6,1465.45,1474.44,1470.95,1466.11,1500.0,1500.0,nan,nan,nan,nan,nan,nan,nan,nan,nan,nan
44436000,6,1487.8,1462.93,1483.88,1460.68,1500.0,1500.0,nan,nan,nan,nan,nan,nan,nan,nan,nan,nan
44536000,6,1472.39,1476.37,1473.98,1472.61,1500.0,1500.0,nan,nan,nan,nan,nan,nan,nan,nan,nan,nan
44632000,6,1469.01,1473.41,1470.79,1471.79,1500.0,1500.0,nan,nan,nan,nan,nan,nan,nan,nan,nan,nan
44732000,6,1474.86,1464.59,1474.68,1463.09,1500.0,1500.0,nan,nan,nan,nan,nan,nan,nan,nan,nan,nan
44828000,6,1476.39,1475.22,1474.93,1469.6,1500.0,1500.0,nan,nan,nan,nan,nan,nan,nan,nan,nan,nan
44924000,6,1467.47,1476.45,1469.51,1475.99,1500.0,1500.0,nan,nan,nan,nan,nan,nan,nan,nan,nan,nan
45020000,6,1477.94,1473.18,1468.0,1474.08,1500.0,1500.0,nan,nan,nan,nan,nan,nan,nan,nan,nan,nan
45116000,6,1476.5,1470.04,1476.22,1472.03,1500.0,1500.0,nan,nan,nan,nan,nan,nan,nan,nan,nan,nan
45212000,6,1480.03,1469.81,1481.4,1468.57,1500.0,1500.0,nan,nan,nan,nan,nan,nan,nan,nan,nan,nan
45308000,6,1478.61,1475.43,1477.21,1468.37,1500.0,1500.0,nan,nan,nan,nan,nan,nan,nan,nan,nan,nan
45404000,6,1478.21,1474.24,1480.21,1470.82,1500.0,1500.0,nan,nan,nan,nan,nan,nan,nan,nan,nan,nan
45500000,6,1484.29,1475.82,1485.14,1468.15,1500.0,1500.0,nan,nan,nan,nan,nan,nan,nan,nan,nan,nan
45596000,6,1471.26,1483.23,1471.42,1482.14,1500.0,1500.0,nan,nan,nan,nan,nan,nan,nan,nan,nan,nan
45692000,6,1474.63,1476.72,1472.98,1477.45,1500.0,1500.0,nan,nan,nan,nan,nan,nan,nan,nan,nan,nan
45788000,6,1470.6,1476.29,1474.29,1476.19,1500.0,1500.0,nan,nan,nan,nan,nan,nan,nan,nan,nan,nan
45888000,6,1473.45,1482.57,1473.99,1485.64,1500.0,1500.0,nan,nan,nan,nan,nan,nan,nan,nan,nan,nan
45984000,6,1479.85,1482.08,1480.72,1481.43,1500.0,1500.0,nan,nan,nan,nan,nan,nan,nan,nan,nan,nan
46080000,6,1480.93,1477.75,1478.28,1479.47,1500.0,1500.0,nan,nan,nan,nan,nan,nan,nan,nan,nan,nan
46176000,6,1484.48,1481.05,1481.73,1480.1,1500.0,1500.0,nan,nan,nan,nan,nan,nan,nan,nan,nan,nan
46272000,6,1475.37,1485.83,1480.49,1481.87,1500.0,1500.0,nan,nan,nan,nan,nan,nan,nan,nan,nan,nan
46372000,6,1479.11,1482.85,1480.12,1481.69,1500.0,1500.0,nan,nan,nan,nan,nan,nan,nan,nan,nan,nan
46468000,6,1484.54,1481.73,1478.03,1472.81,1500.0,1500.0,nan,nan,nan,nan,nan,nan,nan,nan,nan,nan
46564000,6,1479.56,1484.3,1484.47,1478.37,1500.0,1500.0,nan,nan,nan,nan,nan,nan,nan,nan,nan,nan
46660000,6,1483.76,1476.05,1480.58,1476.34,1500.0,1500.0,nan,nan,nan,nan,nan,nan,nan,nan,nan,nan
46756000,6,1480.52,1478.67,1482.87,1478.86,1500.0,1500.0,nan,nan,nan,nan,nan,nan,nan,nan,nan,nan
46856000,6,1481.5,1481.75,1481.8,1481.74,1500.0,1500.0,nan,nan,nan,nan,nan,nan,nan,nan,nan,nan
46952000,6,1477.1,1485.75,1479.89,1486.13,1500.0,1500.0,nan,nan,nan,nan,nan,nan,nan,nan,nan,nan
47048000,6,1480.2,1483.14,1478.02,1481.46,1500.0,1500.0,nan,nan,nan,nan,nan,nan,nan,nan,nan,nan
47148000,6,1484.22,1474.32,1483.96,1476.33,1500.0,1500.0,nan,nan,nan,nan,nan,nan,nan,nan,nan,nan
47244000,6,1480.6,1480.6,1484.38,1477.79,1500.0,1500.0,nan,nan,nan,nan,nan,nan,nan,nan,nan,nan
47340000,6,1477.68,1482.45,1476.97,1482.59,1500.0,1500.0,nan,nan,nan,nan,nan,nan,nan,nan,nan,nan
47440000,6,1486.14,1473.05,1476.91,1477.27,1500.0,1500.0,nan,nan,nan,nan,nan,nan,nan,nan,nan,nan
47540000,6,1480.54,1475.04,1482.4,1481.45,1500.0,1500.0,nan,nan,nan,nan,nan,nan,nan,nan,nan,nan
47636000,6,1476.6,1485.01,1478.0,1484.94,1500.0,1500.0,nan,nan,nan,nan,nan,nan,nan,nan,nan,nan
47736000,6,1479.25,1485.97,1481.08,1483.99,1500.0,1500.0,nan,nan,nan,nan,nan,nan,nan,nan,nan,nan
47832000,6,1477.64,1489.49,1481.24,1483.14,1500.0,1500.0,nan,nan,nan,nan,nan,nan,nan,nan,nan,nan
47928000,6,1481.58,1482.02,1481.27,1482.06,1500.0,1500.0,nan,nan,nan,nan,nan,nan,nan,nan,nan,nan
48028000,6,1486.34,1483.17,1480.33,1484.21,1500.0,1500.0,nan,nan,nan,nan,nan,nan,nan,nan,nan,nan
48124000,6,1483.26,1485.38,1484.52,1482.98,1500.0,1500.0,nan,nan,nan,nan,nan,nan,nan,nan,nan,nan
48220000,6,1481.48,1489.46,1483.84,1485.13,1500.0,1500.0,nan,nan,nan,nan,nan,nan,nan,nan,nan,nan
48320000,6,1483.15,1484.48,1479.26,1488.13,1500.0,1500.0,nan,nan,nan,nan,nan,nan,nan,nan,nan,nan
48420000,6,1488.25,1483.35,1485.73,1480.33,1500.0,1500.0,nan,nan,nan,nan,nan,nan,nan,nan,nan,nan
48516000,6,1491.92,1479.68,1485.87,1484.88,1500.0,1500.0,nan,nan,nan,nan,nan,nan,nan,nan,nan,nan
48612000,6,1483.73,1484.1,1486.19,1483.01,1500.0,1500.0,nan,nan,nan,nan,nan,nan,nan,nan,nan,nan
48708000,6,1485.02,1485.42,1483.8,1484.43,1500.0,1500.0,nan,nan,nan,nan,nan,nan,nan,nan,nan,nan
48808000,6,1479.06,1492.81,1477.53,1487.37,1500.0,1500.0,nan,nan,nan,nan,nan,nan,nan,nan,nan,nan
48904000,6,1484.69,1483.6,1485.29,1485.9,1500.0,1500.0,nan,nan,nan,nan,nan,nan,nan,nan,nan,nan
49000000,6,1481.56,1486.31,1485.03,1481.45,1500.0,1500.0,nan,nan,nan,nan,nan,nan,nan,nan,nan,nan
49096000,6,1485.46,1482.33,1487.3,1484.49,1500.0,1500.0,nan,nan,nan,nan,nan,nan,nan,nan,nan,nan
49192000,6,1487.46,1487.31,1489.43,1480.76,1500.0,1500.0,nan,nan,nan,nan,nan,nan,nan,nan,nan,nan
49288000,6,1485.52,1486.33,1484.26,1484.53,1500.0,1500.0,nan,nan,nan,nan,nan,nan,nan,nan,nan,nan
49384000,6,1488.65,1486.81,1485.76,1484.87,1500.0,1500.0,nan,nan,nan,nan,nan,nan,nan,nan,nan,nan
49480000,6,1482.25,1485.35,1480.25,1492.59,1500.0,1500.0,nan,nan,nan,nan,nan,nan,nan,nan,nan,nan
49580000,6,1484.99,1488.89,1483.71,1491.99,1500.0,1500.0,nan,nan,nan,nan,nan,nan,nan,nan,nan,nan
49676000,6,1490.8,1485.91,1493.06,1481.12,1500.0,1500.0,nan,nan,nan,nan,nan,nan,nan,nan,nan,nan
49772000,6,1496.22,1477.64,1489.92,1483.21,1500.0,1500.0,nan,nan,nan,nan,nan,nan,nan,nan,nan,nan
49868000,6,1482.09,1491.31,1480.82,1492.48,1500.0,1500.0,nan,nan,nan,nan,nan,nan,nan,nan,nan,nan
49964000,6,1489.15,1481.65,1492.0,1480.14,1500.0,1500.0,nan,nan,nan,nan,nan,nan,nan,nan,nan,nan
50064000,6,1487.64,1482.89,1487.44,1483.54,1500.0,1500.0,nan,nan,nan,nan,nan,nan,nan,nan,nan,nan
50160000,6,1493.98,1476.64,1497.73,1480.2,1500.0,1500.0,nan,nan,nan,nan,nan,nan,nan,nan,nan,nan
50260000,6,1492.11,1483.79,1493.32,1481.56,1500.0,1500.0,nan,nan,nan,nan,nan,nan,nan,nan,nan,nan
50356000,6,1487.84,1490.4,1483.78,1487.87,1500.0,1500.0,nan,nan,nan,nan,nan,nan,nan,nan,nan,nan
50452000,6,1478.63,1492.67,1484.21,1491.55,1500.0,1500.0,nan,nan,nan,nan,nan,nan,nan,nan,nan,nan
50552000,6,1482.48,1492.6,1481.1,1492.37,1500.0,1500.0,nan,nan,nan,nan,nan,nan,nan,nan,nan,nan
50652000,6,1492.18,1485.22,1491.75,1484.93,1500.0,1500.0,nan,nan,nan,nan,nan,nan,nan,nan,nan,nan
50752000,6,1488.59,1486.37,1488.53,1487.12,1500.0,1500.0,nan,nan,nan,nan,nan,nan,nan,nan,nan,nan
50848000,6,1486.08,1485.92,1484.56,1489.37,1500.0,1500.0,nan,nan,nan,nan,nan,nan,nan,nan,nan,nan
50944000,6,1486.62,1488.73,1484.46,1494.26,1500.0,1500.0,nan,nan,nan,nan,nan,nan,nan,nan,nan,nan
51040000,6,1480.86,1495.91,1484.67,1490.51,1500.0,1500.0,nan,nan,nan,nan,nan,nan,nan,nan,nan,nan
51136000,6,1482.97,1488.17,1485.26,1487.26,1500.0,1500.0,nan,nan,nan,nan,nan,nan,nan,nan,nan,nan
51232000,6,1487.05,1485.16,1487.46,1490.28,1500.0,1500.0,nan,nan,nan,nan,nan,nan,nan,nan,nan,nan
51328000,6,1490.44,1485.45,1488.1,1490.57,1500.0,1500.0,nan,nan,nan,nan,nan,nan,nan,nan,nan,nan
51428000,6,1487.99,1488.67,1488.01,1486.9,1500.0,1500.0,nan,nan,nan,nan,nan,nan,nan,nan,nan,nan
51524000,6,1482.98,1491.43,1486.09,1487.67,1500.0,1500.0,nan,nan,nan,nan,nan,nan,nan,nan,nan,nan
51620000,6,1490.29,1485.52,1487.45,1485.98,1500.0,1500.0,nan,nan,nan,nan,nan,nan,nan,nan,nan,nan
51716000,6,1490.36,1483.5,1491.82,1483.4,1500.0,1500.0,nan,nan,nan,nan,nan,nan,nan,nan,nan,nan
51812000,6,1496.16,1478.87,1495.67,1478.95,1500.0,1500.0,nan,nan,nan,nan,nan,nan,nan,nan,nan,nan
51908000,6,1482.89,1490.67,1484.25,1491.7,1500.0,1500.0,nan,nan,nan,nan,nan,nan,nan,nan,nan,nan
52008000,6,1490.14,1483.68,1492.15,1485.29,1500.0,1500.0,nan,nan,nan,nan,nan,nan,nan,nan,nan,nan
52104000,6,1487.07,1487.43,1488.04,1489.17,1500.0,1500.0,nan,nan,nan,nan,nan,nan,nan,nan,nan,nan
52204000,6,1482.66,1496.65,1482.83,1492.84,1500.0,1500.0,nan,nan,nan,nan,nan,nan,nan,nan,nan,nan
52304000,6,1485.0,1487.57,1488.19,1490.71,1500.0,1500.0,nan,nan,nan,nan,nan,nan,nan,nan,nan,nan
52400000,6,1492.93,1482.17,1494.12,1484.88,1500.0,1500.0,nan,nan,nan,nan,nan,nan,nan,nan,nan,nan
52496000,6,1489.48,1484.94,1486.05,1492.36,1500.0,1500.0,nan,nan,nan,nan,nan,nan,nan,nan,nan,nan
52592000,6,1486.59,1492.75,1489.76,1489.14,1500.0,1500.0,nan,nan,nan,nan,nan,nan,nan,nan,nan,nan
52692000,6,1489.74,1486.07,1493.58,1486.32,1500.0,1500.0,nan,nan,nan,nan,nan,nan,nan,nan,nan,nan
52788000,6,1489.12,1486.49,1489.77,1486.98,1500.0,1500.0,nan,nan,nan,nan,nan,nan,nan,nan,nan,nan
52884000,6,1485.44,1491.96,1486.36,1486.67,1500.0,1500.0,nan,nan,nan,nan,nan,nan,nan,nan,nan,nan
52980000,6,1489.63,1488.05,1491.65,1486.33,1500.0,1500.0,nan,nan,nan,nan,nan,nan,nan,nan,nan,nan
53076000,6,1112.59,1122.67,1117.41,1127.47,1500.0,1500.0,nan,nan,nan,nan,nan,nan,nan,nan,nan,nan
53176000,6,1388.9,1395.13,1397.45,1394.22,1500.0,1500.0,nan,nan,nan,nan,nan,nan,nan,nan,nan,nan
53276000,6,1488.69,1491.5,1493.02,1486.35,1500.0,1500.0,nan,nan,nan,nan,nan,nan,nan,nan,nan,nan
53372000,6,1486.68,1486.76,1488.52,1486.83,1500.0,1500.0,nan,nan,nan,nan,nan,nan,nan,nan,nan,nan
53468000,6,1489.72,1486.32,1483.15,1484.95,1500.0,1500.0,nan,nan,nan,nan,nan,nan,nan,nan,nan,nan
53564000,6,1485.0,1491.57,1484.46,1485.65,1500.0,1500.0,nan,nan,nan,nan,nan,nan,nan,nan,nan,nan
53660000,6,1486.8,1487.0,1488.33,1486.8,1500.0,1500.0,nan,nan,nan,nan,nan,nan,nan,nan,nan,nan
53756000,6,1491.33,1485.28,1487.36,1485.72,1500.0,1500.0,nan,nan,nan,nan,nan,nan,nan,nan,nan,nan
53856000,6,1491.42,1489.14,1487.58,1490.37,1500.0,1500.0,nan,nan,nan,nan,nan,nan,nan,nan,nan,nan
53952000,6,1495.49,1484.79,1498.38,1481.68,1500.0,1500.0,nan,nan,nan,nan,nan,nan,nan,nan,nan,nan
54052000,6,1493.14,1487.61,1492.4,1484.73,1500.0,1500.0,nan,nan,nan,nan,nan,nan,nan,nan,nan,nan
54148000,6,1494.4,1485.97,1487.39,1488.21,1500.0,1500.0,nan,nan,nan,nan,nan,nan,nan,nan,nan,nan
54248000,6,1486.08,1493.75,1485.82,1491.79,1500.0,1500.0,nan,nan,nan,nan,nan,nan,nan,nan,nan,nan
54344000,6,1491.31,1489.83,1484.49,1493.92,1500.0,1500.0,nan,nan,nan,nan,nan,nan,nan,nan,nan,nan
54440000,6,1479.76,1497.91,1480.49,1499.03,1500.0,1500.0,nan,nan,nan,nan,nan,nan,nan,nan,nan,nan
54536000,6,1490.74,1490.35,1485.57,1490.44,1500.0,1500.0,nan,nan,nan,nan,nan,nan,nan,nan,nan,nan
54632000,6,1486.21,1492.26,1490.7,1494.15,1500.0,1500.0,nan,nan,nan,nan,nan,nan,nan,nan,nan,nan
54728000,6,1486.65,1492.29,1487.39,1492.4,1500.0,1500.0,nan,nan,nan,nan,nan,nan,nan,nan,nan,nan
54824000,6,1485.97,1493.06,1489.27,1489.1,1500.0,1500.0,nan,nan,nan,nan,nan,nan,nan,nan,nan,nan
54924000,6,1481.93,1498.27,1488.63,1493.15,1500.0,1500.0,nan,nan,nan,nan,nan,nan,nan,nan,nan,nan
55024000,6,1485.47,1496.85,1484.31,1497.92,1500.0,1500.0,nan,nan,nan,nan,nan,nan,nan,nan,nan,nan
55120000,6,1492.07,1488.92,1489.63,1491.68,1500.0,1500.0,nan,nan,nan,nan,nan,nan,nan,nan,nan,nan
55220000,6,1492.65,1484.82,1493.95,1491.37,1500.0,1500.0,nan,nan,nan,nan,nan,nan,nan,nan,nan,nan
55316000,6,1492.39,1489.55,1497.28,1485.61,1500.0,1500.0,nan,nan,nan,nan,nan,nan,nan,nan,nan,nan
55412000,6,1490.17,1492.11,1492.59,1488.65,1500.0,1500.0,nan,nan,nan,nan,nan,nan,nan,nan,nan,nan
55508000,6,1490.59,1490.8,1491.42,1490.28,1500.0,1500.0,nan,nan,nan,nan,nan,nan,nan,nan,nan,nan
55608000,6,1486.63,1491.92,1492.58,1490.15,1500.0,1500.0,nan,nan,nan,nan,nan,nan,nan,nan,nan,nan
55704000,6,1493.85,1484.96,1490.63,1490.07,1500.0,1500.0,nan,nan,nan,nan,nan,nan,nan,nan,nan,nan
55800000,6,1488.02,1490.31,1488.85,1493.28,1500.0,1500.0,nan,nan,nan,nan,nan,nan,nan,nan,nan,nan
55896000,6,1495.77,1484.89,1489.99,1489.02,1500.0,1500.0,nan,nan,nan,nan,nan,nan,nan,nan,nan,nan
55992000,6,1489.32,1491.02,1491.06,1489.11,1500.0,1500.0,nan,nan,nan,nan,nan,nan,nan,nan,nan,nan
56088000,6,1486.39,1493.28,1489.23,1490.89,1500.0,1500.0,nan,nan,nan,nan,nan,nan,nan,nan,nan,nan
56184000,6,1489.62,1495.23,1487.83,1491.98,1500.0,1500.0,nan,nan,nan,nan,nan,nan,nan,nan,nan,nan
56280000,6,1490.28,1489.02,1486.29,1494.54,1500.0,1500.0,nan,nan,nan,nan,nan,nan,nan,nan,nan,nan
56376000,6,1491.82,1489.01,1491.01,1487.06,1500.0,1500.0,nan,nan,nan,nan,nan,nan,nan,nan,nan,nan
56472000,6,1487.5,1492.59,1485.21,1493.31,1500.0,1500.0,nan,nan,nan,nan,nan,nan,nan,nan,nan,nan
56572000,6,1485.2,1490.98,1489.93,1492.42,1500.0,1500.0,nan,nan,nan,nan,nan,nan,nan,nan,nan,nan
56672000,6,1496.71,1479.44,1497.51,1482.93,1500.0,1500.0,nan,nan,nan,nan,nan,nan,nan,nan,nan,nan
56768000,6,1487.54,1494.37,1488.46,1489.51,1500.0,1500.0,nan,nan,nan,nan,nan,nan,nan,nan,nan,nan
56864000,6,1490.32,1491.15,1482.43,1495.48,1500.0,1500.0,nan,nan,nan,nan,nan,nan,nan,nan,nan,nan
56960000,6,1493.16,1489.34,1492.3,1487.08,1500.0,1500.0,nan,nan,nan,nan,nan,nan,nan,nan,nan,nan
57056000,6,1497.0,1483.67,1492.12,1487.31,1500.0,1500.0,nan,nan,nan,nan,nan,nan,nan,nan,nan,nan
57156000,6,1486.46,1493.46,1483.88,1494.64,1500.0,1500.0,nan,nan,nan,nan,nan,nan,nan,nan,nan,nan
57252000,6,1488.91,1486.86,1495.27,1487.93,1500.0,1500.0,nan,nan,nan,nan,nan,nan,nan,nan,nan,nan
57352000,6,1487.16,1489.56,1492.42,1489.96,1500.0,1500.0,nan,nan,nan,nan,nan,nan,nan,nan,nan,nan
57448000,6,1486.0,1489.33,1489.67,1493.23,1500.0,1500.0,nan,nan,nan,nan,nan,nan,nan,nan,nan,nan
57544000,6,1486.11,1491.68,1489.55,1491.23,1500.0,1500.0,nan,nan,nan,nan,nan,nan,nan,nan,nan,nan
57640000,6,1491.36,1482.21,1496.65,1485.89,1500.0,1500.0,nan,nan,nan,nan,nan,nan,nan,nan,nan,nan
57740000,6,1486.13,1495.74,1488.43,1490.16,1500.0,1500.0,nan,nan,nan,nan,nan,nan,nan,nan,nan,nan
57836000,6,1490.08,1488.22,1492.56,1487.36,1500.0,1500.0,nan,nan,nan,nan,nan,nan,nan,nan,nan,nan
57936000,6,1497.45,1483.9,1492.01,1483.3,1500.0,1500.0,nan,nan,nan,nan,nan,nan,nan,nan,nan,nan
58032000,6,1491.02,1488.6,1492.31,1489.44,1500.0,1500.0,nan,nan,nan,nan,nan,nan,nan,nan,nan,nan
58132000,6,1486.28,1495.18,1489.48,1490.54,1500.0,1500.0,nan,nan,nan,nan,nan,nan,nan,nan,nan,nan
58228000,6,1491.42,1489.19,1499.84,1482.69,1500.0,1500.0,nan,nan,nan,nan,nan,nan,nan,nan,nan,nan
58324000,6,1495.3,1485.82,1493.59,1484.56,1500.0,1500.0,nan,nan,nan,nan,nan,nan,nan,nan,nan,nan
58420000,6,1492.95,1486.68,1491.69,1489.28,1500.0,1500.0,nan,nan,nan,nan,nan,nan,nan,nan,nan,nan
58516000,6,1487.17,1492.36,1488.27,1488.74,1500.0,1500.0,nan,nan,nan,nan,nan,nan,nan,nan,nan,nan
58612000,6,1489.52,1489.66,1490.8,1489.85,1500.0,1500.0,nan,nan,nan,nan,nan,nan,nan,nan,nan,nan
58708000,6,1492.46,1489.28,1496.13,1481.56,1500.0,1500.0,nan,nan,nan,nan,nan,nan,nan,nan,nan,nan
58804000,6,1489.48,1487.11,1486.5,1495.68,1500.0,1500.0,nan,nan,nan,nan,nan,nan,nan,nan,nan,nan
58904000,6,1490.21,1486.93,1493.54,1487.82,1500.0,1500.0,nan,nan,nan,nan,nan,nan,nan,nan,nan,nan
59000000,6,1492.31,1490.14,1492.72,1486.89,1500.0,1500.0,nan,nan,nan,nan,nan,nan,nan,nan,nan,nan
59096000,6,1489.34,1490.48,1489.66,1491.7,1500.0,1500.0,nan,nan,nan,nan,nan,nan,nan,nan,nan,nan
59196000,6,1483.82,1494.59,1491.1,1490.93,1500.0,1500.0,nan,nan,nan,nan,nan,nan,nan,nan,nan,nan
59292000,6,1489.06,1492.03,1485.77,1490.55,1500.0,1500.0,nan,nan,nan,nan,nan,nan,nan,nan,nan,nan
59388000,6,1494.95,1487.55,1489.71,1485.89,1500.0,1500.0,nan,nan,nan,nan,nan,nan,nan,nan,nan,nan
59484000,6,1490.95,1487.71,1490.67,1486.76,1500.0,1500.0,nan,nan,nan,nan,nan,nan,nan,nan,nan,nan
59580000,6,1487.69,1493.7,1489.19,1491.12,1500.0,1500.0,nan,nan,nan,nan,nan,nan,nan,nan,nan,nan
59676000,6,1491.92,1488.7,1488.39,1492.73,1500.0,1500.0,nan,nan,nan,nan,nan,nan,nan,nan,nan,nan
59776000,6,1487.08,1491.96,1487.19,1494.62,1500.0,1500.0,nan,nan,nan,nan,nan,nan,nan,nan,nan,nan
59872000,6,1491.06,1487.99,1493.55,1486.57,1500.0,1500.0,nan,nan,nan,nan,nan,nan,nan,nan,nan,nan
59968000,6,1488.42,1490.81,1493.42,1486.02,1500.0,1500.0,nan,nan,nan,nan,nan,nan,nan,nan,nan,nan
60064000,6,1491.28,1490.91,1491.62,1482.53,1500.0,1500.0,nan,nan,nan,nan,nan,nan,nan,nan,nan,nan
60160000,6,1488.35,1491.73,1491.54,1489.23,1500.0,1500.0,nan,nan,nan,nan,nan,nan,nan,nan,nan,nan
60256000,6,1491.73,1488.45,1487.47,1491.6,1500.0,1500.0,nan,nan,nan,nan,nan,nan,nan,nan,nan,nan
60356000,6,1491.58,1484.64,1490.47,1488.59,1500.0,1500.0,nan,nan,nan,nan,nan,nan,nan,nan,nan,nan
60452000,6,1487.16,1491.7,1488.1,1489.76,1500.0,1500.0,nan,nan,nan,nan,nan,nan,nan,nan,nan,nan
60552000,6,1487.79,1492.14,1487.22,1489.0,1500.0,1500.0,nan,nan,nan,nan,nan,nan,nan,nan,nan,nan
60648000,6,1490.49,1493.97,1487.71,1487.46,1500.0,1500.0,nan,nan,nan,nan,nan,nan,nan,nan,nan,nan
60744000,6,1488.12,1489.61,1493.29,1488.51,1500.0,1500.0,nan,nan,nan,nan,nan,nan,nan,nan,nan,nan
60840000,6,1487.7,1491.14,1486.42,1489.59,1500.0,1500.0,nan,nan,nan,nan,nan,nan,nan,nan,nan,nan
60936000,6,1488.96,1487.91,1484.13,1496.33,1500.0,1500.0,nan,nan,nan,nan,nan,nan,nan,nan,nan,nan
61032000,6,1494.25,1488.39,1489.93,1484.96,1500.0,1500.0,nan,nan,nan,nan,nan,nan,nan,nan,nan,nan
61132000,6,1491.09,1491.47,1484.94,1491.52,1500.0,1500.0,nan,nan,nan,nan,nan,nan,nan,nan,nan,nan
61228000,6,1491.62,1488.13,1487.0,1491.32,1500.0,1500.0,nan,nan,nan,nan,nan,nan,nan,nan,nan,nan
61324000,6,1492.38,1486.53,1493.03,1486.1,1500.0,1500.0,nan,nan,nan,nan,nan,nan,nan,nan,nan,nan
61424000,6,1489.64,1490.28,1485.45,1492.3,1500.0,1500.0,nan,nan,nan,nan,nan,nan,nan,nan,nan,nan
61520000,6,1492.54,1486.52,1489.08,1488.73,1500.0,1500.0,nan,nan,nan,nan,nan,nan,nan,nan,nan,nan
61620000,6,1488.45,1491.21,1489.95,1484.57,1500.0,1500.0,nan,nan,nan,nan,nan,nan,nan,nan,nan,nan
61716000,6,1489.94,1486.28,1484.07,1495.95,1500.0,1500.0,nan,nan,nan,nan,nan,nan,nan,nan,nan,nan
61816000,6,1486.7,1489.73,1492.76,1488.91,1500.0,1500.0,nan,nan,nan,nan,nan,nan,nan,nan,nan,nan
61912000,6,1491.64,1486.69,1491.72,1487.92,1500.0,1500.0,nan,nan,nan,nan,nan,nan,nan,nan,nan,nan
