timestamp,time_utc_usec,lat,lon,alt,alt_ellipsoid,s_variance_m_s,c_variance_rad,eph,epv,hdop,vdop,noise_per_ms,jamming_indicator,vel_m_s,vel_n_m_s,vel_e_m_s,vel_d_m_s,cog_rad,timestamp_time_relative,heading,heading_offset,fix_type,vel_ned_valid,satellites_used
0,0,0,0,0,0,0.25,0.0,655.35,655.35,0.0,0.0,0,0,0.0,0.0,0.0,0.0,0.0,0,nan,nan,0,0,0
4000,0,0,0,0,0,0.25,0.0,655.35,655.35,0.0,0.0,0,0,0.0,0.0,0.0,0.0,0.0,0,nan,nan,0,0,0
8000,0,0,0,0,0,0.25,0.0,655.35,655.35,0.0,0.0,0,0,0.0,0.0,0.0,0.0,0.0,0,nan,nan,0,0,0
12000,0,0,0,0,0,0.25,0.0,655.35,655.35,0.0,0.0,0,0,0.0,0.0,0.0,0.0,0.0,0,nan,nan,0,0,0
16000,0,0,0,0,0,0.25,0.0,655.35,655.35,0.0,0.0,0,0,0.0,0.0,0.0,0.0,0.0,0,nan,nan,0,0,0
20000,0,0,0,0,0,0.25,0.0,655.35,655.35,0.0,0.0,0,0,0.0,0.0,0.0,0.0,0.0,0,nan,nan,0,0,0
24000,0,0,0,0,0,0.25,0.0,655.35,655.35,0.0,0.0,0,0,0.0,0.0,0.0,0.0,0.0,0,nan,nan,0,0,0
28000,0,0,0,0,0,0.25,0.0,655.35,655.35,0.0,0.0,0,0,0.0,0.0,0.0,0.0,0.0,0,nan,nan,0,0,0
28000,0,0,0,0,0,0.25,0.0,655.35,655.35,0.0,0.0,0,0,0.0,0.0,0.0,0.0,0.0,0,nan,nan,0,0,0
32000,0,0,0,0,0,0.25,0.0,655.35,655.35,0.0,0.0,0,0,0.0,0.0,0.0,0.0,0.0,0,nan,nan,0,0,0
36000,0,0,0,0,0,0.25,0.0,655.35,655.35,0.0,0.0,0,0,0.0,0.0,0.0,0.0,0.0,0,nan,nan,0,0,0
40000,0,0,0,0,0,0.25,0.0,655.35,655.35,0.0,0.0,0,0,0.0,0.0,0.0,0.0,0.0,0,nan,nan,0,0,0
44000,0,0,0,0,0,0.25,0.0,655.35,655.35,0.0,0.0,0,0,0.0,0.0,0.0,0.0,0.0,0,nan,nan,0,0,0
48000,0,0,0,0,0,0.25,0.0,655.35,655.35,0.0,0.0,0,0,0.0,0.0,0.0,0.0,0.0,0,nan,nan,0,0,0
52000,0,0,0,0,0,0.25,0.0,655.35,655.35,0.0,0.0,0,0,0.0,0.0,0.0,0.0,0.0,0,nan,nan,0,0,0
56000,0,0,0,0,0,0.25,0.0,655.35,655.35,0.0,0.0,0,0,0.0,0.0,0.0,0.0,0.0,0,nan,nan,0,0,0
56000,0,0,0,0,0,0.25,0.0,655.35,655.35,0.0,0.0,0,0,0.0,0.0,0.0,0.0,0.0,0,nan,nan,0,0,0
60000,0,0,0,0,0,0.25,0.0,655.35,655.35,0.0,0.0,0,0,0.0,0.0,0.0,0.0,0.0,0,nan,nan,0,0,0
64000,0,0,0,0,0,0.25,0.0,655.35,655.35,0.0,0.0,0,0,0.0,0.0,0.0,0.0,0.0,0,nan,nan,0,0,0
68000,0,0,0,0,0,0.25,0.0,655.35,655.35,0.0,0.0,0,0,0.0,0.0,0.0,0.0,0.0,0,nan,nan,0,0,0
72000,0,0,0,0,0,0.25,0.0,655.35,655.35,0.0,0.0,0,0,0.0,0.0,0.0,0.0,0.0,0,nan,nan,0,0,0
76000,0,0,0,0,0,0.25,0.0,655.35,655.35,0.0,0.0,0,0,0.0,0.0,0.0,0.0,0.0,0,nan,nan,0,0,0
80000,0,0,0,0,0,0.25,0.0,655.35,655.35,0.0,0.0,0,0,0.0,0.0,0.0,0.0,0.0,0,nan,nan,0,0,0
84000,0,0,0,0,0,0.25,0.0,655.35,655.35,0.0,0.0,0,0,0.0,0.0,0.0,0.0,0.0,0,nan,nan,0,0,0
84000,0,0,0,0,0,0.25,0.0,655.35,655.35,0.0,0.0,0,0,0.0,0.0,0.0,0.0,0.0,0,nan,nan,0,0,0
88000,0,0,0,0,0,0.25,0.0,655.35,655.35,0.0,0.0,0,0,0.0,0.0,0.0,0.0,0.0,0,nan,nan,0,0,0
92000,0,0,0,0,0,0.25,0.0,655.35,655.35,0.0,0.0,0,0,0.0,0.0,0.0,0.0,0.0,0,nan,nan,0,0,0
96000,0,0,0,0,0,0.25,0.0,655.35,655.35,0.0,0.0,0,0,0.0,0.0,0.0,0.0,0.0,0,nan,nan,0,0,0
100000,0,0,0,0,0,0.25,0.0,655.35,655.35,0.0,0.0,0,0,0.0,0.0,0.0,0.0,0.0,0,nan,nan,0,0,0
104000,0,0,0,0,0,0.25,0.0,655.35,655.35,0.0,0.0,0,0,0.0,0.0,0.0,0.0,0.0,0,nan,nan,0,0,0
108000,0,0,0,0,0,0.25,0.0,655.35,655.35,0.0,0.0,0,0,0.0,0.0,0.0,0.0,0.0,0,nan,nan,0,0,0
112000,0,0,0,0,0,0.25,0.0,655.35,655.35,0.0,0.0,0,0,0.0,0.0,0.0,0.0,0.0,0,nan,nan,0,0,0
112000,0,0,0,0,0,0.25,0.0,655.35,655.35,0.0,0.0,0,0,0.0,0.0,0.0,0.0,0.0,0,nan,nan,0,0,0
116000,0,0,0,0,0,0.25,0.0,655.35,655.35,0.0,0.0,0,0,0.0,0.0,0.0,0.0,0.0,0,nan,nan,0,0,0
120000,0,0,0,0,0,0.25,0.0,655.35,655.35,0.0,0.0,0,0,0.0,0.0,0.0,0.0,0.0,0,nan,nan,0,0,0
124000,0,0,0,0,0,0.25,0.0,655.35,655.35,0.0,0.0,0,0,0.0,0.0,0.0,0.0,0.0,0,nan,nan,0,0,0
128000,0,0,0,0,0,0.25,0.0,655.35,655.35,0.0,0.0,0,0,0.0,0.0,0.0,0.0,0.0,0,nan,nan,0,0,0
132000,0,0,0,0,0,0.25,0.0,655.35,655.35,0.0,0.0,0,0,0.0,0.0,0.0,0.0,0.0,0,nan,nan,0,0,0
136000,0,0,0,0,0,0.25,0.0,655.35,655.35,0.0,0.0,0,0,0.0,0.0,0.0,0.0,0.0,0,nan,nan,0,0,0
140000,0,0,0,0,0,0.25,0.0,655.35,655.35,0.0,0.0,0,0,0.0,0.0,0.0,0.0,0.0,0,nan,nan,0,0,0
140000,0,0,0,0,0,0.25,0.0,655.35,655.35,0.0,0.0,0,0,0.0,0.0,0.0,0.0,0.0,0,nan,nan,0,0,0
144000,0,0,0,0,0,0.25,0.0,655.35,655.35,0.0,0.0,0,0,0.0,0.0,0.0,0.0,0.0,0,nan,nan,0,0,0
148000,0,0,0,0,0,0.25,0.0,655.35,655.35,0.0,0.0,0,0,0.0,0.0,0.0,0.0,0.0,0,nan,nan,0,0,0
152000,0,0,0,0,0,0.25,0.0,655.35,655.35,0.0,0.0,0,0,0.0,0.0,0.0,0.0,0.0,0,nan,nan,0,0,0
156000,0,0,0,0,0,0.25,0.0,655.35,655.35,0.0,0.0,0,0,0.0,0.0,0.0,0.0,0.0,0,nan,nan,0,0,0
160000,0,0,0,0,0,0.25,0.0,655.35,655.35,0.0,0.0,0,0,0.0,0.0,0.0,0.0,0.0,0,nan,nan,0,0,0
164000,0,0,0,0,0,0.25,0.0,655.35,655.35,0.0,0.0,0,0,0.0,0.0,0.0,0.0,0.0,0,nan,nan,0,0,0
168000,0,0,0,0,0,0.25,0.0,655.35,655.35,0.0,0.0,0,0,0.0,0.0,0.0,0.0,0.0,0,nan,nan,0,0,0
168000,0,0,0,0,0,0.25,0.0,655.35,655.35,0.0,0.0,0,0,0.0,0.0,0.0,0.0,0.0,0,nan,nan,0,0,0
172000,0,0,0,0,0,0.25,0.0,655.35,655.35,0.0,0.0,0,0,0.0,0.0,0.0,0.0,0.0,0,nan,nan,0,0,0
176000,0,0,0,0,0,0.25,0.0,655.35,655.35,0.0,0.0,0,0,0.0,0.0,0.0,0.0,0.0,0,nan,nan,0,0,0
180000,0,0,0,0,0,0.25,0.0,655.35,655.35,0.0,0.0,0,0,0.0,0.0,0.0,0.0,0.0,0,nan,nan,0,0,0
184000,0,0,0,0,0,0.25,0.0,655.35,655.35,0.0,0.0,0,0,0.0,0.0,0.0,0.0,0.0,0,nan,nan,0,0,0
188000,0,0,0,0,0,0.25,0.0,655.35,655.35,0.0,0.0,0,0,0.0,0.0,0.0,0.0,0.0,0,nan,nan,0,0,0
192000,0,0,0,0,0,0.25,0.0,655.35,655.35,0.0,0.0,0,0,0.0,0.0,0.0,0.0,0.0,0,nan,nan,0,0,0
196000,0,0,0,0,0,0.25,0.0,655.35,655.35,0.0,0.0,0,0,0.0,0.0,0.0,0.0,0.0,0,nan,nan,0,0,0
196000,0,0,0,0,0,0.25,0.0,655.35,655.35,0.0,0.0,0,0,0.0,0.0,0.0,0.0,0.0,0,nan,nan,0,0,0
200000,0,0,0,0,0,0.25,0.0,655.35,655.35,0.0,0.0,0,0,0.0,0.0,0.0,0.0,0.0,0,nan,nan,0,0,0
204000,0,0,0,0,0,0.25,0.0,655.35,655.35,0.0,0.0,0,0,0.0,0.0,0.0,0.0,0.0,0,nan,nan,0,0,0
208000,0,0,0,0,0,0.25,0.0,655.35,655.35,0.0,0.0,0,0,0.0,0.0,0.0,0.0,0.0,0,nan,nan,0,0,0
212000,0,0,0,0,0,0.25,0.0,655.35,655.35,0.0,0.0,0,0,0.0,0.0,0.0,0.0,0.0,0,nan,nan,0,0,0
216000,0,0,0,0,0,0.25,0.0,655.35,655.35,0.0,0.0,0,0,0.0,0.0,0.0,0.0,0.0,0,nan,nan,0,0,0
220000,0,0,0,0,0,0.25,0.0,655.35,655.35,0.0,0.0,0,0,0.0,0.0,0.0,0.0,0.0,0,nan,nan,0,0,0
224000,0,0,0,0,0,0.25,0.0,655.35,655.35,0.0,0.0,0,0,0.0,0.0,0.0,0.0,0.0,0,nan,nan,0,0,0
224000,0,0,0,0,0,0.25,0.0,655.35,655.35,0.0,0.0,0,0,0.0,0.0,0.0,0.0,0.0,0,nan,nan,0,0,0
228000,0,0,0,0,0,0.25,0.0,655.35,655.35,0.0,0.0,0,0,0.0,0.0,0.0,0.0,0.0,0,nan,nan,0,0,0
232000,0,0,0,0,0,0.25,0.0,655.35,655.35,0.0,0.0,0,0,0.0,0.0,0.0,0.0,0.0,0,nan,nan,0,0,0
236000,0,0,0,0,0,0.25,0.0,655.35,655.35,0.0,0.0,0,0,0.0,0.0,0.0,0.0,0.0,0,nan,nan,0,0,0
240000,0,0,0,0,0,0.25,0.0,655.35,655.35,0.0,0.0,0,0,0.0,0.0,0.0,0.0,0.0,0,nan,nan,0,0,0
244000,0,0,0,0,0,0.25,0.0,655.35,655.35,0.0,0.0,0,0,0.0,0.0,0.0,0.0,0.0,0,nan,nan,0,0,0
248000,0,0,0,0,0,0.25,0.0,655.35,655.35,0.0,0.0,0,0,0.0,0.0,0.0,0.0,0.0,0,nan,nan,0,0,0
252000,0,0,0,0,0,0.25,0.0,655.35,655.35,0.0,0.0,0,0,0.0,0.0,0.0,0.0,0.0,0,nan,nan,0,0,0
252000,0,0,0,0,0,0.25,0.0,655.35,655.35,0.0,0.0,0,0,0.0,0.0,0.0,0.0,0.0,0,nan,nan,0,0,0
256000,0,0,0,0,0,0.25,0.0,655.35,655.35,0.0,0.0,0,0,0.0,0.0,0.0,0.0,0.0,0,nan,nan,0,0,0
260000,0,0,0,0,0,0.25,0.0,655.35,655.35,0.0,0.0,0,0,0.0,0.0,0.0,0.0,0.0,0,nan,nan,0,0,0
264000,0,0,0,0,0,0.25,0.0,655.35,655.35,0.0,0.0,0,0,0.0,0.0,0.0,0.0,0.0,0,nan,nan,0,0,0
268000,0,0,0,0,0,0.25,0.0,655.35,655.35,0.0,0.0,0,0,0.0,0.0,0.0,0.0,0.0,0,nan,nan,0,0,0
272000,0,0,0,0,0,0.25,0.0,655.35,655.35,0.0,0.0,0,0,0.0,0.0,0.0,0.0,0.0,0,nan,nan,0,0,0
276000,0,0,0,0,0,0.25,0.0,655.35,655.35,0.0,0.0,0,0,0.0,0.0,0.0,0.0,0.0,0,nan,nan,0,0,0
280000,0,0,0,0,0,0.25,0.0,655.35,655.35,0.0,0.0,0,0,0.0,0.0,0.0,0.0,0.0,0,nan,nan,0,0,0
280000,0,0,0,0,0,0.25,0.0,655.35,655.35,0.0,0.0,0,0,0.0,0.0,0.0,0.0,0.0,0,nan,nan,0,0,0
284000,0,0,0,0,0,0.25,0.0,655.35,655.35,0.0,0.0,0,0,0.0,0.0,0.0,0.0,0.0,0,nan,nan,0,0,0
288000,0,0,0,0,0,0.25,0.0,655.35,655.35,0.0,0.0,0,0,0.0,0.0,0.0,0.0,0.0,0,nan,nan,0,0,0
292000,0,0,0,0,0,0.25,0.0,655.35,655.35,0.0,0.0,0,0,0.0,0.0,0.0,0.0,0.0,0,nan,nan,0,0,0
296000,0,0,0,0,0,0.25,0.0,655.35,655.35,0.0,0.0,0,0,0.0,0.0,0.0,0.0,0.0,0,nan,nan,0,0,0
300000,0,0,0,0,0,0.25,0.0,655.35,655.35,0.0,0.0,0,0,0.0,0.0,0.0,0.0,0.0,0,nan,nan,0,0,0
304000,0,0,0,0,0,0.25,0.0,655.35,655.35,0.0,0.0,0,0,0.0,0.0,0.0,0.0,0.0,0,nan,nan,0,0,0
308000,0,0,0,0,0,0.25,0.0,655.35,655.35,0.0,0.0,0,0,0.0,0.0,0.0,0.0,0.0,0,nan,nan,0,0,0
308000,0,0,0,0,0,0.25,0.0,655.35,655.35,0.0,0.0,0,0,0.0,0.0,0.0,0.0,0.0,0,nan,nan,0,0,0
312000,0,0,0,0,0,0.25,0.0,655.35,655.35,0.0,0.0,0,0,0.0,0.0,0.0,0.0,0.0,0,nan,nan,0,0,0
316000,0,0,0,0,0,0.25,0.0,655.35,655.35,0.0,0.0,0,0,0.0,0.0,0.0,0.0,0.0,0,nan,nan,0,0,0
320000,0,0,0,0,0,0.25,0.0,655.35,655.35,0.0,0.0,0,0,0.0,0.0,0.0,0.0,0.0,0,nan,nan,0,0,0
324000,0,0,0,0,0,0.25,0.0,655.35,655.35,0.0,0.0,0,0,0.0,0.0,0.0,0.0,0.0,0,nan,nan,0,0,0
328000,0,0,0,0,0,0.25,0.0,655.35,655.35,0.0,0.0,0,0,0.0,0.0,0.0,0.0,0.0,0,nan,nan,0,0,0
332000,0,0,0,0,0,0.25,0.0,655.35,655.35,0.0,0.0,0,0,0.0,0.0,0.0,0.0,0.0,0,nan,nan,0,0,0
336000,0,0,0,0,0,0.25,0.0,655.35,655.35,0.0,0.0,0,0,0.0,0.0,0.0,0.0,0.0,0,nan,nan,0,0,0
336000,0,0,0,0,0,0.25,0.0,655.35,655.35,0.0,0.0,0,0,0.0,0.0,0.0,0.0,0.0,0,nan,nan,0,0,0
340000,0,0,0,0,0,0.25,0.0,655.35,655.35,0.0,0.0,0,0,0.0,0.0,0.0,0.0,0.0,0,nan,nan,0,0,0
344000,0,0,0,0,0,0.25,0.0,655.35,655.35,0.0,0.0,0,0,0.0,0.0,0.0,0.0,0.0,0,nan,nan,0,0,0
348000,0,0,0,0,0,0.25,0.0,655.35,655.35,0.0,0.0,0,0,0.0,0.0,0.0,0.0,0.0,0,nan,nan,0,0,0
352000,0,0,0,0,0,0.25,0.0,655.35,655.35,0.0,0.0,0,0,0.0,0.0,0.0,0.0,0.0,0,nan,nan,0,0,0
356000,0,0,0,0,0,0.25,0.0,655.35,655.35,0.0,0.0,0,0,0.0,0.0,0.0,0.0,0.0,0,nan,nan,0,0,0
360000,0,0,0,0,0,0.25,0.0,655.35,655.35,0.0,0.0,0,0,0.0,0.0,0.0,0.0,0.0,0,nan,nan,0,0,0
364000,0,0,0,0,0,0.25,0.0,655.35,655.35,0.0,0.0,0,0,0.0,0.0,0.0,0.0,0.0,0,nan,nan,0,0,0
364000,0,0,0,0,0,0.25,0.0,655.35,655.35,0.0,0.0,0,0,0.0,0.0,0.0,0.0,0.0,0,nan,nan,0,0,0
368000,0,0,0,0,0,0.25,0.0,655.35,655.35,0.0,0.0,0,0,0.0,0.0,0.0,0.0,0.0,0,nan,nan,0,0,0
372000,0,0,0,0,0,0.25,0.0,655.35,655.35,0.0,0.0,0,0,0.0,0.0,0.0,0.0,0.0,0,nan,nan,0,0,0
376000,0,0,0,0,0,0.25,0.0,655.35,655.35,0.0,0.0,0,0,0.0,0.0,0.0,0.0,0.0,0,nan,nan,0,0,0
380000,0,0,0,0,0,0.25,0.0,655.35,655.35,0.0,0.0,0,0,0.0,0.0,0.0,0.0,0.0,0,nan,nan,0,0,0
384000,0,0,0,0,0,0.25,0.0,655.35,655.35,0.0,0.0,0,0,0.0,0.0,0.0,0.0,0.0,0,nan,nan,0,0,0
388000,0,0,0,0,0,0.25,0.0,655.35,655.35,0.0,0.0,0,0,0.0,0.0,0.0,0.0,0.0,0,nan,nan,0,0,0
392000,0,0,0,0,0,0.25,0.0,655.35,655.35,0.0,0.0,0,0,0.0,0.0,0.0,0.0,0.0,0,nan,nan,0,0,0
396000,0,0,0,0,0,0.25,0.0,655.35,655.35,0.0,0.0,0,0,0.0,0.0,0.0,0.0,0.0,0,nan,nan,0,0,0
400000,0,0,0,0,0,0.25,0.0,655.35,655.35,0.0,0.0,0,0,0.0,0.0,0.0,0.0,0.0,0,nan,nan,0,0,0
404000,0,0,0,0,0,0.25,0.0,655.35,655.35,0.0,0.0,0,0,0.0,0.0,0.0,0.0,0.0,0,nan,nan,0,0,0
408000,0,0,0,0,0,0.25,0.0,655.35,655.35,0.0,0.0,0,0,0.0,0.0,0.0,0.0,0.0,0,nan,nan,0,0,0
412000,0,0,0,0,0,0.25,0.0,655.35,655.35,0.0,0.0,0,0,0.0,0.0,0.0,0.0,0.0,0,nan,nan,0,0,0
416000,0,0,0,0,0,0.25,0.0,655.35,655.35,0.0,0.0,0,0,0.0,0.0,0.0,0.0,0.0,0,nan,nan,0,0,0
420000,0,0,0,0,0,0.25,0.0,655.35,655.35,0.0,0.0,0,0,0.0,0.0,0.0,0.0,0.0,0,nan,nan,0,0,0
420000,0,0,0,0,0,0.25,0.0,655.35,655.35,0.0,0.0,0,0,0.0,0.0,0.0,0.0,0.0,0,nan,nan,0,0,0
424000,0,0,0,0,0,0.25,0.0,655.35,655.35,0.0,0.0,0,0,0.0,0.0,0.0,0.0,0.0,0,nan,nan,0,0,0
428000,0,0,0,0,0,0.25,0.0,655.35,655.35,0.0,0.0,0,0,0.0,0.0,0.0,0.0,0.0,0,nan,nan,0,0,0
432000,0,0,0,0,0,0.25,0.0,655.35,655.35,0.0,0.0,0,0,0.0,0.0,0.0,0.0,0.0,0,nan,nan,0,0,0
436000,0,0,0,0,0,0.25,0.0,655.35,655.35,0.0,0.0,0,0,0.0,0.0,0.0,0.0,0.0,0,nan,nan,0,0,0
440000,0,0,0,0,0,0.25,0.0,655.35,655.35,0.0,0.0,0,0,0.0,0.0,0.0,0.0,0.0,0,nan,nan,0,0,0
444000,0,0,0,0,0,0.25,0.0,655.35,655.35,0.0,0.0,0,0,0.0,0.0,0.0,0.0,0.0,0,nan,nan,0,0,0
448000,0,0,0,0,0,0.25,0.0,655.35,655.35,0.0,0.0,0,0,0.0,0.0,0.0,0.0,0.0,0,nan,nan,0,0,0
448000,0,0,0,0,0,0.25,0.0,655.35,655.35,0.0,0.0,0,0,0.0,0.0,0.0,0.0,0.0,0,nan,nan,0,0,0
452000,0,0,0,0,0,0.25,0.0,655.35,655.35,0.0,0.0,0,0,0.0,0.0,0.0,0.0,0.0,0,nan,nan,0,0,0
456000,0,0,0,0,0,0.25,0.0,655.35,655.35,0.0,0.0,0,0,0.0,0.0,0.0,0.0,0.0,0,nan,nan,0,0,0
460000,0,0,0,0,0,0.25,0.0,655.35,655.35,0.0,0.0,0,0,0.0,0.0,0.0,0.0,0.0,0,nan,nan,0,0,0
464000,0,0,0,0,0,0.25,0.0,655.35,655.35,0.0,0.0,0,0,0.0,0.0,0.0,0.0,0.0,0,nan,nan,0,0,0
468000,0,0,0,0,0,0.25,0.0,655.35,655.35,0.0,0.0,0,0,0.0,0.0,0.0,0.0,0.0,0,nan,nan,0,0,0
472000,0,0,0,0,0,0.25,0.0,655.35,655.35,0.0,0.0,0,0,0.0,0.0,0.0,0.0,0.0,0,nan,nan,0,0,0
476000,0,0,0,0,0,0.25,0.0,655.35,655.35,0.0,0.0,0,0,0.0,0.0,0.0,0.0,0.0,0,nan,nan,0,0,0
480000,0,0,0,0,0,0.25,0.0,655.35,655.35,0.0,0.0,0,0,0.0,0.0,0.0,0.0,0.0,0,nan,nan,0,0,0
484000,0,0,0,0,0,0.25,0.0,655.35,655.35,0.0,0.0,0,0,0.0,0.0,0.0,0.0,0.0,0,nan,nan,0,0,0
488000,0,0,0,0,0,0.25,0.0,655.35,655.35,0.0,0.0,0,0,0.0,0.0,0.0,0.0,0.0,0,nan,nan,0,0,0
492000,0,0,0,0,0,0.25,0.0,655.35,655.35,0.0,0.0,0,0,0.0,0.0,0.0,0.0,0.0,0,nan,nan,0,0,0
496000,0,0,0,0,0,0.25,0.0,655.35,655.35,0.0,0.0,0,0,0.0,0.0,0.0,0.0,0.0,0,nan,nan,0,0,0
500000,0,0,0,0,0,0.25,0.0,655.35,655.35,0.0,0.0,0,0,0.0,0.0,0.0,0.0,0.0,0,nan,nan,0,0,0
504000,0,0,0,0,0,0.25,0.0,655.35,655.35,0.0,0.0,0,0,0.0,0.0,0.0,0.0,0.0,0,nan,nan,0,0,0
504000,0,0,0,0,0,0.25,0.0,655.35,655.35,0.0,0.0,0,0,0.0,0.0,0.0,0.0,0.0,0,nan,nan,0,0,0
508000,0,0,0,0,0,0.25,0.0,655.35,655.35,0.0,0.0,0,0,0.0,0.0,0.0,0.0,0.0,0,nan,nan,0,0,0
512000,0,0,0,0,0,0.25,0.0,655.35,655.35,0.0,0.0,0,0,0.0,0.0,0.0,0.0,0.0,0,nan,nan,0,0,0
516000,0,0,0,0,0,0.25,0.0,655.35,655.35,0.0,0.0,0,0,0.0,0.0,0.0,0.0,0.0,0,nan,nan,0,0,0
520000,0,0,0,0,0,0.25,0.0,655.35,655.35,0.0,0.0,0,0,0.0,0.0,0.0,0.0,0.0,0,nan,nan,0,0,0
524000,0,0,0,0,0,0.25,0.0,655.35,655.35,0.0,0.0,0,0,0.0,0.0,0.0,0.0,0.0,0,nan,nan,0,0,0
528000,0,0,0,0,0,0.25,0.0,655.35,655.35,0.0,0.0,0,0,0.0,0.0,0.0,0.0,0.0,0,nan,nan,0,0,0
532000,0,0,0,0,0,0.25,0.0,655.35,655.35,0.0,0.0,0,0,0.0,0.0,0.0,0.0,0.0,0,nan,nan,0,0,0
532000,0,0,0,0,0,0.25,0.0,655.35,655.35,0.0,0.0,0,0,0.0,0.0,0.0,0.0,0.0,0,nan,nan,0,0,0
536000,0,0,0,0,0,0.25,0.0,655.35,655.35,0.0,0.0,0,0,0.0,0.0,0.0,0.0,0.0,0,nan,nan,0,0,0
540000,0,0,0,0,0,0.25,0.0,655.35,655.35,0.0,0.0,0,0,0.0,0.0,0.0,0.0,0.0,0,nan,nan,0,0,0
544000,0,0,0,0,0,0.25,0.0,655.35,655.35,0.0,0.0,0,0,0.0,0.0,0.0,0.0,0.0,0,nan,nan,0,0,0
548000,0,0,0,0,0,0.25,0.0,655.35,655.35,0.0,0.0,0,0,0.0,0.0,0.0,0.0,0.0,0,nan,nan,0,0,0
552000,0,0,0,0,0,0.25,0.0,655.35,655.35,0.0,0.0,0,0,0.0,0.0,0.0,0.0,0.0,0,nan,nan,0,0,0
556000,0,0,0,0,0,0.25,0.0,655.35,655.35,0.0,0.0,0,0,0.0,0.0,0.0,0.0,0.0,0,nan,nan,0,0,0
560000,0,0,0,0,0,0.25,0.0,655.35,655.35,0.0,0.0,0,0,0.0,0.0,0.0,0.0,0.0,0,nan,nan,0,0,0
560000,0,0,0,0,0,0.25,0.0,655.35,655.35,0.0,0.0,0,0,0.0,0.0,0.0,0.0,0.0,0,nan,nan,0,0,0
564000,0,0,0,0,0,0.25,0.0,655.35,655.35,0.0,0.0,0,0,0.0,0.0,0.0,0.0,0.0,0,nan,nan,0,0,0
568000,0,0,0,0,0,0.25,0.0,655.35,655.35,0.0,0.0,0,0,0.0,0.0,0.0,0.0,0.0,0,nan,nan,0,0,0
572000,0,0,0,0,0,0.25,0.0,655.35,655.35,0.0,0.0,0,0,0.0,0.0,0.0,0.0,0.0,0,nan,nan,0,0,0
576000,0,0,0,0,0,0.25,0.0,655.35,655.35,0.0,0.0,0,0,0.0,0.0,0.0,0.0,0.0,0,nan,nan,0,0,0
580000,0,0,0,0,0,0.25,0.0,655.35,655.35,0.0,0.0,0,0,0.0,0.0,0.0,0.0,0.0,0,nan,nan,0,0,0
584000,0,0,0,0,0,0.25,0.0,655.35,655.35,0.0,0.0,0,0,0.0,0.0,0.0,0.0,0.0,0,nan,nan,0,0,0
588000,0,0,0,0,0,0.25,0.0,655.35,655.35,0.0,0.0,0,0,0.0,0.0,0.0,0.0,0.0,0,nan,nan,0,0,0
588000,0,0,0,0,0,0.25,0.0,655.35,655.35,0.0,0.0,0,0,0.0,0.0,0.0,0.0,0.0,0,nan,nan,0,0,0
592000,0,0,0,0,0,0.25,0.0,655.35,655.35,0.0,0.0,0,0,0.0,0.0,0.0,0.0,0.0,0,nan,nan,0,0,0
596000,0,0,0,0,0,0.25,0.0,655.35,655.35,0.0,0.0,0,0,0.0,0.0,0.0,0.0,0.0,0,nan,nan,0,0,0
600000,0,0,0,0,0,0.25,0.0,655.35,655.35,0.0,0.0,0,0,0.0,0.0,0.0,0.0,0.0,0,nan,nan,0,0,0
604000,0,0,0,0,0,0.25,0.0,655.35,655.35,0.0,0.0,0,0,0.0,0.0,0.0,0.0,0.0,0,nan,nan,0,0,0
608000,0,0,0,0,0,0.25,0.0,655.35,655.35,0.0,0.0,0,0,0.0,0.0,0.0,0.0,0.0,0,nan,nan,0,0,0
612000,0,0,0,0,0,0.25,0.0,655.35,655.35,0.0,0.0,0,0,0.0,0.0,0.0,0.0,0.0,0,nan,nan,0,0,0
616000,0,0,0,0,0,0.25,0.0,655.35,655.35,0.0,0.0,0,0,0.0,0.0,0.0,0.0,0.0,0,nan,nan,0,0,0
616000,0,0,0,0,0,0.25,0.0,655.35,655.35,0.0,0.0,0,0,0.0,0.0,0.0,0.0,0.0,0,nan,nan,0,0,0
620000,0,0,0,0,0,0.25,0.0,655.35,655.35,0.0,0.0,0,0,0.0,0.0,0.0,0.0,0.0,0,nan,nan,0,0,0
624000,0,0,0,0,0,0.25,0.0,655.35,655.35,0.0,0.0,0,0,0.0,0.0,0.0,0.0,0.0,0,nan,nan,0,0,0
628000,0,0,0,0,0,0.25,0.0,655.35,655.35,0.0,0.0,0,0,0.0,0.0,0.0,0.0,0.0,0,nan,nan,0,0,0
632000,0,0,0,0,0,0.25,0.0,655.35,655.35,0.0,0.0,0,0,0.0,0.0,0.0,0.0,0.0,0,nan,nan,0,0,0
636000,0,0,0,0,0,0.25,0.0,655.35,655.35,0.0,0.0,0,0,0.0,0.0,0.0,0.0,0.0,0,nan,nan,0,0,0
640000,0,0,0,0,0,0.25,0.0,655.35,655.35,0.0,0.0,0,0,0.0,0.0,0.0,0.0,0.0,0,nan,nan,0,0,0
644000,0,0,0,0,0,0.25,0.0,655.35,655.35,0.0,0.0,0,0,0.0,0.0,0.0,0.0,0.0,0,nan,nan,0,0,0
644000,0,0,0,0,0,0.25,0.0,655.35,655.35,0.0,0.0,0,0,0.0,0.0,0.0,0.0,0.0,0,nan,nan,0,0,0
648000,0,0,0,0,0,0.25,0.0,655.35,655.35,0.0,0.0,0,0,0.0,0.0,0.0,0.0,0.0,0,nan,nan,0,0,0
652000,0,0,0,0,0,0.25,0.0,655.35,655.35,0.0,0.0,0,0,0.0,0.0,0.0,0.0,0.0,0,nan,nan,0,0,0
656000,0,0,0,0,0,0.25,0.0,655.35,655.35,0.0,0.0,0,0,0.0,0.0,0.0,0.0,0.0,0,nan,nan,0,0,0
660000,0,0,0,0,0,0.25,0.0,655.35,655.35,0.0,0.0,0,0,0.0,0.0,0.0,0.0,0.0,0,nan,nan,0,0,0
664000,0,0,0,0,0,0.25,0.0,655.35,655.35,0.0,0.0,0,0,0.0,0.0,0.0,0.0,0.0,0,nan,nan,0,0,0
668000,0,0,0,0,0,0.25,0.0,655.35,655.35,0.0,0.0,0,0,0.0,0.0,0.0,0.0,0.0,0,nan,nan,0,0,0
672000,0,0,0,0,0,0.25,0.0,655.35,655.35,0.0,0.0,0,0,0.0,0.0,0.0,0.0,0.0,0,nan,nan,0,0,0
672000,0,0,0,0,0,0.25,0.0,655.35,655.35,0.0,0.0,0,0,0.0,0.0,0.0,0.0,0.0,0,nan,nan,0,0,0
676000,0,0,0,0,0,0.25,0.0,655.35,655.35,0.0,0.0,0,0,0.0,0.0,0.0,0.0,0.0,0,nan,nan,0,0,0
680000,0,0,0,0,0,0.25,0.0,655.35,655.35,0.0,0.0,0,0,0.0,0.0,0.0,0.0,0.0,0,nan,nan,0,0,0
684000,0,0,0,0,0,0.25,0.0,655.35,655.35,0.0,0.0,0,0,0.0,0.0,0.0,0.0,0.0,0,nan,nan,0,0,0
688000,0,0,0,0,0,0.25,0.0,655.35,655.35,0.0,0.0,0,0,0.0,0.0,0.0,0.0,0.0,0,nan,nan,0,0,0
692000,0,0,0,0,0,0.25,0.0,655.35,655.35,0.0,0.0,0,0,0.0,0.0,0.0,0.0,0.0,0,nan,nan,0,0,0
696000,0,0,0,0,0,0.25,0.0,655.35,655.35,0.0,0.0,0,0,0.0,0.0,0.0,0.0,0.0,0,nan,nan,0,0,0
700000,0,0,0,0,0,0.25,0.0,655.35,655.35,0.0,0.0,0,0,0.0,0.0,0.0,0.0,0.0,0,nan,nan,0,0,0
700000,0,0,0,0,0,0.25,0.0,655.35,655.35,0.0,0.0,0,0,0.0,0.0,0.0,0.0,0.0,0,nan,nan,0,0,0
704000,0,0,0,0,0,0.25,0.0,655.35,655.35,0.0,0.0,0,0,0.0,0.0,0.0,0.0,0.0,0,nan,nan,0,0,0
708000,0,0,0,0,0,0.25,0.0,655.35,655.35,0.0,0.0,0,0,0.0,0.0,0.0,0.0,0.0,0,nan,nan,0,0,0
712000,0,0,0,0,0,0.25,0.0,655.35,655.35,0.0,0.0,0,0,0.0,0.0,0.0,0.0,0.0,0,nan,nan,0,0,0
716000,0,0,0,0,0,0.25,0.0,655.35,655.35,0.0,0.0,0,0,0.0,0.0,0.0,0.0,0.0,0,nan,nan,0,0,0
720000,0,0,0,0,0,0.25,0.0,655.35,655.35,0.0,0.0,0,0,0.0,0.0,0.0,0.0,0.0,0,nan,nan,0,0,0
724000,0,0,0,0,0,0.25,0.0,655.35,655.35,0.0,0.0,0,0,0.0,0.0,0.0,0.0,0.0,0,nan,nan,0,0,0
728000,0,0,0,0,0,0.25,0.0,655.35,655.35,0.0,0.0,0,0,0.0,0.0,0.0,0.0,0.0,0,nan,nan,0,0,0
728000,0,0,0,0,0,0.25,0.0,655.35,655.35,0.0,0.0,0,0,0.0,0.0,0.0,0.0,0.0,0,nan,nan,0,0,0
732000,0,0,0,0,0,0.25,0.0,655.35,655.35,0.0,0.0,0,0,0.0,0.0,0.0,0.0,0.0,0,nan,nan,0,0,0
736000,0,0,0,0,0,0.25,0.0,655.35,655.35,0.0,0.0,0,0,0.0,0.0,0.0,0.0,0.0,0,nan,nan,0,0,0
740000,0,0,0,0,0,0.25,0.0,655.35,655.35,0.0,0.0,0,0,0.0,0.0,0.0,0.0,0.0,0,nan,nan,0,0,0
744000,0,0,0,0,0,0.25,0.0,655.35,655.35,0.0,0.0,0,0,0.0,0.0,0.0,0.0,0.0,0,nan,nan,0,0,0
748000,0,0,0,0,0,0.25,0.0,655.35,655.35,0.0,0.0,0,0,0.0,0.0,0.0,0.0,0.0,0,nan,nan,0,0,0
752000,0,0,0,0,0,0.25,0.0,655.35,655.35,0.0,0.0,0,0,0.0,0.0,0.0,0.0,0.0,0,nan,nan,0,0,0
756000,0,0,0,0,0,0.25,0.0,655.35,655.35,0.0,0.0,0,0,0.0,0.0,0.0,0.0,0.0,0,nan,nan,0,0,0
756000,0,0,0,0,0,0.25,0.0,655.35,655.35,0.0,0.0,0,0,0.0,0.0,0.0,0.0,0.0,0,nan,nan,0,0,0
760000,0,0,0,0,0,0.25,0.0,655.35,655.35,0.0,0.0,0,0,0.0,0.0,0.0,0.0,0.0,0,nan,nan,0,0,0
764000,0,0,0,0,0,0.25,0.0,655.35,655.35,0.0,0.0,0,0,0.0,0.0,0.0,0.0,0.0,0,nan,nan,0,0,0
768000,0,0,0,0,0,0.25,0.0,655.35,655.35,0.0,0.0,0,0,0.0,0.0,0.0,0.0,0.0,0,nan,nan,0,0,0
772000,0,0,0,0,0,0.25,0.0,655.35,655.35,0.0,0.0,0,0,0.0,0.0,0.0,0.0,0.0,0,nan,nan,0,0,0
776000,0,0,0,0,0,0.25,0.0,655.35,655.35,0.0,0.0,0,0,0.0,0.0,0.0,0.0,0.0,0,nan,nan,0,0,0
780000,0,0,0,0,0,0.25,0.0,655.35,655.35,0.0,0.0,0,0,0.0,0.0,0.0,0.0,0.0,0,nan,nan,0,0,0
784000,0,0,0,0,0,0.25,0.0,655.35,655.35,0.0,0.0,0,0,0.0,0.0,0.0,0.0,0.0,0,nan,nan,0,0,0
784000,0,0,0,0,0,0.25,0.0,655.35,655.35,0.0,0.0,0,0,0.0,0.0,0.0,0.0,0.0,0,nan,nan,0,0,0
788000,0,0,0,0,0,0.25,0.0,655.35,655.35,0.0,0.0,0,0,0.0,0.0,0.0,0.0,0.0,0,nan,nan,0,0,0
792000,0,0,0,0,0,0.25,0.0,655.35,655.35,0.0,0.0,0,0,0.0,0.0,0.0,0.0,0.0,0,nan,nan,0,0,0
796000,0,0,0,0,0,0.25,0.0,655.35,655.35,0.0,0.0,0,0,0.0,0.0,0.0,0.0,0.0,0,nan,nan,0,0,0
800000,0,0,0,0,0,0.25,0.0,655.35,655.35,0.0,0.0,0,0,0.0,0.0,0.0,0.0,0.0,0,nan,nan,0,0,0
804000,0,0,0,0,0,0.25,0.0,655.35,655.35,0.0,0.0,0,0,0.0,0.0,0.0,0.0,0.0,0,nan,nan,0,0,0
808000,0,0,0,0,0,0.25,0.0,655.35,655.35,0.0,0.0,0,0,0.0,0.0,0.0,0.0,0.0,0,nan,nan,0,0,0
812000,0,0,0,0,0,0.25,0.0,655.35,655.35,0.0,0.0,0,0,0.0,0.0,0.0,0.0,0.0,0,nan,nan,0,0,0
812000,0,0,0,0,0,0.25,0.0,655.35,655.35,0.0,0.0,0,0,0.0,0.0,0.0,0.0,0.0,0,nan,nan,0,0,0
816000,0,0,0,0,0,0.25,0.0,655.35,655.35,0.0,0.0,0,0,0.0,0.0,0.0,0.0,0.0,0,nan,nan,0,0,0
820000,0,0,0,0,0,0.25,0.0,655.35,655.35,0.0,0.0,0,0,0.0,0.0,0.0,0.0,0.0,0,nan,nan,0,0,0
824000,0,0,0,0,0,0.25,0.0,655.35,655.35,0.0,0.0,0,0,0.0,0.0,0.0,0.0,0.0,0,nan,nan,0,0,0
828000,0,0,0,0,0,0.25,0.0,655.35,655.35,0.0,0.0,0,0,0.0,0.0,0.0,0.0,0.0,0,nan,nan,0,0,0
832000,0,0,0,0,0,0.25,0.0,655.35,655.35,0.0,0.0,0,0,0.0,0.0,0.0,0.0,0.0,0,nan,nan,0,0,0
836000,0,0,0,0,0,0.25,0.0,655.35,655.35,0.0,0.0,0,0,0.0,0.0,0.0,0.0,0.0,0,nan,nan,0,0,0
840000,0,0,0,0,0,0.25,0.0,655.35,655.35,0.0,0.0,0,0,0.0,0.0,0.0,0.0,0.0,0,nan,nan,0,0,0
840000,0,0,0,0,0,0.25,0.0,655.35,655.35,0.0,0.0,0,0,0.0,0.0,0.0,0.0,0.0,0,nan,nan,0,0,0
844000,0,0,0,0,0,0.25,0.0,655.35,655.35,0.0,0.0,0,0,0.0,0.0,0.0,0.0,0.0,0,nan,nan,0,0,0
848000,0,0,0,0,0,0.25,0.0,655.35,655.35,0.0,0.0,0,0,0.0,0.0,0.0,0.0,0.0,0,nan,nan,0,0,0
852000,0,0,0,0,0,0.25,0.0,655.35,655.35,0.0,0.0,0,0,0.0,0.0,0.0,0.0,0.0,0,nan,nan,0,0,0
856000,0,0,0,0,0,0.25,0.0,655.35,655.35,0.0,0.0,0,0,0.0,0.0,0.0,0.0,0.0,0,nan,nan,0,0,0
860000,0,0,0,0,0,0.25,0.0,655.35,655.35,0.0,0.0,0,0,0.0,0.0,0.0,0.0,0.0,0,nan,nan,0,0,0
864000,0,0,0,0,0,0.25,0.0,655.35,655.35,0.0,0.0,0,0,0.0,0.0,0.0,0.0,0.0,0,nan,nan,0,0,0
868000,0,0,0,0,0,0.25,0.0,655.35,655.35,0.0,0.0,0,0,0.0,0.0,0.0,0.0,0.0,0,nan,nan,0,0,0
868000,0,0,0,0,0,0.25,0.0,655.35,655.35,0.0,0.0,0,0,0.0,0.0,0.0,0.0,0.0,0,nan,nan,0,0,0
872000,0,0,0,0,0,0.25,0.0,655.35,655.35,0.0,0.0,0,0,0.0,0.0,0.0,0.0,0.0,0,nan,nan,0,0,0
876000,0,0,0,0,0,0.25,0.0,655.35,655.35,0.0,0.0,0,0,0.0,0.0,0.0,0.0,0.0,0,nan,nan,0,0,0
880000,0,0,0,0,0,0.25,0.0,655.35,655.35,0.0,0.0,0,0,0.0,0.0,0.0,0.0,0.0,0,nan,nan,0,0,0
884000,0,0,0,0,0,0.25,0.0,655.35,655.35,0.0,0.0,0,0,0.0,0.0,0.0,0.0,0.0,0,nan,nan,0,0,0
888000,0,0,0,0,0,0.25,0.0,655.35,655.35,0.0,0.0,0,0,0.0,0.0,0.0,0.0,0.0,0,nan,nan,0,0,0
892000,0,0,0,0,0,0.25,0.0,655.35,655.35,0.0,0.0,0,0,0.0,0.0,0.0,0.0,0.0,0,nan,nan,0,0,0
896000,0,0,0,0,0,0.25,0.0,655.35,655.35,0.0,0.0,0,0,0.0,0.0,0.0,0.0,0.0,0,nan,nan,0,0,0
896000,0,0,0,0,0,0.25,0.0,655.35,655.35,0.0,0.0,0,0,0.0,0.0,0.0,0.0,0.0,0,nan,nan,0,0,0
900000,0,0,0,0,0,0.25,0.0,655.35,655.35,0.0,0.0,0,0,0.0,0.0,0.0,0.0,0.0,0,nan,nan,0,0,0
904000,0,0,0,0,0,0.25,0.0,655.35,655.35,0.0,0.0,0,0,0.0,0.0,0.0,0.0,0.0,0,nan,nan,0,0,0
908000,0,0,0,0,0,0.25,0.0,655.35,655.35,0.0,0.0,0,0,0.0,0.0,0.0,0.0,0.0,0,nan,nan,0,0,0
912000,0,0,0,0,0,0.25,0.0,655.35,655.35,0.0,0.0,0,0,0.0,0.0,0.0,0.0,0.0,0,nan,nan,0,0,0
916000,0,0,0,0,0,0.25,0.0,655.35,655.35,0.0,0.0,0,0,0.0,0.0,0.0,0.0,0.0,0,nan,nan,0,0,0
920000,0,0,0,0,0,0.25,0.0,655.35,655.35,0.0,0.0,0,0,0.0,0.0,0.0,0.0,0.0,0,nan,nan,0,0,0
924000,0,0,0,0,0,0.25,0.0,655.35,655.35,0.0,0.0,0,0,0.0,0.0,0.0,0.0,0.0,0,nan,nan,0,0,0
924000,0,0,0,0,0,0.25,0.0,655.35,655.35,0.0,0.0,0,0,0.0,0.0,0.0,0.0,0.0,0,nan,nan,0,0,0
928000,0,0,0,0,0,0.25,0.0,655.35,655.35,0.0,0.0,0,0,0.0,0.0,0.0,0.0,0.0,0,nan,nan,0,0,0
932000,0,0,0,0,0,0.25,0.0,655.35,655.35,0.0,0.0,0,0,0.0,0.0,0.0,0.0,0.0,0,nan,nan,0,0,0
936000,0,0,0,0,0,0.25,0.0,655.35,655.35,0.0,0.0,0,0,0.0,0.0,0.0,0.0,0.0,0,nan,nan,0,0,0
940000,0,0,0,0,0,0.25,0.0,655.35,655.35,0.0,0.0,0,0,0.0,0.0,0.0,0.0,0.0,0,nan,nan,0,0,0
944000,0,0,0,0,0,0.25,0.0,655.35,655.35,0.0,0.0,0,0,0.0,0.0,0.0,0.0,0.0,0,nan,nan,0,0,0
948000,0,0,0,0,0,0.25,0.0,655.35,655.35,0.0,0.0,0,0,0.0,0.0,0.0,0.0,0.0,0,nan,nan,0,0,0
952000,0,0,0,0,0,0.25,0.0,655.35,655.35,0.0,0.0,0,0,0.0,0.0,0.0,0.0,0.0,0,nan,nan,0,0,0
956000,0,0,0,0,0,0.25,0.0,655.35,655.35,0.0,0.0,0,0,0.0,0.0,0.0,0.0,0.0,0,nan,nan,0,0,0
960000,0,0,0,0,0,0.25,0.0,655.35,655.35,0.0,0.0,0,0,0.0,0.0,0.0,0.0,0.0,0,nan,nan,0,0,0
964000,0,0,0,0,0,0.25,0.0,655.35,655.35,0.0,0.0,0,0,0.0,0.0,0.0,0.0,0.0,0,nan,nan,0,0,0
968000,0,0,0,0,0,0.25,0.0,655.35,655.35,0.0,0.0,0,0,0.0,0.0,0.0,0.0,0.0,0,nan,nan,0,0,0
972000,0,0,0,0,0,0.25,0.0,655.35,655.35,0.0,0.0,0,0,0.0,0.0,0.0,0.0,0.0,0,nan,nan,0,0,0
976000,0,0,0,0,0,0.25,0.0,655.35,655.35,0.0,0.0,0,0,0.0,0.0,0.0,0.0,0.0,0,nan,nan,0,0,0
980000,0,0,0,0,0,0.25,0.0,655.35,655.35,0.0,0.0,0,0,0.0,0.0,0.0,0.0,0.0,0,nan,nan,0,0,0
980000,0,0,0,0,0,0.25,0.0,655.35,655.35,0.0,0.0,0,0,0.0,0.0,0.0,0.0,0.0,0,nan,nan,0,0,0
984000,0,0,0,0,0,0.25,0.0,655.35,655.35,0.0,0.0,0,0,0.0,0.0,0.0,0.0,0.0,0,nan,nan,0,0,0
988000,0,0,0,0,0,0.25,0.0,655.35,655.35,0.0,0.0,0,0,0.0,0.0,0.0,0.0,0.0,0,nan,nan,0,0,0
992000,0,0,0,0,0,0.25,0.0,655.35,655.35,0.0,0.0,0,0,0.0,0.0,0.0,0.0,0.0,0,nan,nan,0,0,0
996000,0,0,0,0,0,0.25,0.0,655.35,655.35,0.0,0.0,0,0,0.0,0.0,0.0,0.0,0.0,0,nan,nan,0,0,0
1000000,0,0,0,0,0,0.25,0.0,655.35,655.35,0.0,0.0,0,0,0.0,0.0,0.0,0.0,0.0,0,nan,nan,0,0,0
1004000,0,0,0,0,0,0.25,0.0,655.35,655.35,0.0,0.0,0,0,0.0,0.0,0.0,0.0,0.0,0,nan,nan,0,0,0
1008000,0,0,0,0,0,0.25,0.0,655.35,655.35,0.0,0.0,0,0,0.0,0.0,0.0,0.0,0.0,0,nan,nan,0,0,0
1008000,0,0,0,0,0,0.25,0.0,655.35,655.35,0.0,0.0,0,0,0.0,0.0,0.0,0.0,0.0,0,nan,nan,0,0,0
1012000,0,0,0,0,0,0.25,0.0,655.35,655.35,0.0,0.0,0,0,0.0,0.0,0.0,0.0,0.0,0,nan,nan,0,0,0
1016000,0,0,0,0,0,0.25,0.0,655.35,655.35,0.0,0.0,0,0,0.0,0.0,0.0,0.0,0.0,0,nan,nan,0,0,0
1020000,0,0,0,0,0,0.25,0.0,655.35,655.35,0.0,0.0,0,0,0.0,0.0,0.0,0.0,0.0,0,nan,nan,0,0,0
1024000,0,0,0,0,0,0.25,0.0,655.35,655.35,0.0,0.0,0,0,0.0,0.0,0.0,0.0,0.0,0,nan,nan,0,0,0
1028000,0,0,0,0,0,0.25,0.0,655.35,655.35,0.0,0.0,0,0,0.0,0.0,0.0,0.0,0.0,0,nan,nan,0,0,0
1032000,0,0,0,0,0,0.25,0.0,655.35,655.35,0.0,0.0,0,0,0.0,0.0,0.0,0.0,0.0,0,nan,nan,0,0,0
1036000,0,0,0,0,0,0.25,0.0,655.35,655.35,0.0,0.0,0,0,0.0,0.0,0.0,0.0,0.0,0,nan,nan,0,0,0
1036000,0,0,0,0,0,0.25,0.0,655.35,655.35,0.0,0.0,0,0,0.0,0.0,0.0,0.0,0.0,0,nan,nan,0,0,0
1040000,0,0,0,0,0,0.25,0.0,655.35,655.35,0.0,0.0,0,0,0.0,0.0,0.0,0.0,0.0,0,nan,nan,0,0,0
1044000,0,0,0,0,0,0.25,0.0,655.35,655.35,0.0,0.0,0,0,0.0,0.0,0.0,0.0,0.0,0,nan,nan,0,0,0
1048000,0,0,0,0,0,0.25,0.0,655.35,655.35,0.0,0.0,0,0,0.0,0.0,0.0,0.0,0.0,0,nan,nan,0,0,0
1052000,0,0,0,0,0,0.25,0.0,655.35,655.35,0.0,0.0,0,0,0.0,0.0,0.0,0.0,0.0,0,nan,nan,0,0,0
1056000,0,0,0,0,0,0.25,0.0,655.35,655.35,0.0,0.0,0,0,0.0,0.0,0.0,0.0,0.0,0,nan,nan,0,0,0
1060000,0,0,0,0,0,0.25,0.0,655.35,655.35,0.0,0.0,0,0,0.0,0.0,0.0,0.0,0.0,0,nan,nan,0,0,0
1064000,0,0,0,0,0,0.25,0.0,655.35,655.35,0.0,0.0,0,0,0.0,0.0,0.0,0.0,0.0,0,nan,nan,0,0,0
1064000,0,0,0,0,0,0.25,0.0,655.35,655.35,0.0,0.0,0,0,0.0,0.0,0.0,0.0,0.0,0,nan,nan,0,0,0
1068000,0,0,0,0,0,0.25,0.0,655.35,655.35,0.0,0.0,0,0,0.0,0.0,0.0,0.0,0.0,0,nan,nan,0,0,0
1072000,0,0,0,0,0,0.25,0.0,655.35,655.35,0.0,0.0,0,0,0.0,0.0,0.0,0.0,0.0,0,nan,nan,0,0,0
1076000,0,0,0,0,0,0.25,0.0,655.35,655.35,0.0,0.0,0,0,0.0,0.0,0.0,0.0,0.0,0,nan,nan,0,0,0
1080000,0,0,0,0,0,0.25,0.0,655.35,655.35,0.0,0.0,0,0,0.0,0.0,0.0,0.0,0.0,0,nan,nan,0,0,0
1084000,0,0,0,0,0,0.25,0.0,655.35,655.35,0.0,0.0,0,0,0.0,0.0,0.0,0.0,0.0,0,nan,nan,0,0,0
1088000,0,0,0,0,0,0.25,0.0,655.35,655.35,0.0,0.0,0,0,0.0,0.0,0.0,0.0,0.0,0,nan,nan,0,0,0
1092000,0,0,0,0,0,0.25,0.0,655.35,655.35,0.0,0.0,0,0,0.0,0.0,0.0,0.0,0.0,0,nan,nan,0,0,0
1092000,0,0,0,0,0,0.25,0.0,655.35,655.35,0.0,0.0,0,0,0.0,0.0,0.0,0.0,0.0,0,nan,nan,0,0,0
1096000,0,0,0,0,0,0.25,0.0,655.35,655.35,0.0,0.0,0,0,0.0,0.0,0.0,0.0,0.0,0,nan,nan,0,0,0
1100000,0,0,0,0,0,0.25,0.0,655.35,655.35,0.0,0.0,0,0,0.0,0.0,0.0,0.0,0.0,0,nan,nan,0,0,0
1104000,0,0,0,0,0,0.25,0.0,655.35,655.35,0.0,0.0,0,0,0.0,0.0,0.0,0.0,0.0,0,nan,nan,0,0,0
1108000,0,0,0,0,0,0.25,0.0,655.35,655.35,0.0,0.0,0,0,0.0,0.0,0.0,0.0,0.0,0,nan,nan,0,0,0
1112000,0,0,0,0,0,0.25,0.0,655.35,655.35,0.0,0.0,0,0,0.0,0.0,0.0,0.0,0.0,0,nan,nan,0,0,0
1116000,0,0,0,0,0,0.25,0.0,655.35,655.35,0.0,0.0,0,0,0.0,0.0,0.0,0.0,0.0,0,nan,nan,0,0,0
1120000,0,0,0,0,0,0.25,0.0,655.35,655.35,0.0,0.0,0,0,0.0,0.0,0.0,0.0,0.0,0,nan,nan,0,0,0
1120000,0,0,0,0,0,0.25,0.0,655.35,655.35,0.0,0.0,0,0,0.0,0.0,0.0,0.0,0.0,0,nan,nan,0,0,0
1124000,0,0,0,0,0,0.25,0.0,655.35,655.35,0.0,0.0,0,0,0.0,0.0,0.0,0.0,0.0,0,nan,nan,0,0,0
1128000,0,0,0,0,0,0.25,0.0,655.35,655.35,0.0,0.0,0,0,0.0,0.0,0.0,0.0,0.0,0,nan,nan,0,0,0
1132000,0,0,0,0,0,0.25,0.0,655.35,655.35,0.0,0.0,0,0,0.0,0.0,0.0,0.0,0.0,0,nan,nan,0,0,0
1136000,0,0,0,0,0,0.25,0.0,655.35,655.35,0.0,0.0,0,0,0.0,0.0,0.0,0.0,0.0,0,nan,nan,0,0,0
1140000,0,0,0,0,0,0.25,0.0,655.35,655.35,0.0,0.0,0,0,0.0,0.0,0.0,0.0,0.0,0,nan,nan,0,0,0
1144000,0,0,0,0,0,0.25,0.0,655.35,655.35,0.0,0.0,0,0,0.0,0.0,0.0,0.0,0.0,0,nan,nan,0,0,0
1148000,0,0,0,0,0,0.25,0.0,655.35,655.35,0.0,0.0,0,0,0.0,0.0,0.0,0.0,0.0,0,nan,nan,0,0,0
1148000,0,0,0,0,0,0.25,0.0,655.35,655.35,0.0,0.0,0,0,0.0,0.0,0.0,0.0,0.0,0,nan,nan,0,0,0
1152000,0,0,0,0,0,0.25,0.0,655.35,655.35,0.0,0.0,0,0,0.0,0.0,0.0,0.0,0.0,0,nan,nan,0,0,0
1156000,0,0,0,0,0,0.25,0.0,655.35,655.35,0.0,0.0,0,0,0.0,0.0,0.0,0.0,0.0,0,nan,nan,0,0,0
1160000,0,0,0,0,0,0.25,0.0,655.35,655.35,0.0,0.0,0,0,0.0,0.0,0.0,0.0,0.0,0,nan,nan,0,0,0
1164000,0,0,0,0,0,0.25,0.0,655.35,655.35,0.0,0.0,0,0,0.0,0.0,0.0,0.0,0.0,0,nan,nan,0,0,0
1168000,0,0,0,0,0,0.25,0.0,655.35,655.35,0.0,0.0,0,0,0.0,0.0,0.0,0.0,0.0,0,nan,nan,0,0,0
1172000,0,0,0,0,0,0.25,0.0,655.35,655.35,0.0,0.0,0,0,0.0,0.0,0.0,0.0,0.0,0,nan,nan,0,0,0
1176000,0,0,0,0,0,0.25,0.0,655.35,655.35,0.0,0.0,0,0,0.0,0.0,0.0,0.0,0.0,0,nan,nan,0,0,0
1176000,0,0,0,0,0,0.25,0.0,655.35,655.35,0.0,0.0,0,0,0.0,0.0,0.0,0.0,0.0,0,nan,nan,0,0,0
1180000,0,0,0,0,0,0.25,0.0,655.35,655.35,0.0,0.0,0,0,0.0,0.0,0.0,0.0,0.0,0,nan,nan,0,0,0
1184000,0,0,0,0,0,0.25,0.0,655.35,655.35,0.0,0.0,0,0,0.0,0.0,0.0,0.0,0.0,0,nan,nan,0,0,0
1188000,0,0,0,0,0,0.25,0.0,655.35,655.35,0.0,0.0,0,0,0.0,0.0,0.0,0.0,0.0,0,nan,nan,0,0,0
1192000,0,0,0,0,0,0.25,0.0,655.35,655.35,0.0,0.0,0,0,0.0,0.0,0.0,0.0,0.0,0,nan,nan,0,0,0
1196000,0,0,0,0,0,0.25,0.0,655.35,655.35,0.0,0.0,0,0,0.0,0.0,0.0,0.0,0.0,0,nan,nan,0,0,0
1200000,0,0,0,0,0,0.25,0.0,655.35,655.35,0.0,0.0,0,0,0.0,0.0,0.0,0.0,0.0,0,nan,nan,0,0,0
1204000,0,0,0,0,0,0.25,0.0,655.35,655.35,0.0,0.0,0,0,0.0,0.0,0.0,0.0,0.0,0,nan,nan,0,0,0
1204000,0,0,0,0,0,0.25,0.0,655.35,655.35,0.0,0.0,0,0,0.0,0.0,0.0,0.0,0.0,0,nan,nan,0,0,0
1208000,0,0,0,0,0,0.25,0.0,655.35,655.35,0.0,0.0,0,0,0.0,0.0,0.0,0.0,0.0,0,nan,nan,0,0,0
1212000,0,0,0,0,0,0.25,0.0,655.35,655.35,0.0,0.0,0,0,0.0,0.0,0.0,0.0,0.0,0,nan,nan,0,0,0
1216000,0,0,0,0,0,0.25,0.0,655.35,655.35,0.0,0.0,0,0,0.0,0.0,0.0,0.0,0.0,0,nan,nan,0,0,0
1216000,0,473977418,85455942,487998,0,0.25,0.0,97.78,97.78,0.0,0.0,0,0,0.0,0.0,0.0,0.0,0.0,0,nan,nan,0,0,10
1316000,0,473977419,85455942,487991,0,0.25,0.0,95.61,95.62,0.0,0.0,0,0,0.0,0.0,0.0,0.0,0.0,0,nan,nan,0,0,10
1416000,0,473977419,85455941,487991,0,0.25,0.0,91.42,91.43,0.0,0.0,0,0,0.0,0.0,0.0,0.0,0.0,0,nan,nan,0,0,10
1516000,0,473977419,85455942,487995,0,0.25,0.0,87.42,87.43,0.0,0.0,0,0,0.0,0.0,0.0,0.0,0.0,0,nan,nan,0,0,10
1616000,0,473977419,85455940,488003,0,0.25,0.0,83.59,83.61,0.0,0.0,0,0,0.0,0.0,0.0,0.0,0.0,0,nan,nan,0,0,10
1716000,0,473977419,85455939,488009,0,0.25,0.0,79.93,79.95,0.0,0.0,0,0,0.0,0.0,0.0,0.0,0.0,0,nan,nan,0,0,10
1816000,0,473977421,85455939,487987,0,0.25,0.0,76.43,76.45,0.0,0.0,0,0,0.0,0.0,0.0,0.0,0.0,0,nan,nan,0,0,10
1916000,0,473977419,85455940,487993,0,0.25,0.0,73.08,73.11,0.0,0.0,0,0,0.0,0.0,0.0,0.0,0.0,0,nan,nan,0,0,10
2016000,0,473977420,85455941,487999,0,0.25,0.0,69.88,69.91,0.0,0.0,0,0,0.0,0.0,0.0,0.0,0.0,0,nan,nan,0,0,10
2116000,0,473977419,85455942,488012,0,0.25,0.0,66.83,66.86,0.0,0.0,0,0,0.0,0.0,0.0,0.0,0.0,0,nan,nan,0,0,10
2216000,0,473977419,85455940,488001,0,0.25,0.0,63.9,63.94,0.0,0.0,0,0,0.0,0.0,0.0,0.0,0.0,0,nan,nan,0,0,10
2316000,0,473977420,85455939,487981,0,0.25,0.0,61.11,61.14,0.0,0.0,0,0,0.0,0.0,0.0,0.0,0.0,0,nan,nan,0,0,10
2416000,0,473977419,85455940,487987,0,0.25,0.0,58.43,58.47,0.0,0.0,0,0,0.0,0.0,0.0,0.0,0.0,0,nan,nan,0,0,10
2516000,0,473977418,85455939,487992,0,0.25,0.0,57.14,57.18,0.0,0.0,0,0,0.0,0.0,0.0,0.0,0.0,0,nan,nan,0,0,10
2616000,0,473977421,85455941,487998,0,0.25,0.0,54.64,54.69,0.0,0.0,0,0,0.0,0.0,0.0,0.0,0.0,0,nan,nan,0,0,10
2716000,0,473977419,85455941,488002,0,0.25,0.0,52.25,52.3,0.0,0.0,0,0,0.0,0.0,0.0,0.0,0.0,0,nan,nan,0,0,10
2816000,0,473977418,85455940,487997,0,0.25,0.0,49.97,50.02,0.0,0.0,0,0,0.0,0.0,0.0,0.0,0.0,0,nan,nan,0,0,10
2916000,0,473977419,85455939,488001,0,0.25,0.0,47.79,47.84,0.0,0.0,0,0,0.0,0.0,0.0,0.0,0.0,0,nan,nan,0,0,10
3016000,0,473977419,85455939,487993,0,0.25,0.0,45.7,45.75,0.0,0.0,0,0,0.0,0.0,0.0,0.0,0.0,0,nan,nan,0,0,10
3116000,0,473977419,85455942,488007,0,0.25,0.0,43.7,43.76,0.0,0.0,0,0,0.0,0.0,0.0,0.0,0.0,0,nan,nan,0,0,10
3216000,0,473977419,85455940,487999,0,0.25,0.0,41.8,41.85,0.0,0.0,0,0,0.0,0.0,0.0,0.0,0.0,0,nan,nan,0,0,10
3316000,0,473977418,85455940,487989,0,0.25,0.0,39.97,40.03,0.0,0.0,0,0,0.0,0.0,0.0,0.0,0.0,0,nan,nan,0,0,10
3416000,0,473977417,85455940,487997,0,0.25,0.0,38.23,38.29,0.0,0.0,0,0,0.0,0.0,0.0,0.0,0.0,0,nan,nan,0,0,10
3516000,0,473977419,85455938,487995,0,0.25,0.0,36.56,36.62,0.0,0.0,0,0,0.0,0.0,0.0,0.0,0.0,0,nan,nan,0,0,10
3616000,0,473977419,85455938,487981,0,0.25,0.0,34.97,35.03,0.0,0.0,0,0,0.0,0.0,0.0,0.0,0.0,0,nan,nan,0,0,10
3716000,0,473977419,85455938,487993,0,0.25,0.0,33.44,33.51,0.0,0.0,0,0,0.0,0.0,0.0,0.0,0.0,0,nan,nan,0,0,10
3816000,0,473977418,85455940,487992,0,0.25,0.0,32.71,32.77,0.0,0.0,0,0,0.0,0.0,0.0,0.0,0.0,0,nan,nan,0,0,10
3916000,0,473977419,85455942,488004,0,0.25,0.0,31.28,31.35,0.0,0.0,0,0,0.0,0.0,0.0,0.0,0.0,0,nan,nan,0,0,10
4016000,0,473977419,85455941,488004,0,0.25,0.0,29.92,29.99,0.0,0.0,0,0,0.0,0.0,0.0,0.0,0.0,0,nan,nan,0,0,10
4116000,0,473977420,85455942,487979,0,0.25,0.0,28.62,28.69,0.0,0.0,0,0,0.0,0.0,0.0,0.0,0.0,0,nan,nan,0,0,10
4216000,0,473977420,85455939,487990,0,0.25,0.0,27.37,27.45,0.0,0.0,0,0,0.0,0.0,0.0,0.0,0.0,0,nan,nan,0,0,10
4316000,0,473977418,85455939,487999,0,0.25,0.0,26.18,26.26,0.0,0.0,0,0,0.0,0.0,0.0,0.0,0.0,0,nan,nan,0,0,10
4416000,0,473977418,85455939,487999,0,0.25,0.0,25.05,25.12,0.0,0.0,0,0,0.0,0.0,0.0,0.0,0.0,0,nan,nan,0,0,10
4516000,0,473977418,85455939,488013,0,0.25,0.0,23.96,24.03,0.0,0.0,0,0,0.0,0.0,0.0,0.0,0.0,0,nan,nan,0,0,10
4616000,0,473977418,85455938,487989,0,0.25,0.0,22.92,23.0,0.0,0.0,0,0,0.0,0.0,0.0,0.0,0.0,0,nan,nan,0,0,10
4716000,0,473977419,85455937,487999,0,0.25,0.0,21.92,22.0,0.0,0.0,0,0,0.0,0.0,0.0,0.0,0.0,0,nan,nan,0,0,10
4816000,0,473977419,85455939,487995,0,0.25,0.0,20.97,21.05,0.0,0.0,0,0,0.0,0.0,0.0,0.0,0.0,0,nan,nan,0,0,10
4916000,0,473977418,85455940,488007,0,0.25,0.0,20.06,20.14,0.0,0.0,0,0,0.0,0.0,0.0,0.0,0.0,0,nan,nan,0,0,10
5016000,0,473977419,85455940,487993,0,0.25,0.0,19.2,19.28,0.0,0.0,0,0,0.0,0.0,0.0,0.0,0.0,0,nan,nan,0,0,10
5116000,0,473977419,85455941,487995,0,0.25,0.0,18.78,18.86,0.0,0.0,0,0,0.0,0.0,0.0,0.0,0.0,0,nan,nan,0,0,10
5216000,0,473977418,85455941,488015,0,0.25,0.0,17.96,18.05,0.0,0.0,0,0,0.0,0.0,0.0,0.0,0.0,0,nan,nan,0,0,10
5316000,0,473977419,85455939,488004,0,0.25,0.0,17.19,17.27,0.0,0.0,0,0,0.0,0.0,0.0,0.0,0.0,0,nan,nan,0,0,10
5416000,0,473977418,85455940,487999,0,0.25,0.0,16.44,16.53,0.0,0.0,0,0,0.0,0.0,0.0,0.0,0.0,0,nan,nan,0,0,10
5516000,0,473977418,85455940,487993,0,0.25,0.0,15.73,15.82,0.0,0.0,0,0,0.0,0.0,0.0,0.0,0.0,0,nan,nan,0,0,10
5616000,0,473977417,85455940,488004,0,0.25,0.0,15.06,15.14,0.0,0.0,0,0,0.0,0.0,0.0,0.0,0.0,0,nan,nan,0,0,10
5716000,0,473977419,85455942,487993,0,0.25,0.0,14.41,14.49,0.0,0.0,0,0,0.0,0.0,0.0,0.0,0.0,0,nan,nan,0,0,10
5816000,0,473977419,85455941,487991,0,0.25,0.0,13.79,13.87,0.0,0.0,0,0,0.0,0.0,0.0,0.0,0.0,0,nan,nan,0,0,10
5916000,0,473977420,85455939,487981,0,0.25,0.0,13.19,13.28,0.0,0.0,0,0,0.0,0.0,0.0,0.0,0.0,0,nan,nan,0,0,10
6016000,0,473977418,85455937,488014,0,0.25,0.0,12.63,12.71,0.0,0.0,0,0,0.0,0.0,0.0,0.0,0.0,0,nan,nan,0,0,10
6116000,0,473977420,85455939,488003,0,0.25,0.0,12.08,12.17,0.0,0.0,0,0,0.0,0.0,0.0,0.0,0.0,0,nan,nan,0,0,10
6216000,0,473977419,85455938,488003,0,0.25,0.0,11.57,11.66,0.0,0.0,0,0,0.0,0.0,0.0,0.0,0.0,0,nan,nan,0,0,10
6316000,0,473977420,85455939,488003,0,0.25,0.0,11.07,11.16,0.0,0.0,0,0,0.0,0.0,0.0,0.0,0.0,0,nan,nan,0,0,10
6416000,0,473977421,85455940,487995,0,0.25,0.0,10.83,10.92,0.0,0.0,0,0,0.0,0.0,0.0,0.0,0.0,0,nan,nan,0,0,10
6516000,0,473977420,85455939,488001,0,0.25,0.0,10.37,10.46,0.0,0.0,0,0,0.0,0.0,0.0,0.0,0.0,0,nan,nan,0,0,10
6616000,0,473977420,85455939,487999,0,0.25,0.0,9.93,10.02,0.0,0.0,0,0,0.0,0.0,0.0,0.0,0.0,0,nan,nan,0,0,10
6716000,0,473977419,85455937,488004,0,0.25,0.0,9.5,9.59,0.0,0.0,0,0,0.0,0.0,0.0,0.0,0.0,0,nan,nan,0,0,10
6816000,0,473977420,85455937,488003,0,0.25,0.0,9.1,9.19,0.0,0.0,0,0,0.0,0.0,0.0,0.0,0.0,0,nan,nan,0,0,10
6916000,0,473977421,85455939,488000,0,0.25,0.0,8.71,8.8,0.0,0.0,0,0,0.0,0.0,0.0,0.0,0.0,0,nan,nan,0,0,10
7016000,0,473977420,85455939,487987,0,0.25,0.0,8.34,8.43,0.0,0.0,0,0,0.0,0.0,0.0,0.0,0.0,0,nan,nan,0,0,10
7116000,0,473977419,85455939,487991,0,0.25,0.0,7.99,8.08,0.0,0.0,0,0,0.0,0.0,0.0,0.0,0.0,0,nan,nan,0,0,10
7216000,0,473977420,85455936,487993,0,0.25,0.0,7.65,7.74,0.0,0.0,0,0,0.0,0.0,0.0,0.0,0.0,0,nan,nan,0,0,10
7316000,0,473977420,85455940,487990,0,0.25,0.0,7.33,7.42,0.0,0.0,0,0,0.0,0.0,0.0,0.0,0.0,0,nan,nan,0,0,10
7416000,0,473977419,85455939,488002,0,0.25,0.0,7.02,7.11,0.0,0.0,0,0,0.0,0.0,0.0,0.0,0.0,0,nan,nan,0,0,10
7516000,0,473977419,85455938,487999,0,0.25,0.0,6.72,6.82,0.0,0.0,0,0,0.0,0.0,0.0,0.0,0.0,0,nan,nan,0,0,10
7616000,0,473977420,85455939,488012,0,0.25,0.0,6.44,6.53,0.0,0.0,0,0,0.0,0.0,0.0,0.0,0.0,0,nan,nan,0,0,10
7716000,0,473977420,85455939,488003,0,0.25,0.0,6.3,6.4,0.0,0.0,0,0,0.0,0.0,0.0,0.0,0.0,0,nan,nan,0,0,10
7816000,0,473977422,85455939,488003,0,0.25,0.0,6.04,6.13,0.0,0.0,0,0,0.0,0.0,0.0,0.0,0.0,0,nan,nan,0,0,10
7916000,0,473977421,85455941,487994,0,0.25,0.0,5.79,5.88,0.0,0.0,0,0,0.0,0.0,0.0,0.0,0.0,0,nan,nan,0,0,10
8016000,0,473977419,85455940,487992,0,0.25,0.0,5.54,5.64,0.0,0.0,0,0,0.0,0.0,0.0,0.0,0.0,0,nan,nan,0,0,10
8116000,0,473977420,85455939,488000,0,0.25,0.0,5.31,5.41,0.0,0.0,0,0,0.0,0.0,0.0,0.0,0.0,0,nan,nan,0,0,10
8216000,0,473977421,85455939,487995,0,0.25,0.0,5.09,5.19,0.0,0.0,0,0,0.0,0.0,0.0,0.0,0.0,0,nan,nan,0,0,10
8316000,0,473977420,85455938,487986,0,0.25,0.0,4.88,4.98,0.0,0.0,0,0,0.0,0.0,0.0,0.0,0.0,0,nan,nan,0,0,10
8416000,0,473977420,85455940,487977,0,0.25,0.0,4.68,4.78,0.0,0.0,0,0,0.0,0.0,0.0,0.0,0.0,0,nan,nan,0,0,10
8516000,0,473977420,85455939,487993,0,0.25,0.0,4.49,4.58,0.0,0.0,0,0,0.0,0.0,0.0,0.0,0.0,0,nan,nan,0,0,10
8616000,0,473977421,85455939,487983,0,0.25,0.0,4.3,4.4,0.0,0.0,0,0,0.0,0.0,0.0,0.0,0.0,0,nan,nan,0,0,10
8716000,0,473977421,85455939,487971,0,0.25,0.0,4.13,4.22,0.0,0.0,0,0,0.0,0.0,0.0,0.0,0.0,0,nan,nan,0,0,10
8816000,0,473977420,85455939,487990,0,0.25,0.0,3.96,4.06,0.0,0.0,0,0,0.0,0.0,0.0,0.0,0.0,0,nan,nan,2,0,10
8916000,0,473977419,85455941,487991,0,0.25,0.0,3.8,3.89,0.0,0.0,0,0,0.0,0.0,0.0,0.0,0.0,0,nan,nan,2,0,10
9016000,0,473977420,85455940,487996,0,0.25,0.0,3.72,3.82,0.0,0.0,0,0,0.0,0.0,0.0,0.0,0.0,0,nan,nan,2,0,10
9116000,0,473977420,85455938,488005,0,0.25,0.0,3.57,3.67,0.0,0.0,0,0,0.0,0.0,0.0,0.0,0.0,0,nan,nan,2,0,10
9216000,0,473977418,85455938,488005,0,0.25,0.0,3.43,3.52,0.0,0.0,0,0,0.0,0.0,0.0,0.0,0.0,0,nan,nan,2,0,10
9316000,0,473977419,85455938,487991,0,0.25,0.0,3.29,3.39,0.0,0.0,0,0,0.0,0.0,0.0,0.0,0.0,0,nan,nan,2,0,10
9416000,0,473977421,85455939,487993,0,0.25,0.0,3.16,3.25,0.0,0.0,0,0,0.0,0.0,0.0,0.0,0.0,0,nan,nan,2,0,10
9516000,0,473977420,85455938,488003,0,0.25,0.0,3.03,3.13,0.0,0.0,0,0,0.0,0.0,0.0,0.0,0.0,0,nan,nan,2,0,10
9616000,0,473977418,85455939,488005,0,0.25,0.0,2.91,3.01,0.0,0.0,0,0,0.0,0.0,0.0,0.0,0.0,0,nan,nan,3,0,10
9716000,0,473977420,85455939,488006,0,0.25,0.0,2.8,2.89,0.0,0.0,0,0,0.0,0.0,0.0,0.0,0.0,0,nan,nan,3,0,10
9816000,0,473977420,85455939,487992,0,0.25,0.0,2.69,2.78,0.0,0.0,0,0,0.0,0.0,0.0,0.0,0.0,0,nan,nan,3,0,10
9916000,0,473977418,85455939,488011,0,0.25,0.0,2.58,2.68,0.0,0.0,0,0,0.0,0.0,0.0,0.0,0.0,0,nan,nan,3,0,10
10016000,0,473977420,85455941,487990,0,0.25,0.0,2.48,2.58,0.0,0.0,0,0,0.0,0.0,0.0,0.0,0.0,0,nan,nan,3,0,10
10116000,0,473977420,85455942,488004,0,0.25,0.0,2.38,2.48,0.0,0.0,0,0,0.0,0.0,0.0,0.0,0.0,0,nan,nan,3,0,10
10216000,0,473977420,85455940,488005,0,0.25,0.0,2.29,2.39,0.0,0.0,0,0,0.0,0.0,0.0,0.0,0.0,0,nan,nan,3,0,10
10316000,0,473977422,85455940,488014,0,0.25,0.0,2.25,2.35,0.0,0.0,0,0,0.0,0.0,0.0,0.0,0.0,0,nan,nan,3,0,10
10416000,0,473977421,85455941,487995,0,0.25,0.0,2.16,2.26,0.0,0.0,0,0,0.0,0.0,0.0,0.0,0.0,0,nan,nan,3,0,10
10516000,0,473977421,85455938,487996,0,0.25,0.0,2.08,2.18,0.0,0.0,0,0,0.0,0.0,0.0,0.0,0.0,0,nan,nan,3,0,10
10616000,0,473977421,85455941,488006,0,0.25,0.0,2.0,2.1,0.0,0.0,0,0,0.0,0.0,0.0,0.0,0.0,0,nan,nan,3,0,10
10716000,0,473977420,85455942,488009,0,0.25,0.0,1.93,2.03,0.0,0.0,0,0,0.0,0.0,0.0,0.0,0.0,0,nan,nan,3,0,10
10816000,0,473977419,85455940,487998,0,0.25,0.0,1.86,1.95,0.0,0.0,0,0,0.0,0.0,0.0,0.0,0.0,0,nan,nan,3,0,10
10916000,0,473977419,85455939,488006,0,0.25,0.0,1.79,1.88,0.0,0.0,0,0,0.0,0.0,0.0,0.0,0.0,0,nan,nan,3,0,10
11016000,0,473977419,85455941,488013,0,0.25,0.0,1.72,1.82,0.0,0.0,0,0,0.0,0.0,0.0,0.0,0.0,0,nan,nan,3,0,10
11116000,0,473977420,85455940,487997,0,0.25,0.0,1.66,1.76,0.0,0.0,0,0,0.0,0.0,0.0,0.0,0.0,0,nan,nan,3,0,10
11216000,0,473977421,85455941,487997,0,0.25,0.0,1.6,1.7,0.0,0.0,0,0,0.0,0.0,0.0,0.0,0.0,0,nan,nan,3,0,10
11316000,0,473977419,85455941,488009,0,0.25,0.0,1.54,1.64,0.0,0.0,0,0,0.0,0.0,0.0,0.0,0.0,0,nan,nan,3,0,10
11416000,0,473977420,85455941,488017,0,0.25,0.0,1.49,1.59,0.0,0.0,0,0,0.0,0.0,0.0,0.0,0.0,0,nan,nan,3,0,10
11516000,0,473977421,85455942,488010,0,0.25,0.0,1.43,1.53,0.0,0.0,0,0,0.0,0.0,0.0,0.0,0.0,0,nan,nan,3,0,10
11616000,0,473977419,85455941,487999,0,0.25,0.0,1.41,1.51,0.0,0.0,0,0,0.0,0.0,0.0,0.0,0.0,0,nan,nan,3,0,10
11716000,0,473977420,85455938,488004,0,0.25,0.0,1.36,1.46,0.0,0.0,0,0,0.0,0.0,0.0,0.0,0.0,0,nan,nan,3,0,10
11816000,0,473977419,85455939,487991,0,0.25,0.0,1.31,1.41,0.0,0.0,0,0,0.0,0.0,0.0,0.0,0.0,0,nan,nan,3,0,10
11916000,0,473977418,85455940,488015,0,0.25,0.0,1.27,1.37,0.0,0.0,0,0,0.0,0.0,0.0,0.0,0.0,0,nan,nan,3,0,10
12016000,0,473977419,85455939,488010,0,0.25,0.0,1.23,1.32,0.0,0.0,0,0,0.0,0.0,0.0,0.0,0.0,0,nan,nan,3,0,10
12116000,0,473977419,85455939,488027,0,0.25,0.0,1.18,1.28,0.0,0.0,0,0,0.0,0.0,0.0,0.0,0.0,0,nan,nan,3,0,10
12216000,0,473977421,85455942,488024,0,0.25,0.0,1.15,1.24,0.0,0.0,0,0,0.0,0.0,0.0,0.0,0.0,0,nan,nan,3,0,10
12316000,0,473977419,85455941,488002,0,0.25,0.0,1.11,1.21,0.0,0.0,0,0,0.0,0.0,0.0,0.0,0.0,0,nan,nan,3,0,10
12416000,0,473977419,85455942,488004,0,0.25,0.0,1.07,1.17,0.0,0.0,0,0,0.0,0.0,0.0,0.0,0.0,0,nan,nan,3,0,10
12516000,0,473977419,85455939,488000,0,0.25,0.0,1.04,1.14,0.0,0.0,0,0,0.0,0.0,0.0,0.0,0.0,0,nan,nan,3,0,10
12616000,0,473977419,85455938,487995,0,0.25,0.0,1.01,1.1,0.0,0.0,0,0,0.0,0.0,0.0,0.0,0.0,0,nan,nan,3,0,10
12716000,0,473977418,85455939,487993,0,0.25,0.0,0.97,1.07,0.0,0.0,0,0,0.0,0.0,0.0,0.0,0.0,0,nan,nan,3,0,10
12816000,0,473977419,85455938,487993,0,0.25,0.0,0.94,1.04,0.0,0.0,0,0,0.0,0.0,0.0,0.0,0.0,0,nan,nan,3,0,10
12916000,0,473977419,85455936,487997,0,0.25,0.0,0.93,1.03,0.0,0.0,0,0,0.0,0.0,0.0,0.0,0.0,0,nan,nan,3,0,10
13016000,0,473977419,85455937,487986,0,0.25,0.0,0.9,1.0,0.0,0.0,0,0,0.0,0.0,0.0,0.0,0.0,0,nan,nan,3,0,10
13116000,0,473977420,85455942,487999,0,0.25,0.0,0.88,0.97,0.0,0.0,0,0,0.0,0.0,0.0,0.0,0.0,0,nan,nan,3,0,10
13216000,0,473977420,85455939,487984,0,0.25,0.0,0.85,0.95,0.0,0.0,0,0,0.0,0.0,0.0,0.0,0.0,0,nan,nan,3,0,10
13316000,0,473977419,85455940,487980,0,0.25,0.0,0.83,0.92,0.0,0.0,0,0,0.0,0.0,0.0,0.0,0.0,0,nan,nan,3,0,10
13416000,0,473977419,85455940,487997,0,0.25,0.0,0.8,0.9,0.0,0.0,0,0,0.0,0.0,0.0,0.0,0.0,0,nan,nan,3,0,10
13516000,0,473977420,85455941,487998,0,0.25,0.0,0.78,0.88,0.0,0.0,0,0,0.0,0.0,0.0,0.0,0.0,0,nan,nan,3,0,10
13616000,0,473977419,85455941,487993,0,0.25,0.0,0.76,0.86,0.0,0.0,0,0,0.0,0.0,0.0,0.0,0.0,0,nan,nan,3,0,10
13716000,0,473977417,85455941,488009,0,0.25,0.0,0.74,0.84,0.0,0.0,0,0,0.0,0.0,0.0,0.0,0.0,0,nan,nan,3,0,10
13816000,0,473977420,85455940,488000,0,0.25,0.0,0.72,0.82,0.0,0.0,0,0,0.0,0.0,0.0,0.0,0.0,0,nan,nan,3,0,10
13916000,0,473977420,85455941,488006,0,0.25,0.0,0.7,0.8,0.0,0.0,0,0,0.0,0.0,0.0,0.0,0.0,0,nan,nan,3,0,10
14016000,0,473977419,85455941,487992,0,0.25,0.0,0.68,0.78,0.0,0.0,0,0,0.0,0.0,0.0,0.0,0.0,0,nan,nan,3,0,10
14116000,0,473977419,85455940,488006,0,0.25,0.0,0.67,0.76,0.0,0.0,0,0,0.0,0.0,0.0,0.0,0.0,0,nan,nan,3,0,10
14216000,0,473977419,85455939,487994,0,0.25,0.0,0.65,0.75,0.0,0.0,0,0,0.0,0.0,0.0,0.0,0.0,0,nan,nan,3,0,10
14316000,0,473977420,85455941,487996,0,0.25,0.0,0.64,0.74,0.0,0.0,0,0,0.0,0.0,0.0,0.0,0.0,0,nan,nan,3,0,10
14416000,0,473977421,85455939,487996,0,0.25,0.0,0.63,0.73,0.0,0.0,0,0,0.0,0.0,0.0,0.0,0.0,0,nan,nan,3,0,10
14516000,0,473977419,85455939,488012,0,0.25,0.0,0.61,0.71,0.0,0.0,0,0,0.0,0.0,0.0,0.0,0.0,0,nan,nan,3,0,10
14616000,0,473977419,85455938,488014,0,0.25,0.0,0.6,0.7,0.0,0.0,0,0,0.0,0.0,0.0,0.0,0.0,0,nan,nan,3,0,10
14716000,0,473977419,85455935,488017,0,0.25,0.0,0.58,0.68,0.0,0.0,0,0,0.0,0.0,0.0,0.0,0.0,0,nan,nan,3,0,10
14816000,0,473977420,85455936,487998,0,0.25,0.0,0.57,0.67,0.0,0.0,0,0,0.0,0.0,0.0,0.0,0.0,0,nan,nan,3,0,10
14916000,0,473977420,85455939,487999,0,0.25,0.0,0.56,0.66,0.0,0.0,0,0,0.0,0.0,0.0,0.0,0.0,0,nan,nan,3,0,10
15016000,0,473977420,85455938,487990,0,0.25,0.0,0.55,0.65,0.0,0.0,0,0,0.0,0.0,0.0,0.0,0.0,0,nan,nan,3,0,10
15116000,0,473977420,85455939,487982,0,0.25,0.0,0.54,0.64,0.0,0.0,0,0,0.0,0.0,0.0,0.0,0.0,0,nan,nan,3,0,10
15216000,0,473977419,85455940,487999,0,0.25,0.0,0.53,0.63,0.0,0.0,0,0,0.0,0.0,0.0,0.0,0.0,0,nan,nan,3,0,10
15316000,0,473977419,85455940,487992,0,0.25,0.0,0.52,0.62,0.0,0.0,0,0,0.0,0.0,0.0,0.0,0.0,0,nan,nan,3,0,10
15416000,0,473977419,85455941,488002,0,0.25,0.0,0.51,0.61,0.0,0.0,0,0,0.0,0.0,0.0,0.0,0.0,0,nan,nan,3,0,10
15516000,0,473977419,85455941,488010,0,0.25,0.0,0.5,0.6,0.0,0.0,0,0,0.0,0.0,0.0,0.0,0.0,0,nan,nan,3,0,10
15616000,0,473977418,85455940,488004,0,0.25,0.0,0.49,0.59,0.0,0.0,0,0,0.0,0.0,0.0,0.0,0.0,0,nan,nan,3,0,10
15716000,0,473977419,85455939,488000,0,0.25,0.0,0.48,0.58,0.0,0.0,0,0,0.0,0.0,0.0,0.0,0.0,0,nan,nan,3,0,10
15816000,0,473977419,85455939,487999,0,0.25,0.0,0.48,0.58,0.0,0.0,0,0,0.0,0.0,0.0,0.0,0.0,0,nan,nan,3,0,10
15916000,0,473977419,85455939,488008,0,0.25,0.0,0.47,0.57,0.0,0.0,0,0,0.0,0.0,0.0,0.0,0.0,0,nan,nan,3,0,10
16016000,0,473977420,85455940,487992,0,0.25,0.0,0.46,0.56,0.0,0.0,0,0,0.0,0.0,0.0,0.0,0.0,0,nan,nan,3,0,10
16116000,0,473977419,85455937,487995,0,0.25,0.0,0.45,0.55,0.0,0.0,0,0,0.0,0.0,0.0,0.0,0.0,0,nan,nan,3,0,10
16216000,0,473977420,85455937,487998,0,0.25,0.0,0.45,0.55,0.0,0.0,0,0,0.0,0.0,0.0,0.0,0.0,0,nan,nan,3,0,10
16316000,0,473977421,85455938,488010,0,0.25,0.0,0.44,0.54,0.0,0.0,0,0,0.0,0.0,0.0,0.0,0.0,0,nan,nan,3,0,10
16416000,0,473977420,85455938,488016,0,0.25,0.0,0.43,0.53,0.0,0.0,0,0,0.0,0.0,0.0,0.0,0.0,0,nan,nan,3,0,10
16516000,0,473977420,85455938,488009,0,0.25,0.0,0.43,0.53,0.0,0.0,0,0,0.0,0.0,0.0,0.0,0.0,0,nan,nan,3,0,10
16616000,0,473977420,85455939,488017,0,0.25,0.0,0.42,0.52,0.0,0.0,0,0,0.0,0.0,0.0,0.0,0.0,0,nan,nan,3,0,10
16716000,0,473977420,85455940,488010,0,0.25,0.0,0.42,0.52,0.0,0.0,0,0,0.0,0.0,0.0,0.0,0.0,0,nan,nan,3,0,10
16816000,0,473977420,85455938,488004,0,0.25,0.0,0.41,0.51,0.0,0.0,0,0,0.0,0.0,0.0,0.0,0.0,0,nan,nan,3,0,10
16916000,0,473977420,85455938,488008,0,0.25,0.0,0.41,0.51,0.0,0.0,0,0,0.0,0.0,0.0,0.0,0.0,0,nan,nan,3,0,10
17016000,0,473977419,85455940,487993,0,0.25,0.0,0.4,0.5,0.0,0.0,0,0,0.0,0.0,0.0,0.0,0.0,0,nan,nan,3,0,10
17116000,0,473977419,85455941,488005,0,0.25,0.0,0.4,0.5,0.0,0.0,0,0,0.0,0.0,0.0,0.0,0.0,0,nan,nan,3,0,10
17216000,0,473977418,85455943,487990,0,0.25,0.0,0.39,0.49,0.0,0.0,0,0,0.0,0.0,0.0,0.0,0.0,0,nan,nan,3,0,10
17316000,0,473977417,85455941,488018,0,0.25,0.0,0.39,0.49,0.0,0.0,0,0,0.0,0.0,0.0,0.0,0.0,0,nan,nan,3,0,10
17416000,0,473977418,85455940,488008,0,0.25,0.0,0.38,0.48,0.0,0.0,0,0,0.0,0.0,0.0,0.0,0.0,0,nan,nan,3,0,10
17516000,0,473977418,85455939,488005,0,0.25,0.0,0.38,0.48,0.0,0.0,0,0,0.0,0.0,0.0,0.0,0.0,0,nan,nan,3,0,10
17616000,0,473977420,85455939,488005,0,0.25,0.0,0.38,0.48,0.0,0.0,0,0,0.0,0.0,0.0,0.0,0.0,0,nan,nan,3,0,10
17716000,0,473977420,85455940,487988,0,0.25,0.0,0.37,0.47,0.0,0.0,0,0,0.0,0.0,0.0,0.0,0.0,0,nan,nan,3,0,10
17816000,0,473977419,85455940,487987,0,0.25,0.0,0.37,0.47,0.0,0.0,0,0,0.0,0.0,0.0,0.0,0.0,0,nan,nan,3,0,10
17916000,0,473977419,85455941,487995,0,0.25,0.0,0.37,0.47,0.0,0.0,0,0,0.0,0.0,0.0,0.0,0.0,0,nan,nan,3,0,10
18016000,0,473977419,85455938,488018,0,0.25,0.0,0.36,0.46,0.0,0.0,0,0,0.0,0.0,0.0,0.0,0.0,0,nan,nan,3,0,10
18116000,0,473977419,85455938,488007,0,0.25,0.0,0.36,0.46,0.0,0.0,0,0,0.0,0.0,0.0,0.0,0.0,0,nan,nan,3,0,10
18216000,0,473977418,85455940,488026,0,0.25,0.0,0.36,0.46,0.0,0.0,0,0,0.0,0.0,0.0,0.0,0.0,0,nan,nan,3,0,10
18316000,0,473977419,85455942,488004,0,0.25,0.0,0.36,0.46,0.0,0.0,0,0,0.0,0.0,0.0,0.0,0.0,0,nan,nan,3,0,10
18416000,0,473977420,85455940,488011,0,0.25,0.0,0.35,0.45,0.0,0.0,0,0,0.0,0.0,0.0,0.0,0.0,0,nan,nan,3,0,10
18516000,0,473977418,85455939,487992,0,0.25,0.0,0.35,0.45,0.0,0.0,0,0,0.0,0.0,0.0,0.0,0.0,0,nan,nan,3,0,10
18616000,0,473977418,85455940,487996,0,0.25,0.0,0.35,0.45,0.0,0.0,0,0,0.0,0.0,0.0,0.0,0.0,0,nan,nan,3,0,10
18716000,0,473977419,85455938,487976,0,0.25,0.0,0.35,0.45,0.0,0.0,0,0,0.0,0.0,0.0,0.0,0.0,0,nan,nan,3,0,10
18816000,0,473977418,85455940,487985,0,0.25,0.0,0.34,0.44,0.0,0.0,0,0,0.0,0.0,0.0,0.0,0.0,0,nan,nan,3,0,10
18916000,0,473977419,85455939,487999,0,0.25,0.0,0.34,0.44,0.0,0.0,0,0,0.0,0.0,0.0,-0.04,9.51805,0,nan,nan,3,0,10
19016000,0,473977418,85455940,488019,0,0.25,0.0,0.34,0.44,0.0,0.0,0,0,0.01,0.0,0.0,-0.17,9.58786,0,nan,nan,3,0,10
19116000,0,473977419,85455938,488032,0,0.25,0.0,0.34,0.44,0.0,0.0,0,0,0.02,0.0,-0.02,-0.3,9.60531,0,nan,nan,3,0,10
19216000,0,473977420,85455937,488077,0,0.25,0.0,0.34,0.44,0.0,0.0,0,0,0.02,0.0,-0.02,-0.44,9.62276,0,nan,nan,3,0,10
19316000,0,473977419,85455937,488122,0,0.25,0.0,0.33,0.43,0.0,0.0,0,0,0.03,0.0,-0.03,-0.58,9.62276,0,nan,nan,3,0,10
19416000,0,473977419,85455937,488157,0,0.25,0.0,0.33,0.43,0.0,0.0,0,0,0.03,0.0,-0.03,-0.65,9.62276,0,nan,nan,3,0,10
19516000,0,473977419,85455939,488245,0,0.25,0.0,0.33,0.43,0.0,0.0,0,0,0.03,0.0,-0.03,-0.79,9.65767,0,nan,nan,3,0,10
19616000,0,473977419,85455936,488319,0,0.25,0.0,0.33,0.43,0.0,0.0,0,0,0.02,0.0,-0.02,-0.93,9.67512,0,nan,nan,3,0,10
19716000,0,473977420,85455935,488423,0,0.25,0.0,0.33,0.43,0.0,0.0,0,0,0.02,0.0,-0.02,-1.07,9.72748,0,nan,nan,3,0,10
19816000,0,473977421,85455935,488541,0,0.25,0.0,0.33,0.43,0.0,0.0,0,0,0.02,0.0,-0.02,-1.21,9.79729,0,nan,nan,3,0,10
19916000,0,473977420,85455935,488682,0,0.25,0.0,0.33,0.43,0.0,0.0,0,0,0.01,0.0,-0.01,-1.35,9.8671,0,nan,nan,3,0,10
20016000,0,473977419,85455934,488825,0,0.25,0.0,0.32,0.42,0.0,0.0,0,0,0.01,0.0,-0.01,-1.49,9.8671,0,nan,nan,3,0,10
20116000,0,473977420,85455936,488994,0,0.25,0.0,0.32,0.42,0.0,0.0,0,0,0.01,0.0,-0.01,-1.64,9.8322,0,nan,nan,3,0,10
20216000,0,473977418,85455937,489159,0,0.25,0.0,0.32,0.42,0.0,0.0,0,0,0.0,0.0,0.0,-1.78,9.79729,0,nan,nan,3,0,10
20316000,0,473977418,85455936,489351,0,0.25,0.0,0.32,0.42,0.0,0.0,0,0,0.0,0.0,0.0,-1.92,9.65767,0,nan,nan,3,0,10
20416000,0,473977418,85455936,489569,0,0.25,0.0,0.32,0.42,0.0,0.0,0,0,0.0,0.0,0.0,-2.06,9.01192,0,nan,nan,3,0,10
20516000,0,473977417,85455934,489781,0,0.25,0.0,0.32,0.42,0.0,0.0,0,0,0.0,0.0,0.0,-2.19,2.77499,0,nan,nan,3,0,10
20616000,0,473977419,85455935,490029,0,0.25,0.0,0.32,0.42,0.0,0.0,0,0,0.0,0.0,0.0,-2.33,2.26886,0,nan,nan,3,0,10
20716000,0,473977419,85455934,490155,0,0.25,0.0,0.32,0.42,0.0,0.0,0,0,0.0,0.0,0.0,-2.4,2.07688,0,nan,nan,3,0,10
20816000,0,473977419,85455937,490409,0,0.25,0.0,0.32,0.42,0.0,0.0,0,0,0.0,0.0,0.0,-2.53,1.84999,0,nan,nan,3,0,10
20916000,0,473977418,85455937,490661,0,0.25,0.0,0.31,0.41,0.0,0.0,0,0,0.0,0.0,0.0,-2.52,1.71037,0,nan,nan,3,0,10
21016000,0,473977419,85455937,490929,0,0.25,0.0,0.31,0.41,0.0,0.0,0,0,0.0,0.0,0.0,-2.42,1.60566,0,nan,nan,3,0,10
21116000,0,473977421,85455936,491190,0,0.25,0.0,0.31,0.41,0.0,0.0,0,0,0.01,0.0,0.01,-2.32,1.5882,0,nan,nan,3,0,10
21216000,0,473977420,85455938,491414,0,0.25,0.0,0.31,0.41,0.0,0.0,0,0,0.01,0.0,0.01,-2.23,1.69292,0,nan,nan,3,0,10
21316000,0,473977421,85455936,491636,0,0.25,0.0,0.31,0.41,0.0,0.0,0,0,0.01,0.0,0.0,-2.15,1.79764,0,nan,nan,3,0,10
21416000,0,473977419,85455938,491844,0,0.25,0.0,0.31,0.41,0.0,0.0,0,0,0.01,0.0,0.0,-2.06,1.84999,0,nan,nan,3,0,10
21516000,0,473977419,85455936,492078,0,0.25,0.0,0.31,0.41,0.0,0.0,0,0,0.01,0.0,0.0,-1.99,1.91981,0,nan,nan,3,0,10
21616000,0,473977419,85455937,492260,0,0.25,0.0,0.31,0.41,0.0,0.0,0,0,0.01,0.0,0.0,-1.92,2.02452,0,nan,nan,3,0,10
21716000,0,473977418,85455939,492469,0,0.25,0.0,0.31,0.41,0.0,0.0,0,0,0.01,0.0,0.0,-1.86,2.1816,0,nan,nan,3,0,10
21816000,0,473977419,85455938,492668,0,0.25,0.0,0.31,0.41,0.0,0.0,0,0,0.0,0.0,0.0,-1.8,2.35613,0,nan,nan,3,0,10
21916000,0,473977418,85455937,492860,0,0.25,0.0,0.31,0.41,0.0,0.0,0,0,0.0,0.0,0.0,-1.76,2.56556,0,nan,nan,3,0,10
22016000,0,473977418,85455938,492961,0,0.25,0.0,0.31,0.41,0.0,0.0,0,0,0.0,0.0,0.0,-1.74,2.67027,0,nan,nan,3,0,10
22116000,0,473977418,85455938,493141,0,0.25,0.0,0.31,0.41,0.0,0.0,0,0,0.01,0.0,0.0,-1.7,2.72263,0,nan,nan,3,0,10
22216000,0,473977418,85455939,493300,0,0.25,0.0,0.31,0.41,0.0,0.0,0,0,0.01,0.0,0.0,-1.67,2.70518,0,nan,nan,3,0,10
22316000,0,473977419,85455939,493457,0,0.25,0.0,0.31,0.41,0.0,0.0,0,0,0.0,0.0,0.0,-1.64,2.63537,0,nan,nan,3,0,10
22416000,0,473977417,85455937,493640,0,0.25,0.0,0.31,0.41,0.0,0.0,0,0,0.0,0.0,0.0,-1.61,2.56556,0,nan,nan,3,0,10
22516000,0,473977419,85455940,493800,0,0.25,0.0,0.3,0.4,0.0,0.0,0,0,0.0,0.0,0.0,-1.59,2.46084,0,nan,nan,3,0,10
22616000,0,473977418,85455940,493980,0,0.25,0.0,0.3,0.4,0.0,0.0,0,0,0.0,0.0,0.0,-1.57,2.35613,0,nan,nan,3,0,10
22716000,0,473977419,85455939,494142,0,0.25,0.0,0.3,0.4,0.0,0.0,0,0,0.0,0.0,0.0,-1.56,2.28631,0,nan,nan,3,0,10
22816000,0,473977419,85455937,494291,0,0.25,0.0,0.3,0.4,0.0,0.0,0,0,0.0,0.0,0.0,-1.54,2.14669,0,nan,nan,3,0,10
22916000,0,473977419,85455938,494445,0,0.25,0.0,0.3,0.4,0.0,0.0,0,0,0.0,0.0,0.0,-1.54,1.86745,0,nan,nan,3,0,10
23016000,0,473977419,85455937,494610,0,0.25,0.0,0.3,0.4,0.0,0.0,0,0,0.0,0.0,0.0,-1.53,1.41368,0,nan,nan,3,0,10
23116000,0,473977418,85455939,494770,0,0.25,0.0,0.3,0.4,0.0,0.0,0,0,0.0,0.0,0.0,-1.52,1.08207,0,nan,nan,3,0,10
23216000,0,473977419,85455937,494926,0,0.25,0.0,0.3,0.4,0.0,0.0,0,0,0.0,0.0,0.0,-1.52,0.855186,0,nan,nan,3,0,10
23316000,0,473977419,85455937,495001,0,0.25,0.0,0.3,0.4,0.0,0.0,0,0,0.0,0.0,0.0,-1.51,0.767922,0,nan,nan,3,0,10
23416000,0,473977418,85455934,495182,0,0.25,0.0,0.3,0.4,0.0,0.0,0,0,0.01,0.0,0.0,-1.51,0.680658,0,nan,nan,3,0,10
23516000,0,473977419,85455936,495341,0,0.25,0.0,0.3,0.4,0.0,0.0,0,0,0.01,0.0,0.0,-1.51,0.663206,0,nan,nan,3,0,10
23616000,0,473977419,85455936,495489,0,0.25,0.0,0.3,0.4,0.0,0.0,0,0,0.01,0.01,0.0,-1.5,0.680658,0,nan,nan,3,0,10
23716000,0,473977418,85455937,495649,0,0.25,0.0,0.3,0.4,0.0,0.0,0,0,0.01,0.01,0.01,-1.5,0.733017,0,nan,nan,3,0,10
23816000,0,473977420,85455936,495795,0,0.25,0.0,0.3,0.4,0.0,0.0,0,0,0.01,0.01,0.01,-1.5,0.785375,0,nan,nan,3,0,10
23916000,0,473977420,85455937,495948,0,0.25,0.0,0.3,0.4,0.0,0.0,0,0,0.02,0.01,0.01,-1.5,0.837733,0,nan,nan,3,0,10
24016000,0,473977419,85455940,496098,0,0.25,0.0,0.3,0.4,0.0,0.0,0,0,0.02,0.01,0.01,-1.49,0.855186,0,nan,nan,3,0,10
24116000,0,473977419,85455939,496255,0,0.25,0.0,0.3,0.4,0.0,0.0,0,0,0.02,0.01,0.02,-1.49,0.855186,0,nan,nan,3,0,10
24216000,0,473977420,85455939,496410,0,0.25,0.0,0.3,0.4,0.0,0.0,0,0,0.03,0.01,0.02,-1.49,0.855186,0,nan,nan,3,0,10
24316000,0,473977420,85455940,496567,0,0.25,0.0,0.3,0.4,0.0,0.0,0,0,0.03,0.02,0.02,-1.49,0.872639,0,nan,nan,3,0,10
24416000,0,473977419,85455938,496741,0,0.25,0.0,0.3,0.4,0.0,0.0,0,0,0.03,0.02,0.02,-1.49,0.907544,0,nan,nan,3,0,10
24516000,0,473977419,85455939,496883,0,0.25,0.0,0.3,0.4,0.0,0.0,0,0,0.03,0.02,0.02,-1.49,0.924997,0,nan,nan,3,0,10
24616000,0,473977419,85455941,496958,0,0.25,0.0,0.3,0.4,0.0,0.0,0,0,0.03,0.02,0.02,-1.5,0.94245,0,nan,nan,3,0,10
24716000,0,473977420,85455942,497129,0,0.25,0.0,0.3,0.4,0.0,0.0,0,0,0.03,0.02,0.02,-1.5,0.959903,0,nan,nan,3,0,10
24816000,0,473977420,85455943,497276,0,0.25,0.0,0.3,0.4,0.0,0.0,0,0,0.03,0.02,0.02,-1.5,0.959903,0,nan,nan,3,0,10
24916000,0,473977420,85455942,497446,0,0.25,0.0,0.3,0.4,0.0,0.0,0,0,0.03,0.02,0.03,-1.5,0.94245,0,nan,nan,3,0,10
25016000,0,473977421,85455942,497595,0,0.25,0.0,0.3,0.4,0.0,0.0,0,0,0.03,0.02,0.03,-1.5,0.924997,0,nan,nan,3,0,10
25116000,0,473977420,85455942,497751,0,0.25,0.0,0.3,0.4,0.0,0.0,0,0,0.03,0.02,0.03,-1.5,0.872639,0,nan,nan,3,0,10
25216000,0,473977418,85455942,497884,0,0.25,0.0,0.3,0.4,0.0,0.0,0,0,0.03,0.02,0.02,-1.5,0.820281,0,nan,nan,3,0,10
25316000,0,473977420,85455944,498064,0,0.25,0.0,0.3,0.4,0.0,0.0,0,0,0.03,0.02,0.02,-1.5,0.767922,0,nan,nan,3,0,10
25416000,0,473977420,85455944,498235,0,0.25,0.0,0.3,0.4,0.0,0.0,0,0,0.03,0.02,0.02,-1.52,0.698111,0,nan,nan,3,0,10
25516000,0,473977421,85455945,498384,0,0.25,0.0,0.3,0.4,0.0,0.0,0,0,0.03,0.02,0.01,-1.62,0.6283,0,nan,nan,3,0,10
25616000,0,473977422,85455943,498557,0,0.25,0.0,0.3,0.4,0.0,0.0,0,0,0.03,0.02,0.01,-1.8,0.558489,0,nan,nan,3,0,10
25716000,0,473977422,85455946,498761,0,0.25,0.0,0.3,0.4,0.0,0.0,0,0,0.03,0.02,0.01,-2.09,0.471225,0,nan,nan,3,0,10
25816000,0,473977422,85455944,499006,0,0.25,0.0,0.3,0.4,0.0,0.0,0,0,0.03,0.02,0.01,-2.43,0.383961,0,nan,nan,3,0,10
25916000,0,473977424,85455944,499137,0,0.25,0.0,0.3,0.4,0.0,0.0,0,0,0.03,0.02,0.01,-2.6,0.331603,0,nan,nan,3,0,10
26016000,0,473977423,85455945,499414,0,0.25,0.0,0.3,0.4,0.0,0.0,0,0,0.03,0.03,0.0,-2.87,0.244339,0,nan,nan,3,0,10
26116000,0,473977424,85455945,499712,0,0.25,0.0,0.3,0.4,0.0,0.0,0,0,0.03,0.03,0.0,-3.03,0.157075,0,nan,nan,3,0,10
26216000,0,473977423,85455948,500044,0,0.25,0.0,0.3,0.4,0.0,0.0,0,0,0.03,0.03,0.0,-3.05,0.104717,0,nan,nan,3,0,10
26316000,0,473977423,85455947,500363,0,0.25,0.0,0.3,0.4,0.0,0.0,0,0,0.03,0.03,0.0,-3.06,0.0174528,0,nan,nan,3,0,10
26416000,0,473977424,85455947,500679,0,0.25,0.0,0.3,0.4,0.0,0.0,0,0,0.03,0.03,0.0,-3.07,11.3855,0,nan,nan,3,0,10
26516000,0,473977426,85455946,501001,0,0.25,0.0,0.3,0.4,0.0,0.0,0,0,0.02,0.02,0.0,-3.08,11.368,0,nan,nan,3,0,10
26616000,0,473977424,85455945,501319,0,0.25,0.0,0.3,0.4,0.0,0.0,0,0,0.02,0.02,0.0,-3.08,11.368,0,nan,nan,3,0,10
26716000,0,473977426,85455943,501639,0,0.25,0.0,0.3,0.4,0.0,0.0,0,0,0.02,0.02,0.0,-3.07,11.4029,0,nan,nan,3,0,10
26816000,0,473977426,85455946,501961,0,0.25,0.0,0.3,0.4,0.0,0.0,0,0,0.02,0.02,0.0,-3.07,11.368,0,nan,nan,3,0,10
26916000,0,473977426,85455945,502256,0,0.25,0.0,0.3,0.4,0.0,0.0,0,0,0.01,0.01,0.0,-3.06,11.368,0,nan,nan,3,0,10
27016000,0,473977426,85455946,502591,0,0.25,0.0,0.3,0.4,0.0,0.0,0,0,0.01,0.01,0.0,-3.06,11.3331,0,nan,nan,3,0,10
27116000,0,473977425,85455946,502915,0,0.25,0.0,0.3,0.4,0.0,0.0,0,0,0.01,0.01,0.0,-3.05,11.2459,0,nan,nan,3,0,10
27216000,0,473977425,85455945,503072,0,0.25,0.0,0.3,0.4,0.0,0.0,0,0,0.0,0.0,0.0,-3.04,11.1761,0,nan,nan,3,0,10
27316000,0,473977425,85455944,503397,0,0.25,0.0,0.3,0.4,0.0,0.0,0,0,0.0,0.0,0.0,-3.03,10.8445,0,nan,nan,3,0,10
27416000,0,473977425,85455945,503708,0,0.25,0.0,0.3,0.4,0.0,0.0,0,0,0.0,0.0,0.0,-3.03,10.3034,0,nan,nan,3,0,10
27516000,0,473977426,85455944,504019,0,0.25,0.0,0.3,0.4,0.0,0.0,0,0,0.0,0.0,0.0,-3.02,9.8671,0,nan,nan,3,0,10
27616000,0,473977425,85455945,504325,0,0.25,0.0,0.3,0.4,0.0,0.0,0,0,0.0,0.0,0.0,-3.01,9.44824,0,nan,nan,3,0,10
27716000,0,473977425,85455945,504644,0,0.25,0.0,0.3,0.4,0.0,0.0,0,0,0.0,0.0,0.0,-3.01,9.08173,0,nan,nan,3,0,10
27816000,0,473977425,85455943,504953,0,0.25,0.0,0.3,0.4,0.0,0.0,0,0,0.0,0.0,0.0,-3.0,8.87229,0,nan,nan,3,0,10
27916000,0,473977426,85455945,505258,0,0.25,0.0,0.3,0.4,0.0,0.0,0,0,0.01,-0.01,0.0,-3.0,8.78503,0,nan,nan,3,0,10
