timestamp,states[0],states[1],states[2],states[3],states[4],states[5],states[6],states[7],states[8],states[9],states[10],states[11],states[12],states[13],states[14],states[15],states[16],states[17],states[18],states[19],states[20],states[21],states[22],states[23],vibe[0],vibe[1],vibe[2],covariances[0],covariances[1],covariances[2],covariances[3],covariances[4],covariances[5],covariances[6],covariances[7],covariances[8],covariances[9],covariances[10],covariances[11],covariances[12],covariances[13],covariances[14],covariances[15],covariances[16],covariances[17],covariances[18],covariances[19],covariances[20],covariances[21],covariances[22],covariances[23],control_mode_flags,pos_horiz_accuracy,pos_vert_accuracy,mag_test_ratio,vel_test_ratio,pos_test_ratio,hgt_test_ratio,tas_test_ratio,hagl_test_ratio,beta_test_ratio,time_slip,gps_check_fail_flags,filter_fault_flags,innovation_check_flags,solution_status_flags,n_states,pre_flt_fail,health_flags,timeout_flags
1260000,0.999996,-0.000475608,2.51195e-05,0.00295277,0.00244464,-0.00246247,8.96603e-05,0.000230641,-0.000136983,-0.000817129,-5.0804e-11,-5.64233e-11,-6.06317e-08,2.13594e-08,-4.17595e-09,-1.27181e-07,0.896669,0.0401479,1.0,0.0,0.0,0.0,0.0,0.0,1.31234e-09,4.173e-05,0.000236356,4.64119e-09,3.05891e-05,3.05893e-05,0.000780562,0.657625,0.657625,0.542921,0.0480874,0.0480874,0.220293,6.40022e-09,6.40022e-09,6.39543e-09,2.55928e-06,2.55928e-06,2.55951e-06,0.0,0.0,0.0,0.0,0.0,0.0,0.0,0.0,531,0.310121,0.469353,0.00397317,0.0,4.22192e-06,0.00455303,0.0,0.0,0.0,0.0,0,0,0,165,24,0,0,0
1452000,0.999996,-0.000204158,-7.38792e-05,0.00288036,0.00127856,-0.00317838,0.00286413,0.000322493,-0.000369846,0.00428343,-7.4341e-10,-8.3881e-10,-5.22393e-08,1.17215e-07,-8.85983e-08,-1.02068e-06,0.896669,0.0401479,1.0,0.0,0.0,0.0,0.0,0.0,1.27075e-09,4.22365e-05,0.000227612,3.45036e-09,3.60413e-05,3.60413e-05,0.000597542,0.233791,0.233791,0.503165,0.0329117,0.0329117,0.186557,6.40012e-09,6.40012e-09,6.3878e-09,2.55638e-06,2.55638e-06,2.55727e-06,0.0,0.0,0.0,0.0,0.0,0.0,0.0,0.0,531,0.256561,0.431923,0.00208359,0.0,7.38082e-06,0.00625361,0.0,0.0,0.0,0.0,0,0,0,165,24,0,0,0
1644000,0.999995,-0.000148446,-0.000119241,0.00329198,0.00197642,-0.00275227,-0.00412641,0.000389881,-0.000537345,-0.00348039,-3.75266e-09,-2.99317e-09,-1.18122e-07,3.16083e-07,-3.61426e-07,9.77862e-07,0.896669,0.0401479,1.0,0.0,0.0,0.0,0.0,0.0,1.51621e-09,4.58582e-05,0.000232854,3.26956e-09,4.33047e-05,4.33047e-05,0.000485834,0.113909,0.113909,0.443124,0.025025,0.025025,0.178657,6.39909e-09,6.39909e-09,6.37494e-09,2.54734e-06,2.54734e-06,2.55107e-06,0.0,0.0,0.0,0.0,0.0,0.0,0.0,0.0,531,0.223719,0.422679,0.000256657,0.0,1.13288e-05,0.00222817,0.0,0.0,0.0,0.0,0,0,0,165,24,0,0,0
1836000,0.999993,-8.1593e-05,2.39177e-05,0.00368115,0.00156901,-0.00184503,0.00207941,0.000418807,-0.000592699,0.00200992,-1.12994e-08,-7.98659e-09,-2.03234e-07,6.78878e-07,-9.02534e-07,-1.74086e-06,0.896669,0.0401479,1.0,0.0,0.0,0.0,0.0,0.0,1.54833e-09,4.58362e-05,0.000247806,3.24523e-09,5.23179e-05,5.2318e-05,0.000411204,0.0709475,0.0709475,0.374362,0.0204293,0.0204293,0.17736,6.39499e-09,6.39499e-09,6.35579e-09,2.52593e-06,2.52593e-06,2.53904e-06,0.0,0.0,0.0,0.0,0.0,0.0,0.0,0.0,531,0.202135,0.421141,0.00625318,0.0,1.237e-05,0.012712,0.0,0.0,0.0,0.0,0,0,0,165,24,0,0,0
2028000,0.999993,-0.000174242,0.000166059,0.00377986,-0.000383632,-0.00106254,0.00766975,0.000393424,-0.000482886,0.00938621,-2.11785e-08,-1.59156e-08,-1.61132e-07,1.15472e-06,-1.49832e-06,-5.23738e-06,0.896669,0.0401479,1.0,0.0,0.0,0.0,0.0,0.0,1.36402e-09,4.43746e-05,0.000246004,3.24674e-09,6.29853e-05,6.29853e-05,0.000364189,0.0571044,0.0571043,0.31685,0.0188924,0.0188924,0.183449,6.38467e-09,6.38467e-09,6.33256e-09,2.48873e-06,2.48873e-06,2.52243e-06,0.0,0.0,0.0,0.0,0.0,0.0,0.0,0.0,531,0.194383,0.42831,0.0037405,0.0,9.69256e-06,0.00508048,0.0,0.0,0.0,0.0,0,0,0,165,24,0,0,0
2220000,0.999993,-0.000380793,8.40834e-05,0.00361665,-0.00416844,0.000121754,0.00526726,-0.000181536,-0.000275704,0.00672247,-3.23832e-08,-1.9223e-08,-8.49617e-08,1.33428e-06,-2.07953e-06,-2.69798e-06,0.896669,0.0401479,1.0,0.0,0.0,0.0,0.0,0.0,1.29685e-09,4.43612e-05,0.000229049,2.79612e-09,7.49646e-05,7.49647e-05,0.000324143,0.0512228,0.0512228,0.259554,0.0168299,0.0168299,0.178478,6.35699e-09,6.35699e-09,6.29841e-09,2.41662e-06,2.41662e-06,2.4966e-06,0.0,0.0,0.0,0.0,0.0,0.0,0.0,0.0,531,0.183466,0.422467,0.00053498,0.0,5.73764e-06,0.00106826,0.0,0.0,0.0,0.0,0,0,0,165,24,0,0,0
2412000,0.999993,-0.000387582,0.000120205,0.0036366,-0.0061036,-0.00176391,0.00703315,-0.000934265,-0.00028582,0.0112184,-4.39451e-08,1.07031e-08,-1.78468e-07,4.20283e-08,-2.58263e-06,-4.52783e-06,0.896669,0.0401479,1.0,0.0,0.0,0.0,0.0,0.0,1.36025e-09,4.39844e-05,0.00021677,2.47732e-09,8.77516e-05,8.77516e-05,0.000293983,0.050621,0.050621,0.213899,0.0155852,0.0155852,0.170962,6.29767e-09,6.29767e-09,6.25454e-09,2.30271e-06,2.30271e-06,2.46246e-06,0.0,0.0,0.0,0.0,0.0,0.0,0.0,0.0,531,0.176552,0.413475,0.00898796,0.0,1.92964e-05,0.00791543,0.0,0.0,0.0,0.0,0,0,0,165,24,0,0,0
2604000,0.999994,-0.000550545,2.31445e-05,0.00348098,-0.00551438,-0.00416384,0.00662407,-0.00139024,-0.000669923,0.0107349,-6.83506e-08,7.60458e-08,-1.15144e-07,-2.46867e-06,-3.5156e-06,-2.75578e-06,0.896669,0.0401479,1.0,0.0,0.0,0.0,0.0,0.0,1.35664e-09,4.4106e-05,0.000217572,2.2073e-09,0.00010114,0.00010114,0.000274168,0.0541069,0.0541069,0.185145,0.0159685,0.0159685,0.16966,6.20824e-09,6.20824e-09,6.20708e-09,2.17029e-06,2.17029e-06,2.42551e-06,0.0,0.0,0.0,0.0,0.0,0.0,0.0,0.0,531,0.178709,0.411898,0.00185866,0.0,2.69715e-05,0.0079693,0.0,0.0,0.0,0.0,0,0,0,165,24,0,0,0
2796000,0.999994,-0.000450334,2.46029e-05,0.00341967,-0.00634772,-0.0039425,0.00369095,-0.0016296,-0.00104515,0.00937068,-1.32433e-07,1.88556e-07,-2.4047e-08,-6.26673e-06,-5.66875e-06,-2.64192e-07,0.896669,0.0401479,1.0,0.0,0.0,0.0,0.0,0.0,1.3371e-09,4.34996e-05,0.000222305,2.1049e-09,0.000113819,0.000113819,0.000255817,0.055587,0.055587,0.160023,0.0157429,0.0157429,0.16083,6.05596e-09,6.05596e-09,6.14357e-09,1.9966e-06,1.9966e-06,2.37577e-06,0.0,0.0,0.0,0.0,0.0,0.0,0.0,0.0,531,0.177442,0.401036,0.0036379,0.0,3.26262e-05,0.000729702,0.0,0.0,0.0,0.0,0,0,0,165,24,0,0,0
2988000,0.999994,-0.000283484,-6.8068e-06,0.00346743,-0.0052593,-0.00466351,-0.00137243,-0.00185905,-0.0012142,0.00429845,-2.31737e-07,3.45569e-07,-4.43629e-08,-1.08621e-05,-8.57553e-06,5.77761e-06,0.896669,0.0401479,1.0,0.0,0.0,0.0,0.0,0.0,1.25379e-09,4.24132e-05,0.000212923,2.07996e-09,0.000125468,0.000125468,0.000241516,0.0556683,0.0556683,0.142428,0.01568,0.01568,0.152686,5.84813e-09,5.84813e-09,6.06892e-09,1.8178e-06,1.8178e-06,2.31648e-06,0.0,0.0,0.0,0.0,0.0,0.0,0.0,0.0,531,0.177087,0.390751,7.41737e-05,0.0,3.84054e-05,0.00814979,0.0,0.0,0.0,0.0,0,0,0,165,24,0,0,0
3180000,0.999994,-0.000335264,-6.73718e-05,0.00348705,-0.00514419,-0.0065995,0.000711709,-0.00191237,-0.00164054,0.00470285,-3.49435e-07,5.05437e-07,-3.94781e-08,-1.49289e-05,-1.15574e-05,6.06924e-06,0.896669,0.0401479,1.0,0.0,0.0,0.0,0.0,0.0,1.32306e-09,4.41695e-05,0.000227534,2.09624e-09,0.000136904,0.000136904,0.000232726,0.0563982,0.0563982,0.133495,0.0166336,0.0166336,0.151014,5.62502e-09,5.62502e-09,5.99296e-09,1.67349e-06,1.67349e-06,2.25501e-06,0.0,0.0,0.0,0.0,0.0,0.0,0.0,0.0,531,0.182393,0.388605,0.000321943,0.0,3.76955e-05,0.00722692,0.0,0.0,0.0,0.0,0,0,0,165,24,0,0,0
3372000,0.999994,-0.000307422,-0.00010388,0.00344884,-0.00417821,-0.00396805,-0.00813973,-0.00177445,-0.00167577,-0.00858226,-5.26439e-07,6.97714e-07,-1.4687e-08,-1.90615e-05,-1.53642e-05,2.36211e-05,0.896669,0.0401479,1.0,0.0,0.0,0.0,0.0,0.0,1.23548e-09,4.36637e-05,0.00023053,2.03887e-09,0.000145952,0.000145952,0.000223824,0.0527541,0.0527541,0.124591,0.016218,0.016218,0.143947,5.33596e-09,5.33596e-09,5.89656e-09,1.53928e-06,1.53929e-06,2.17322e-06,0.0,0.0,0.0,0.0,0.0,0.0,0.0,0.0,531,0.1801,0.379403,0.00170362,0.0,3.66992e-05,0.00052436,0.0,0.0,0.0,0.0,0,0,0,165,24,0,0,0
3564000,0.999995,-0.000527516,-0.000109843,0.00327206,-0.00105274,-0.00477175,-0.013299,-0.00135867,-0.00159867,-0.01506,-6.9815e-07,8.65636e-07,6.83579e-08,-2.20422e-05,-1.83989e-05,2.91422e-05,0.896669,0.0401479,1.0,0.0,0.0,0.0,0.0,0.0,1.12999e-09,4.22614e-05,0.000223324,1.89252e-09,0.000154223,0.000154223,0.000216926,0.0487513,0.0487513,0.118682,0.0157533,0.0157533,0.13819,5.03944e-09,5.03944e-09,5.78933e-09,1.44628e-06,1.44628e-06,2.0809e-06,0.0,0.0,0.0,0.0,0.0,0.0,0.0,0.0,531,0.177501,0.37174,0.00157692,0.0,3.30309e-05,0.00196107,0.0,0.0,0.0,0.0,0,0,0,165,24,0,0,0
3756000,0.999994,-0.00039609,2.9409e-06,0.00341492,0.000401436,-0.00464998,-0.0175545,-0.000776929,-0.00159567,-0.0225645,-8.44608e-07,9.63332e-07,-5.44021e-09,-2.343e-05,-2.04651e-05,3.67983e-05,0.896669,0.0401479,1.0,0.0,0.0,0.0,0.0,0.0,1.23614e-09,4.47545e-05,0.000220911,2.0302e-09,0.000163117,0.000163117,0.000211614,0.0468483,0.0468483,0.117158,0.0162552,0.0162552,0.138239,4.77422e-09,4.77422e-09,5.67138e-09,1.39338e-06,1.39338e-06,1.98993e-06,0.0,0.0,0.0,0.0,0.0,0.0,0.0,0.0,531,0.180306,0.371804,0.00157575,0.0,3.1397e-05,0.014501,0.0,0.0,0.0,0.0,0,0,0,165,24,0,0,0
3948000,0.999994,-0.000365229,0.000176574,0.0035746,0.000566509,-0.00491338,-0.00920048,-0.000394533,-0.00162023,-0.0118509,-1.00917e-06,1.02403e-06,3.62679e-07,-2.40963e-05,-2.22074e-05,1.48329e-05,0.896669,0.0401479,1.0,0.0,0.0,0.0,0.0,0.0,1.30389e-09,4.51875e-05,0.000211985,2.45519e-09,0.000169893,0.000169893,0.000207567,0.0430072,0.0430072,0.114154,0.0156691,0.0156691,0.134356,4.47728e-09,4.47728e-09,5.54344e-09,1.35956e-06,1.35956e-06,1.87838e-06,0.0,0.0,0.0,0.0,0.0,0.0,0.0,0.0,531,0.177026,0.366546,0.00806587,0.0,3.26399e-05,0.00682952,0.0,0.0,0.0,0.0,0,0,0,165,24,0,0,0
4140000,0.999994,-0.000322748,0.000104793,0.00355363,0.00111085,-0.00173748,-0.00655548,-0.00017979,-0.00144692,-0.00981575,-1.17259e-06,1.05397e-06,4.02585e-07,-2.43169e-05,-2.33738e-05,7.97693e-06,0.896669,0.0401479,1.0,0.0,0.0,0.0,0.0,0.0,1.12227e-09,4.39225e-05,0.000209904,2.47476e-09,0.00017569,0.00017569,0.000206396,0.0396405,0.0396405,0.111676,0.0150844,0.0150844,0.131277,4.18187e-09,4.18187e-09,5.42172e-09,1.34429e-06,1.34429e-06,1.75833e-06,0.0,0.0,0.0,0.0,0.0,0.0,0.0,0.0,531,0.173692,0.362321,0.00218359,0.0,2.98511e-05,0.0133616,0.0,0.0,0.0,0.0,0,0,0,165,24,0,0,0
4332000,0.999994,-0.000225008,0.00014324,0.00343042,0.00360331,-0.00282211,-0.003421,0.000142436,-0.00120883,-0.00469417,-1.28994e-06,1.05928e-06,5.52999e-07,-2.43465e-05,-2.38502e-05,-2.33339e-06,0.896669,0.0401479,1.0,0.0,0.0,0.0,0.0,0.0,1.12319e-09,4.26036e-05,0.000209455,2.38697e-09,0.000181983,0.000181983,0.000204084,0.0384418,0.0384418,0.111596,0.0154415,0.0154415,0.133132,3.92068e-09,3.92068e-09,5.27672e-09,1.33986e-06,1.33986e-06,1.64628e-06,0.0,0.0,0.0,0.0,0.0,0.0,0.0,0.0,531,0.175736,0.364873,0.000716166,0.0,2.404e-05,0.00530406,0.0,0.0,0.0,0.0,0,0,0,165,24,0,0,0
4524000,0.999995,-0.000178897,0.00010844,0.00311798,0.00125118,-0.00273486,0.00256305,0.000408151,-0.00111763,0.0021691,-1.41091e-06,1.02592e-06,5.3114e-07,-2.43168e-05,-2.39856e-05,-1.51578e-05,0.896669,0.0401479,1.0,0.0,0.0,0.0,0.0,0.0,1.14903e-09,4.37048e-05,0.000216879,1.98578e-09,0.000185028,0.000185028,0.000202381,0.0358052,0.0358052,0.108796,0.0148068,0.0148068,0.130779,3.62236e-09,3.62236e-09,5.12417e-09,1.33925e-06,1.33925e-06,1.51511e-06,0.0,0.0,0.0,0.0,0.0,0.0,0.0,0.0,531,0.172086,0.361633,0.00840047,0.0,2.30461e-05,0.00341866,0.0,0.0,0.0,0.0,0,0,0,165,24,0,0,0
4716000,0.999995,-2.65475e-05,0.000183328,0.00318811,0.00361125,-0.00150019,0.00454947,0.000541654,-0.000988128,0.0034455,-1.5244e-06,9.7791e-07,3.95576e-07,-2.43943e-05,-2.3811e-05,-1.5923e-05,0.896669,0.0401479,1.0,0.0,0.0,0.0,0.0,0.0,1.15676e-09,4.39301e-05,0.000211691,2.05091e-09,0.000186495,0.000186495,0.000202955,0.0336451,0.0336451,0.105579,0.0142237,0.0142237,0.128617,3.32653e-09,3.32653e-09,4.98325e-09,1.33837e-06,1.33837e-06,1.38263e-06,0.0,0.0,0.0,0.0,0.0,0.0,0.0,0.0,531,0.168663,0.358632,0.0034027,0.0,2.0352e-05,0.0101838,0.0,0.0,0.0,0.0,0,0,0,165,24,0,0,0
4908000,0.999994,0.000126226,-3.22844e-05,0.00340545,0.00219469,0.00100734,-0.00266026,0.000738011,-0.000741719,-0.007786,-1.60668e-06,9.15953e-07,2.42821e-07,-2.46375e-05,-2.3505e-05,5.77479e-06,0.896669,0.0401479,1.0,0.0,0.0,0.0,0.0,0.0,1.23491e-09,4.42093e-05,0.000221747,2.27417e-09,0.000188237,0.000188237,0.000202028,0.0332102,0.0332102,0.104148,0.0145255,0.0145255,0.130781,3.06597e-09,3.06597e-09,4.81978e-09,1.33434e-06,1.33434e-06,1.26642e-06,0.0,0.0,0.0,0.0,0.0,0.0,0.0,0.0,531,0.170444,0.361636,0.00354602,0.0,1.54265e-05,0.0197834,0.0,0.0,0.0,0.0,0,0,0,165,24,0,0,0
5100000,0.999994,0.000140312,6.79877e-05,0.00354252,-0.00107764,0.00358522,-0.00943064,0.000525745,-0.000167492,-0.0171317,-1.65314e-06,8.46288e-07,-2.47447e-08,-2.50482e-05,-2.32464e-05,2.04198e-05,0.896669,0.0401479,1.0,0.0,0.0,0.0,0.0,0.0,1.20762e-09,4.43556e-05,0.000206002,2.4025e-09,0.000186197,0.000186197,0.000203112,0.0316556,0.0316556,0.0999793,0.0140199,0.0140199,0.128632,2.77686e-09,2.77687e-09,4.67041e-09,1.32402e-06,1.32402e-06,1.13961e-06,0.0,0.0,0.0,0.0,0.0,0.0,0.0,0.0,531,0.167451,0.358653,6.06086e-06,0.0,1.09985e-05,0.00171463,0.0,0.0,0.0,0.0,0,0,0,165,24,0,0,0
5292000,0.999993,0.000263971,-7.07743e-05,0.00379385,-0.00185063,0.00463052,-0.00478816,6.24547e-05,0.000509558,-0.010311,-1.6319e-06,8.20305e-07,9.63407e-08,-2.52452e-05,-2.34168e-05,5.69448e-06,0.896669,0.0401479,1.0,0.0,0.0,0.0,0.0,0.0,1.3578e-09,4.56273e-05,0.000227084,2.84589e-09,0.000182599,0.000182599,0.000202475,0.0304284,0.0304284,0.0955859,0.0136297,0.0136297,0.126626,2.49875e-09,2.49875e-09,4.49902e-09,1.3067e-06,1.3067e-06,1.02031e-06,0.0,0.0,0.0,0.0,0.0,0.0,0.0,0.0,531,0.165104,0.355845,0.00208238,0.0,1.0481e-05,0.00051953,0.0,0.0,0.0,0.0,0,0,0,165,24,0,0,0
5484000,0.999993,0.000289434,1.98411e-05,0.00373706,-0.00142921,0.00503552,-0.00629566,-0.000140993,0.00100157,-0.0120119,-1.55022e-06,8.26375e-07,3.04968e-08,-2.51857e-05,-2.42094e-05,6.86954e-06,0.896669,0.0401479,1.0,0.0,0.0,0.0,0.0,0.0,1.44031e-09,4.60577e-05,0.000227151,2.76596e-09,0.000177362,0.000177362,0.000201913,0.0293433,0.0293433,0.0909768,0.0133054,0.0133054,0.124626,2.2313e-09,2.2313e-09,4.3263e-09,1.282e-06,1.282e-06,9.09331e-07,0.0,0.0,0.0,0.0,0.0,0.0,0.0,0.0,531,0.163128,0.353024,0.00358993,0.0,2.05861e-05,0.0021147,0.0,0.0,0.0,0.0,0,0,0,165,24,0,0,0
5676000,0.999993,-3.01841e-05,-6.58964e-06,0.00388575,-0.00139027,0.00818076,-0.00295636,-0.000278104,0.00159273,-0.0109441,-1.43841e-06,8.44964e-07,-1.50874e-07,-2.49795e-05,-2.5451e-05,3.50434e-06,0.896669,0.0401479,1.0,0.0,0.0,0.0,0.0,0.0,1.37062e-09,4.57049e-05,0.000225848,2.94221e-09,0.000172853,0.000172853,0.000201372,0.029364,0.0293639,0.088088,0.0137371,0.0137371,0.126455,2.00361e-09,2.00361e-09,4.15354e-09,1.25405e-06,1.25405e-06,8.18061e-07,0.0,0.0,0.0,0.0,0.0,0.0,0.0,0.0,531,0.165754,0.355605,0.0088367,0.0,3.01354e-05,0.00773583,0.0,0.0,0.0,0.0,0,0,0,165,24,0,0,0
5868000,0.999993,-5.62027e-05,-0.000104546,0.00377255,0.00145116,0.00745505,-0.00309993,-0.000215677,0.00220993,-0.0140669,-1.2556e-06,8.70948e-07,-1.77157e-07,-2.46586e-05,-2.77261e-05,7.25333e-06,0.896669,0.0401479,1.0,0.0,0.0,0.0,0.0,0.0,1.27836e-09,4.48997e-05,0.000215802,2.8121e-09,0.000164786,0.000164786,0.000202618,0.0282137,0.0282137,0.0831118,0.013427,0.013427,0.12413,1.76191e-09,1.76191e-09,4.0007e-09,1.21688e-06,1.21688e-06,7.24041e-07,0.0,0.0,0.0,0.0,0.0,0.0,0.0,0.0,531,0.163872,0.352321,0.016282,0.0,4.41907e-05,0.00148425,0.0,0.0,0.0,0.0,0,0,0,165,24,0,0,0
6060000,0.999993,-0.000134407,0.000139106,0.00378416,0.00294077,0.00913462,-0.00394981,0.000196438,0.00262409,-0.0160022,-1.03449e-06,8.69802e-07,-3.43133e-07,-2.46794e-05,-3.07551e-05,9.69211e-06,0.896669,0.0401479,1.0,0.0,0.0,0.0,0.0,0.0,1.36058e-09,4.41576e-05,0.000222672,2.78941e-09,0.000155781,0.000155781,0.000201981,0.0270276,0.0270276,0.0781323,0.0131174,0.0131174,0.121672,1.53834e-09,1.53834e-09,3.83052e-09,1.17509e-06,1.17509e-06,6.39236e-07,0.0,0.0,0.0,0.0,0.0,0.0,0.0,0.0,531,0.161972,0.348815,0.00114537,0.0,5.3915e-05,0.000859426,0.0,0.0,0.0,0.0,0,0,0,165,24,0,0,0
6252000,0.999993,-3.96556e-05,0.000250351,0.00383694,0.0021865,0.008501,-0.00388258,0.000499558,0.00306813,-0.0128605,-8.14588e-07,8.40745e-07,-3.99259e-07,-2.511e-05,-3.40018e-05,3.83008e-06,0.896669,0.0401479,1.0,0.0,0.0,0.0,0.0,0.0,1.41499e-09,4.40116e-05,0.000229915,2.87316e-09,0.000148435,0.000148435,0.000201254,0.0268199,0.0268199,0.0748374,0.0135128,0.0135128,0.122802,1.35682e-09,1.35683e-09,3.66301e-09,1.13547e-06,1.13547e-06,5.71478e-07,0.0,0.0,0.0,0.0,0.0,0.0,0.0,0.0,531,0.164395,0.35043,0.00572945,0.0,6.01805e-05,0.00176726,0.0,0.0,0.0,0.0,0,0,0,165,24,0,0,0
6444000,0.999993,-0.000207421,9.47776e-05,0.00366785,0.00331891,0.00519989,-0.00985923,0.00074072,0.00301533,-0.0198504,-5.65536e-07,7.88661e-07,-3.44461e-08,-2.59334e-05,-3.79385e-05,1.22507e-05,0.896669,0.0401479,1.0,0.0,0.0,0.0,0.0,0.0,1.3482e-09,4.33583e-05,0.000230328,2.82857e-09,0.000138576,0.000138576,0.000202229,0.0255242,0.0255242,0.0699826,0.0131785,0.0131785,0.120028,1.17247e-09,1.17247e-09,3.51702e-09,1.08949e-06,1.08949e-06,5.0334e-07,0.0,0.0,0.0,0.0,0.0,0.0,0.0,0.0,531,0.162348,0.346451,0.00848606,0.0,6.10315e-05,0.000901829,0.0,0.0,0.0,0.0,0,0,0,165,24,0,0,0
6636000,0.999993,-6.85682e-05,0.00024149,0.00372876,0.00383323,0.00351132,-0.0122437,0.00100045,0.00260995,-0.0262703,-3.46959e-07,7.19344e-07,-1.43217e-07,-2.71007e-05,-4.16108e-05,1.8181e-05,0.896669,0.0401479,1.0,0.0,0.0,0.0,0.0,0.0,1.37041e-09,4.41863e-05,0.000228551,2.8896e-09,0.000128845,0.000128845,0.000201268,0.0242179,0.024218,0.0653509,0.0128525,0.0128525,0.117236,1.00987e-09,1.00987e-09,3.35657e-09,1.04362e-06,1.04362e-06,4.43306e-07,0.0,0.0,0.0,0.0,0.0,0.0,0.0,0.0,531,0.160328,0.342397,0.00339284,0.0,5.30026e-05,0.00337403,0.0,0.0,0.0,0.0,0,0,0,165,24,0,0,0
6828000,0.999994,-3.73788e-05,0.000353189,0.00356547,0.00295593,0.00286208,-0.00949857,0.00110917,0.00209263,-0.022323,-1.77287e-07,6.38905e-07,4.05843e-08,-2.8525e-05,-4.46118e-05,1.03411e-05,0.896669,0.0401479,1.0,0.0,0.0,0.0,0.0,0.0,1.33915e-09,4.45379e-05,0.000238721,2.75154e-09,0.000119413,0.000119413,0.000200189,0.0229177,0.0229177,0.060954,0.0125219,0.0125219,0.114415,8.67568e-10,8.67569e-10,3.20076e-09,9.98846e-07,9.98847e-07,3.90544e-07,0.0,0.0,0.0,0.0,0.0,0.0,0.0,0.0,531,0.158252,0.338253,3.43391e-05,0.0,4.29419e-05,0.00302283,0.0,0.0,0.0,0.0,0,0,0,165,24,0,0,0
7020000,0.999993,-0.000100415,0.00036471,0.00368943,0.00236359,0.00303257,-0.00835724,0.00112223,0.00176502,-0.0185991,-6.34007e-08,5.68633e-07,9.01607e-08,-2.9828e-05,-4.6722e-05,3.73519e-06,0.896669,0.0401479,1.0,0.0,0.0,0.0,0.0,0.0,1.34243e-09,4.51927e-05,0.00023014,2.96003e-09,0.000112132,0.000112132,0.000198984,0.022447,0.022447,0.0579952,0.0128258,0.0128258,0.114827,7.57125e-10,7.57126e-10,3.04993e-09,9.60714e-07,9.60716e-07,3.49173e-07,0.0,0.0,0.0,0.0,0.0,0.0,0.0,0.0,531,0.160161,0.338861,0.00213088,0.0,3.53238e-05,0.00651036,0.0,0.0,0.0,0.0,0,0,0,165,24,0,0,0
7212000,0.999994,-0.000250332,0.00012945,0.00348489,0.00276914,0.00161188,-0.00886311,0.00103701,0.0013981,-0.0203733,3.46231e-08,5.01111e-07,2.11304e-07,-3.11342e-05,-4.8619e-05,3.57749e-06,0.896669,0.0401479,1.0,0.0,0.0,0.0,0.0,0.0,1.38367e-09,4.43169e-05,0.000221788,2.72549e-09,0.000103619,0.000103619,0.000199416,0.0211448,0.0211448,0.0540272,0.0124701,0.0124701,0.111892,6.49338e-10,6.49339e-10,2.92032e-09,9.20239e-07,9.20241e-07,3.08189e-07,0.0,0.0,0.0,0.0,0.0,0.0,0.0,0.0,531,0.157925,0.334503,0.000266347,0.0,2.84114e-05,0.00603039,0.0,0.0,0.0,0.0,0,0,0,165,24,0,0,0
7404000,0.999994,-0.00048339,1.82392e-05,0.00359687,0.000617539,0.00139694,-0.00354966,0.000891259,0.0010686,-0.0149056,1.05201e-07,4.4218e-07,2.53278e-07,-3.232e-05,-5.00379e-05,-3.74528e-06,0.896669,0.0401479,1.0,0.0,0.0,0.0,0.0,0.0,1.39442e-09,4.44681e-05,0.000220217,2.90708e-09,9.57602e-05,9.57604e-05,0.000197952,0.019883,0.0198829,0.0503328,0.0121159,0.0121159,0.109001,5.57169e-10,5.5717e-10,2.77973e-09,8.8268e-07,8.82682e-07,2.72418e-07,0.0,0.0,0.0,0.0,0.0,0.0,0.0,0.0,531,0.155666,0.330153,0.00537366,0.0,2.19098e-05,0.00203168,0.0,0.0,0.0,0.0,0,0,0,165,24,0,0,0
7596000,0.999994,-0.000586059,0.000100186,0.00350725,-0.000427904,-0.000202558,-0.0058207,0.000561605,0.000858797,-0.0184496,1.51146e-07,4.07565e-07,5.06736e-07,-3.30415e-05,-5.09993e-05,-9.76795e-07,0.896669,0.0401479,1.0,0.0,0.0,0.0,0.0,0.0,1.23676e-09,4.45755e-05,0.000220846,2.89291e-09,8.9805e-05,8.98052e-05,0.000196393,0.0193428,0.0193427,0.0478202,0.0123423,0.0123423,0.109041,4.86622e-10,4.86622e-10,2.645e-09,8.51796e-07,8.51797e-07,2.44427e-07,0.0,0.0,0.0,0.0,0.0,0.0,0.0,0.0,531,0.157114,0.330214,0.00263706,0.0,1.75948e-05,0.000409446,0.0,0.0,0.0,0.0,0,0,0,165,24,0,0,0
7788000,0.999993,-0.00069474,-1.45662e-05,0.00355305,-0.00180153,0.000213422,-0.00128321,0.00017101,0.000534874,-0.0105386,1.83944e-07,3.89006e-07,4.86443e-07,-3.34378e-05,-5.17016e-05,-9.9177e-06,0.896669,0.0401479,1.0,0.0,0.0,0.0,0.0,0.0,1.28214e-09,4.43147e-05,0.000221706,2.93775e-09,8.31617e-05,8.31619e-05,0.000194721,0.018159,0.0181589,0.0445642,0.0119672,0.0119672,0.106117,4.18789e-10,4.18789e-10,2.51587e-09,8.20086e-07,8.20087e-07,2.16775e-07,0.0,0.0,0.0,0.0,0.0,0.0,0.0,0.0,531,0.154707,0.325756,0.00376925,0.0,1.08907e-05,0.00292102,0.0,0.0,0.0,0.0,0,0,0,165,24,0,0,0
7980000,0.999993,-0.00067328,0.000262068,0.0035647,-0.000528177,-0.0013455,0.00571814,-0.000129613,0.000212041,0.000392564,2.01621e-07,3.88462e-07,5.09037e-07,-3.34444e-05,-5.20882e-05,-2.01059e-05,0.896669,0.0401479,1.0,0.0,0.0,0.0,0.0,0.0,1.31797e-09,4.55055e-05,0.00022247,2.9699e-09,7.72231e-05,7.72232e-05,0.00019463,0.0170642,0.0170641,0.0415752,0.0116152,0.0116152,0.103311,3.61603e-10,3.61603e-10,2.40592e-09,7.91565e-07,7.91566e-07,1.92709e-07,0.0,0.0,0.0,0.0,0.0,0.0,0.0,0.0,531,0.152415,0.32142,0.00359772,0.0,4.55549e-06,0.0122817,0.0,0.0,0.0,0.0,0,0,0,165,24,0,0,0
8172000,0.999994,-0.000647161,0.000248721,0.00353586,-0.000435144,-0.00255898,0.00437475,-0.000103557,-0.00021311,-0.0049091,2.00464e-07,3.92727e-07,7.4298e-07,-3.33459e-05,-5.20655e-05,-1.4141e-05,0.896669,0.0401479,1.0,0.0,0.0,0.0,0.0,0.0,1.32742e-09,4.48122e-05,0.000228199,3.02362e-09,7.19054e-05,7.19054e-05,0.000192755,0.0160447,0.0160446,0.0388248,0.0112763,0.0112763,0.1006,3.13239e-10,3.13238e-10,2.28765e-09,7.65937e-07,7.65938e-07,1.7171e-07,0.0,0.0,0.0,0.0,0.0,0.0,0.0,0.0,531,0.150175,0.317175,0.000513263,0.0,4.36001e-06,0.00507111,0.0,0.0,0.0,0.0,0,0,0,165,24,0,0,0
8364000,0.999994,-0.000698907,0.000266601,0.0033796,0.000628509,-0.00124749,0.00838879,-0.000174806,-0.000451417,-0.00308794,1.87335e-07,3.97695e-07,9.07173e-07,-3.32256e-05,-5.17549e-05,-1.46418e-05,0.896669,0.0401479,1.0,0.0,0.0,0.0,0.0,0.0,1.51894e-09,4.63472e-05,0.000217394,2.8525e-09,6.79678e-05,6.79678e-05,0.000190808,0.0155987,0.0155985,0.0369625,0.0114605,0.0114604,0.100468,2.76563e-10,2.76562e-10,2.17504e-09,7.45424e-07,7.45424e-07,1.55286e-07,0.0,0.0,0.0,0.0,0.0,0.0,0.0,0.0,531,0.151397,0.316968,0.00224037,0.0,8.90849e-06,0.000864968,0.0,0.0,0.0,0.0,0,0,0,165,24,0,0,0
8556000,0.999995,-0.000487451,0.000298747,0.0032466,-0.000269275,-0.00315836,0.0107918,-8.45819e-05,-0.000825847,0.00044479,1.65453e-07,4.01597e-07,8.17289e-07,-3.31318e-05,-5.12231e-05,-1.5921e-05,0.896669,0.0401479,1.0,0.0,0.0,0.0,0.0,0.0,1.42345e-09,4.51904e-05,0.000217952,2.60098e-09,6.3655e-05,6.36549e-05,0.000190399,0.0146928,0.0146926,0.0345857,0.0111263,0.0111263,0.097845,2.41297e-10,2.41296e-10,2.07961e-09,7.24692e-07,7.24692e-07,1.39003e-07,0.0,0.0,0.0,0.0,0.0,0.0,0.0,0.0,531,0.149173,0.312802,0.0063583,0.0,1.63648e-05,0.00198656,0.0,0.0,0.0,0.0,0,0,0,165,24,0,0,0
8748000,0.999995,-0.000427798,0.00030578,0.00319364,-0.000621492,-0.00228098,0.0125246,-0.000192157,-0.000910593,0.00941428,1.3573e-07,4.06625e-07,7.20182e-07,-3.30045e-05,-5.0479e-05,-2.14869e-05,0.896669,0.0401479,1.0,0.0,0.0,0.0,0.0,0.0,1.33511e-09,4.4607e-05,0.000222018,2.44906e-09,5.98179e-05,5.98177e-05,0.000188305,0.0138657,0.0138656,0.0324027,0.0108075,0.0108075,0.0953249,2.11397e-10,2.11395e-10,1.97734e-09,7.06209e-07,7.06208e-07,1.24736e-07,0.0,0.0,0.0,0.0,0.0,0.0,0.0,0.0,531,0.14702,0.308747,0.00272682,0.0,1.86182e-05,0.00138397,0.0,0.0,0.0,0.0,0,0,0,165,24,0,0,0
8940000,0.999995,-0.000483815,0.000400039,0.00297474,-0.000205609,-0.00134422,0.00917122,-0.000261695,-0.000873256,0.00787812,1.08124e-07,4.14288e-07,7.12515e-07,-3.28113e-05,-4.97811e-05,-1.85236e-05,0.896669,0.0401479,1.0,0.0,0.0,0.0,0.0,0.0,1.19718e-09,4.24169e-05,0.000220672,2.13984e-09,5.64193e-05,5.64191e-05,0.000186171,0.0131112,0.0131111,0.0304031,0.0105102,0.0105101,0.0929233,1.86061e-10,1.8606e-10,1.88034e-09,6.89787e-07,6.89786e-07,1.12231e-07,0.0,0.0,0.0,0.0,0.0,0.0,0.0,0.0,531,0.144984,0.304833,0.00577001,0.0,1.7837e-05,0.0179458,0.0,0.0,0.0,0.0,0,0,0,165,24,0,0,0
9140000,0.999995,-0.000414805,0.00034129,0.00314243,-0.00161881,-0.00186856,0.00901713,-0.000436027,-0.000927252,0.00656037,8.29089e-08,4.24427e-07,6.14035e-07,-3.25505e-05,-4.91284e-05,-1.61939e-05,0.896669,0.0401479,1.0,0.0,0.0,0.0,0.0,0.0,1.2444e-09,4.40429e-05,0.000221638,2.27881e-09,5.34689e-05,5.34688e-05,0.000184478,0.0125234,0.0125233,0.0286716,0.0103782,0.0103782,0.0913116,1.64486e-10,1.64485e-10,1.7884e-09,6.75156e-07,6.75154e-07,1.01233e-07,0.0,0.0,0.0,0.0,0.0,0.0,0.0,0.0,531,0.144071,0.302178,0.00388241,0.0,1.89404e-05,0.00483279,0.0,0.0,0.0,0.0,0,0,0,165,24,0,0,0
9332000,0.999995,-0.000611326,0.000163961,0.00306237,-0.00391755,-0.00282235,0.00904111,-0.000932078,-0.00103528,0.00693685,6.07367e-08,4.398e-07,6.29024e-07,-3.21425e-05,-4.85427e-05,-1.51946e-05,0.896669,0.0401479,1.0,0.0,0.0,0.0,0.0,0.0,1.2211e-09,4.39969e-05,0.000213809,2.1627e-09,5.1255e-05,5.12549e-05,0.000182269,0.0122438,0.0122437,0.0274296,0.0105432,0.0105431,0.0911446,1.48061e-10,1.48061e-10,1.7013e-09,6.63559e-07,6.63557e-07,9.25831e-08,0.0,0.0,0.0,0.0,0.0,0.0,0.0,0.0,531,0.145211,0.301902,0.000769674,0.0,2.02325e-05,5.43116e-05,0.0,0.0,0.0,0.0,0,0,0,165,24,0,0,0
9524000,0.999996,-0.000783884,6.58055e-05,0.00291895,-0.00290927,-0.00143752,0.00631842,-0.00125721,-0.00107346,0.00139488,3.5103e-08,4.66216e-07,8.33406e-07,-3.1428e-05,-4.78596e-05,-1.03496e-05,0.896669,0.0401479,1.0,0.0,0.0,0.0,0.0,0.0,1.21809e-09,4.33779e-05,0.000217069,2.08449e-09,4.88142e-05,4.88142e-05,0.000181498,0.0116287,0.0116286,0.0258403,0.0102681,0.0102681,0.0889355,1.32055e-10,1.32055e-10,1.62781e-09,6.51828e-07,6.51825e-07,8.39239e-08,0.0,0.0,0.0,0.0,0.0,0.0,0.0,0.0,531,0.143305,0.298221,0.00380745,0.0,2.51919e-05,0.00456003,0.0,0.0,0.0,0.0,0,0,0,165,24,0,0,0
9716000,0.999996,-0.000827758,3.54244e-05,0.00287819,-0.00318094,-0.00559844,0.00549844,-0.00143592,-0.00124951,0.00150646,1.09161e-08,4.96579e-07,8.16349e-07,-3.05928e-05,-4.71971e-05,-9.63651e-06,0.896669,0.0401479,1.0,0.0,0.0,0.0,0.0,0.0,1.27562e-09,4.321e-05,0.00021693,2.00247e-09,4.66442e-05,4.66442e-05,0.000179234,0.011068,0.011068,0.02438,0.0100094,0.0100093,0.0868289,1.18334e-10,1.18334e-10,1.54937e-09,6.41385e-07,6.41382e-07,7.62695e-08,0.0,0.0,0.0,0.0,0.0,0.0,0.0,0.0,531,0.141487,0.294667,0.00249393,0.0,2.87914e-05,0.005814,0.0,0.0,0.0,0.0,0,0,0,165,24,0,0,0
9908000,0.999995,-0.000844716,-0.000226305,0.00296824,-0.0011929,-0.0072669,0.00608608,-0.00137293,-0.00188409,0.00267153,-2.22539e-08,5.2671e-07,9.67857e-07,-2.97449e-05,-4.62703e-05,-9.57578e-06,0.896669,0.0401479,1.0,0.0,0.0,0.0,0.0,0.0,1.28384e-09,4.31091e-05,0.000227634,2.1586e-09,4.47061e-05,4.47062e-05,0.000176967,0.0105491,0.0105491,0.0230337,0.0097608,0.00976077,0.0848072,1.06512e-10,1.06512e-10,1.4752e-09,6.32061e-07,6.32057e-07,6.94814e-08,0.0,0.0,0.0,0.0,0.0,0.0,0.0,0.0,531,0.13972,0.291217,0.0128029,0.0,3.84414e-05,0.005495,0.0,0.0,0.0,0.0,0,0,0,165,24,0,0,0
10100000,0.999995,-0.000995657,-0.000493293,0.00286827,-0.00101883,-0.00890698,0.00308175,-0.00120911,-0.00267702,0.00103036,-6.14379e-08,5.49415e-07,1.14985e-06,-2.90947e-05,-4.51607e-05,-8.09946e-06,0.896669,0.0401479,1.0,0.0,0.0,0.0,0.0,0.0,1.18021e-09,4.13919e-05,0.00021891,2.11487e-09,4.32845e-05,4.32846e-05,0.000174701,0.0103588,0.0103588,0.0221253,0.00990579,0.00990577,0.0846332,9.73763e-11,9.73766e-11,1.40506e-09,6.24614e-07,6.24609e-07,6.40868e-08,0.0,0.0,0.0,0.0,0.0,0.0,0.0,0.0,531,0.140754,0.290918,0.00479742,0.0,5.16761e-05,0.0108228,0.0,0.0,0.0,0.0,0,0,0,165,24,0,0,0
10292000,0.999999,-0.00121151,-0.000263534,0.000939822,0.000268741,-0.0113809,-0.000418104,-0.000827328,-0.00358341,0.00241939,-1.17135e-07,5.68436e-07,1.21604e-06,-2.85403e-05,-4.35563e-05,-8.79382e-06,0.892472,0.03996,1.0,0.0,0.0,0.0,0.0,0.0,1.2606e-09,4.25879e-05,0.000221476,3.91651e-09,4.2241e-05,4.22438e-05,0.00197153,0.00911066,0.00911057,0.0209562,0.00964809,0.00964807,0.0827055,8.83978e-11,8.83984e-11,1.36779e-09,6.17091e-07,6.17086e-07,5.86497e-08,0.0,0.0,0.0,0.0,0.0,0.0,0.0,0.0,531,0.138911,0.287586,0.0014403,0.0,7.12071e-05,0.000317127,0.0,0.0,0.0,0.0,0,0,0,165,24,0,0,0
10484000,0.999998,-0.000975516,-0.000240037,0.00152625,0.00210761,-0.0142912,-0.0029326,-0.000349395,-0.00454448,-0.00236368,-1.8488e-07,5.78921e-07,1.21221e-06,-2.8246e-05,-4.17187e-05,-6.26167e-06,0.892472,0.03996,1.0,0.0,0.0,0.0,0.0,0.0,1.235e-09,4.2614e-05,0.000220357,2.69353e-09,4.23351e-05,4.23362e-05,0.00110249,0.00812038,0.00812021,0.0198768,0.00920223,0.00920221,0.080858,8.08936e-11,8.08944e-11,1.36784e-09,6.11397e-07,6.11392e-07,5.38009e-08,0.0,0.0,0.0,0.0,0.0,0.0,0.0,0.0,531,0.135663,0.284355,0.00684511,0.0,9.26081e-05,0.00811073,0.0,0.0,0.0,0.0,0,0,0,165,24,0,0,0
10676000,0.999998,-0.00108593,-0.000187061,0.0014906,0.00420241,-0.0165687,-0.00212825,0.000218084,-0.0058332,-0.00716668,-2.62114e-07,5.80361e-07,1.21453e-06,-2.81991e-05,-4.01345e-05,-3.86189e-06,0.892472,0.03996,1.0,0.0,0.0,0.0,0.0,0.0,1.39248e-09,4.64703e-05,0.000219932,2.33633e-09,4.23454e-05,4.23464e-05,0.000765508,0.0095236,0.00952335,0.0188843,0.00873701,0.00873698,0.079108,7.51121e-11,7.51131e-11,1.36777e-09,6.08787e-07,6.08781e-07,5e-08,0.0,0.0,0.0,0.0,0.0,0.0,0.0,0.0,531,0.132189,0.281262,0.00263831,0.0,0.000118757,0.00136266,0.0,0.0,0.0,0.0,0,0,0,165,24,0,0,0
10868000,0.999998,-0.000990177,-0.000234616,0.00160646,0.00409229,-0.0194947,-0.000486957,0.000786744,-0.00748038,-0.00702013,-3.36586e-07,5.75048e-07,1.19875e-06,-2.82218e-05,-3.94993e-05,-4.12923e-06,0.892472,0.03996,1.0,0.0,0.0,0.0,0.0,0.0,1.28537e-09,4.48456e-05,0.000220286,1.78601e-09,4.21167e-05,4.21174e-05,0.000586664,0.0129409,0.0129405,0.0182224,0.00876824,0.00876819,0.0789762,7.13517e-11,7.13528e-11,1.36751e-09,6.08413e-07,6.08407e-07,5.00001e-08,0.0,0.0,0.0,0.0,0.0,0.0,0.0,0.0,531,0.132425,0.281027,0.00978287,0.0,0.000145997,0.00450863,0.0,0.0,0.0,0.0,0,0,0,165,24,0,0,0
11060000,0.999998,-0.000649803,-0.000173894,0.00163029,0.00364808,-0.0184112,-0.000327855,0.00131995,-0.00860325,-0.00837523,-4.19509e-07,5.64673e-07,1.18432e-06,-2.80576e-05,-4.04861e-05,-3.50895e-06,0.892472,0.03996,1.0,0.0,0.0,0.0,0.0,0.0,1.22453e-09,4.40644e-05,0.000206535,1.48796e-09,4.12706e-05,4.1271e-05,0.000486242,0.0173882,0.0173878,0.0173624,0.00884126,0.0088412,0.0773169,6.84959e-11,6.84971e-11,1.36708e-09,6.07874e-07,6.07868e-07,5e-08,0.0,0.0,0.0,0.0,0.0,0.0,0.0,0.0,531,0.132975,0.278059,0.00634072,0.0,0.000172147,0.00204913,0.0,0.0,0.0,0.0,0,0,0,165,24,0,0,0
11252000,0.999998,-0.000394208,6.14889e-05,0.00208792,0.00493979,-0.0157283,0.00137187,0.00174873,-0.00894238,-0.00472001,-4.88831e-07,5.53224e-07,1.16413e-06,-2.74338e-05,-4.38952e-05,-5.16192e-06,0.892472,0.03996,1.0,0.0,0.0,0.0,0.0,0.0,1.30727e-09,4.5618e-05,0.000208463,1.64048e-09,3.95145e-05,3.95147e-05,0.000408085,0.0220847,0.0220845,0.0165699,0.00929775,0.00929768,0.0757069,6.69168e-11,6.69182e-11,1.36631e-09,6.03711e-07,6.03705e-07,5e-08,0.0,0.0,0.0,0.0,0.0,0.0,0.0,0.0,531,0.136365,0.275149,0.00228733,0.0,0.000182269,0.00289276,0.0,0.0,0.0,0.0,0,0,0,165,24,0,0,0
11444000,0.999997,-0.000184772,0.000193619,0.00225676,0.00426861,-0.0126136,0.00274628,0.00194914,-0.00887678,-0.00304441,-5.29989e-07,5.45069e-07,1.14082e-06,-2.64059e-05,-4.87932e-05,-5.84243e-06,0.892472,0.03996,1.0,0.0,0.0,0.0,0.0,0.0,1.19419e-09,4.25508e-05,0.000213639,1.56083e-09,3.71314e-05,3.71316e-05,0.000352019,0.0265377,0.0265375,0.0160565,0.0104543,0.0104542,0.0755594,6.63571e-11,6.63586e-11,1.36518e-09,5.94412e-07,5.94407e-07,5.00001e-08,0.0,0.0,0.0,0.0,0.0,0.0,0.0,0.0,531,0.144598,0.274881,0.00591955,0.0,0.000177078,0.000311385,0.0,0.0,0.0,0.0,0,0,0,165,24,0,0,0
11636000,0.999997,-0.00015991,3.20635e-05,0.00230317,0.00548551,-0.00769687,0.000567101,0.00210171,-0.00764899,-0.0104426,-5.50782e-07,5.40428e-07,1.12151e-06,-2.48152e-05,-5.53869e-05,-2.38259e-06,0.892472,0.03996,1.0,0.0,0.0,0.0,0.0,0.0,1.12482e-09,4.20714e-05,0.000213953,1.47135e-09,3.37764e-05,3.37767e-05,0.000314284,0.0288433,0.0288432,0.015387,0.0113236,0.0113236,0.0740246,6.627e-11,6.62715e-11,1.36385e-09,5.76897e-07,5.76892e-07,5e-08,0.0,0.0,0.0,0.0,0.0,0.0,0.0,0.0,531,0.15049,0.272075,0.0147097,0.0,0.000155201,0.0119068,0.0,0.0,0.0,0.0,0,0,0,165,24,0,0,0
11828000,0.999997,-8.70597e-05,5.26136e-05,0.00250429,0.00512672,-0.00192441,0.0029045,0.00221189,-0.00578228,-0.0104256,-5.50484e-07,5.40716e-07,1.08972e-06,-2.28136e-05,-6.15656e-05,-2.25982e-06,0.892472,0.03996,1.0,0.0,0.0,0.0,0.0,0.0,1.20954e-09,4.262e-05,0.000215586,1.4817e-09,3.02329e-05,3.02332e-05,0.000280792,0.0290653,0.0290653,0.0147838,0.0120107,0.0120107,0.0725607,6.63552e-11,6.63568e-11,1.36191e-09,5.53822e-07,5.53818e-07,5e-08,0.0,0.0,0.0,0.0,0.0,0.0,0.0,0.0,531,0.154988,0.269371,0.00634013,0.0,0.000118526,0.00333239,0.0,0.0,0.0,0.0,0,0,0,165,24,0,0,0
12020000,0.999996,0.000155256,0.000119204,0.00267976,0.00320976,0.000251223,0.00117454,0.00200389,-0.00381232,-0.0111858,-5.4052e-07,5.4528e-07,1.04823e-06,-2.07634e-05,-6.60978e-05,-1.80807e-06,0.892472,0.03996,1.0,0.0,0.0,0.0,0.0,0.0,1.23055e-09,4.29925e-05,0.000214056,1.468e-09,2.70384e-05,2.70386e-05,0.000254227,0.0276002,0.0276001,0.0142451,0.0123834,0.0123833,0.0711738,6.63193e-11,6.63208e-11,1.35946e-09,5.28892e-07,5.28889e-07,5e-08,0.0,0.0,0.0,0.0,0.0,0.0,0.0,0.0,531,0.157374,0.266784,0.00271032,0.0,7.82086e-05,0.00128843,0.0,0.0,0.0,0.0,0,0,0,165,24,0,0,0
12212000,0.999996,0.000307084,0.00034169,0.00274915,0.000986661,0.0033565,0.000525706,0.00171124,-0.00216728,-0.00815404,-5.31288e-07,5.51093e-07,9.808e-07,-1.92062e-05,-6.85455e-05,-3.09821e-06,0.892472,0.03996,1.0,0.0,0.0,0.0,0.0,0.0,1.41952e-09,4.55751e-05,0.000215909,1.37839e-09,2.47438e-05,2.47441e-05,0.00023516,0.0260688,0.0260688,0.0139347,0.0130848,0.0130848,0.0711033,6.61089e-11,6.61104e-11,1.35683e-09,5.07728e-07,5.07724e-07,5.00001e-08,0.0,0.0,0.0,0.0,0.0,0.0,0.0,0.0,531,0.16177,0.266652,0.0134009,0.0,4.55018e-05,0.0225653,0.0,0.0,0.0,0.0,0,0,0,165,24,0,0,0
12404000,0.999995,0.000324304,0.000248011,0.00330622,-0.000337358,0.00707252,0.00214718,0.00103898,-0.000553347,-0.00571432,-5.25445e-07,5.56933e-07,8.69022e-07,-1.80189e-05,-6.97131e-05,-4.0123e-06,0.892472,0.03996,1.0,0.0,0.0,0.0,0.0,0.0,1.35336e-09,4.54387e-05,0.000210482,1.54556e-09,2.28065e-05,2.28068e-05,0.000217128,0.0230952,0.0230951,0.0135023,0.0128523,0.0128523,0.0698125,6.56726e-11,6.5674e-11,1.35329e-09,4.86821e-07,4.86817e-07,5e-08,0.0,0.0,0.0,0.0,0.0,0.0,0.0,0.0,531,0.160326,0.264221,0.00482002,0.0,2.13914e-05,0.00240803,0.0,0.0,0.0,0.0,0,0,0,165,24,0,0,0
12596000,0.999995,0.000283943,0.000303502,0.00307766,-0.00058612,0.0108649,0.000988439,0.000871997,0.00100561,-0.00679396,-5.2691e-07,5.6158e-07,7.98225e-07,-1.7259e-05,-6.94873e-05,-3.38178e-06,0.892472,0.03996,1.0,0.0,0.0,0.0,0.0,0.0,1.18094e-09,4.30372e-05,0.000217521,1.32437e-09,2.14861e-05,2.14864e-05,0.000202139,0.020151,0.0201509,0.0131225,0.0124358,0.0124358,0.0685897,6.51147e-11,6.51161e-11,1.34911e-09,4.69547e-07,4.69544e-07,5e-08,0.0,0.0,0.0,0.0,0.0,0.0,0.0,0.0,531,0.157707,0.261896,0.00962394,0.0,2.06226e-05,0.0230421,0.0,0.0,0.0,0.0,0,0,0,165,24,0,0,0
12788000,0.999994,0.000205335,0.000261212,0.0033791,-0.000488067,0.0102298,0.00254634,0.000443823,0.0023684,-0.00535866,-5.34676e-07,5.64473e-07,6.78688e-07,-1.68394e-05,-6.83841e-05,-3.7978e-06,0.892472,0.03996,1.0,0.0,0.0,0.0,0.0,0.0,1.12732e-09,4.10603e-05,0.000218672,1.37346e-09,2.07567e-05,2.0757e-05,0.000189552,0.0181333,0.0181332,0.0129399,0.0125308,0.0125308,0.0685971,6.45951e-11,6.45965e-11,1.34424e-09,4.57133e-07,4.5713e-07,5.00001e-08,0.0,0.0,0.0,0.0,0.0,0.0,0.0,0.0,531,0.158308,0.26191,0.00431991,0.0,4.52691e-05,0.0141848,0.0,0.0,0.0,0.0,0,0,0,165,24,0,0,0
12980000,0.999995,0.000106154,9.0957e-05,0.0033108,-0.00100358,0.0115841,-0.000339054,0.000214425,0.00328247,-0.0127388,-5.48503e-07,5.6627e-07,6.53846e-07,-1.6614e-05,-6.66248e-05,-8.34734e-07,0.892472,0.03996,1.0,0.0,0.0,0.0,0.0,0.0,1.1683e-09,4.15619e-05,0.000218574,1.33455e-09,2.0253e-05,2.02534e-05,0.000180331,0.0157034,0.0157033,0.012648,0.0119355,0.0119355,0.0674764,6.40152e-11,6.40166e-11,1.33931e-09,4.46002e-07,4.45999e-07,5e-08,0.0,0.0,0.0,0.0,0.0,0.0,0.0,0.0,531,0.154502,0.259762,0.000148365,0.0,6.53373e-05,0.000420622,0.0,0.0,0.0,0.0,0,0,0,165,24,0,0,0
13172000,0.999994,0.000120059,-0.000216194,0.00344432,0.00123996,0.0114605,0.00290971,0.000150048,0.00388672,-0.00660797,-5.65818e-07,5.66983e-07,5.30883e-07,-1.65255e-05,-6.45707e-05,-3.16934e-06,0.892472,0.03996,1.0,0.0,0.0,0.0,0.0,0.0,1.16071e-09,4.14178e-05,0.000207155,1.33649e-09,2.00152e-05,2.00156e-05,0.000171107,0.0136264,0.0136263,0.0123948,0.0113232,0.0113232,0.0664058,6.34895e-11,6.34909e-11,1.333e-09,4.37295e-07,4.37292e-07,5e-08,0.0,0.0,0.0,0.0,0.0,0.0,0.0,0.0,531,0.150487,0.257693,0.0124198,0.0,7.95604e-05,0.0138757,0.0,0.0,0.0,0.0,0,0,0,165,24,0,0,0
13364000,0.999994,-5.80778e-06,-0.00029432,0.00349578,0.00286454,0.0126926,0.00422637,0.000543156,0.00471707,-0.00624383,-5.8278e-07,5.68442e-07,5.11902e-07,-1.63655e-05,-6.26749e-05,-3.03788e-06,0.892472,0.03996,1.0,0.0,0.0,0.0,0.0,0.0,1.2402e-09,4.40842e-05,0.000207743,1.3746e-09,2.00091e-05,2.00095e-05,0.000164405,0.012303,0.0123029,0.0123132,0.0112291,0.011229,0.0664918,6.31031e-11,6.31045e-11,1.32672e-09,4.31237e-07,4.31233e-07,5.00001e-08,0.0,0.0,0.0,0.0,0.0,0.0,0.0,0.0,531,0.14986,0.25786,0.00388399,0.0,9.22355e-05,0.0117219,0.0,0.0,0.0,0.0,0,0,0,165,24,0,0,0
13556000,0.999994,-6.4416e-05,-0.000300822,0.00342567,0.00375041,0.0133093,0.00559872,0.00100324,0.00518442,-0.000713597,-6.02858e-07,5.71722e-07,4.74903e-07,-1.60116e-05,-6.05033e-05,-4.81123e-06,0.892472,0.03996,1.0,0.0,0.0,0.0,0.0,0.0,1.25808e-09,4.37894e-05,0.000212164,1.35408e-09,2.00888e-05,2.00892e-05,0.000157525,0.0108067,0.0108066,0.012125,0.0106261,0.0106261,0.0655043,6.27413e-11,6.27427e-11,1.31883e-09,4.25879e-07,4.25876e-07,5e-08,0.0,0.0,0.0,0.0,0.0,0.0,0.0,0.0,531,0.145781,0.255938,0.0016677,0.0,0.000103769,0.00678913,0.0,0.0,0.0,0.0,0,0,0,165,24,0,0,0
13748000,0.999994,7.62333e-05,-0.000449643,0.00351774,0.00480298,0.0112821,0.00706622,0.00141201,0.00558531,0.0016465,-6.22677e-07,5.76393e-07,4.43861e-07,-1.55161e-05,-5.8396e-05,-5.29225e-06,0.892472,0.03996,1.0,0.0,0.0,0.0,0.0,0.0,1.16943e-09,4.25321e-05,0.000223953,1.40966e-09,2.02715e-05,2.02719e-05,0.000151604,0.00959575,0.00959571,0.0119699,0.0100848,0.0100848,0.0645884,6.24773e-11,6.24787e-11,1.31011e-09,4.21794e-07,4.2179e-07,5e-08,0.0,0.0,0.0,0.0,0.0,0.0,0.0,0.0,531,0.14202,0.254142,0.00296558,0.0,0.000114031,0.00972581,0.0,0.0,0.0,0.0,0,0,0,165,24,0,0,0
13940000,0.999994,0.000152794,-0.000393067,0.00353173,0.00611567,0.00944312,0.00757075,0.00183116,0.00548491,0.00210261,-6.40302e-07,5.81778e-07,4.1419e-07,-1.49401e-05,-5.65069e-05,-4.93534e-06,0.892472,0.03996,1.0,0.0,0.0,0.0,0.0,0.0,1.24595e-09,4.48231e-05,0.000230752,1.43556e-09,2.05288e-05,2.05293e-05,0.000146501,0.00862575,0.00862574,0.0118462,0.00960866,0.00960865,0.0637518,6.2306e-11,6.23075e-11,1.30055e-09,4.18702e-07,4.18698e-07,5e-08,0.0,0.0,0.0,0.0,0.0,0.0,0.0,0.0,531,0.138627,0.252491,0.00150393,0.0,0.00011187,0.00672978,0.0,0.0,0.0,0.0,0,0,0,165,24,0,0,0
14132000,0.999994,0.000209323,-0.000300605,0.00356158,0.0043071,0.00805871,0.00621778,0.00222032,0.00560073,0.00275047,-6.53319e-07,5.8674e-07,3.20344e-07,-1.43878e-05,-5.50568e-05,-4.62807e-06,0.892472,0.03996,1.0,0.0,0.0,0.0,0.0,0.0,1.24682e-09,4.40635e-05,0.000231999,1.45069e-09,2.0856e-05,2.08565e-05,0.000143004,0.0080606,0.00806059,0.011869,0.0095387,0.00953869,0.0639975,6.22342e-11,6.22357e-11,1.29136e-09,4.16602e-07,4.16598e-07,5.00001e-08,0.0,0.0,0.0,0.0,0.0,0.0,0.0,0.0,531,0.138121,0.252977,0.00212771,0.0,0.000111377,0.000372384,0.0,0.0,0.0,0.0,0,0,0,165,24,0,0,0
14324000,0.999994,0.000292739,-0.000448325,0.00336557,0.00709351,0.00745082,0.00859782,0.00244238,0.0052364,0.00466292,-6.64643e-07,5.91709e-07,2.22029e-07,-1.37897e-05,-5.36932e-05,-4.78927e-06,0.892472,0.03996,1.0,0.0,0.0,0.0,0.0,0.0,1.38366e-09,4.55906e-05,0.000218454,1.38858e-09,2.12062e-05,2.12067e-05,0.000139159,0.00740939,0.00740939,0.0117916,0.00913163,0.00913163,0.0632728,6.22086e-11,6.22101e-11,1.28018e-09,4.1482e-07,4.14816e-07,5e-08,0.0,0.0,0.0,0.0,0.0,0.0,0.0,0.0,531,0.135142,0.251541,0.00387186,0.0,0.000105422,0.00351208,0.0,0.0,0.0,0.0,0,0,0,165,24,0,0,0
14516000,0.999993,0.00012276,-0.000532352,0.00366241,0.00887884,0.00883497,0.0078756,0.00303206,0.005108,0.00299721,-6.72544e-07,5.96033e-07,9.46629e-08,-1.31822e-05,-5.25812e-05,-3.57619e-06,0.892472,0.03996,1.0,0.0,0.0,0.0,0.0,0.0,1.23647e-09,4.16319e-05,0.000219503,1.51005e-09,2.15871e-05,2.15876e-05,0.000135845,0.00689441,0.0068944,0.0117336,0.00876838,0.00876838,0.0626069,6.22408e-11,6.22423e-11,1.26814e-09,4.13531e-07,4.13527e-07,5e-08,0.0,0.0,0.0,0.0,0.0,0.0,0.0,0.0,531,0.132426,0.250214,0.00385213,0.0,0.000104001,0.00416925,0.0,0.0,0.0,0.0,0,0,0,165,24,0,0,0
14708000,0.999994,-7.14926e-06,-0.000454546,0.00355255,-4.49939e-05,-2.56077e-05,-0.000218069,-0.0111229,-0.0150522,0.00114784,-6.76618e-07,5.98756e-07,2.90418e-08,-1.26875e-05,-5.18339e-05,-2.49242e-06,0.892472,0.03996,1.0,0.0,0.0,0.0,0.0,0.0,1.32856e-09,4.42004e-05,0.000218472,1.49497e-09,2.20177e-05,2.20181e-05,0.000132994,0.0500328,0.0500328,0.056281,0.180051,0.180051,0.0607487,6.23169e-11,6.23184e-11,1.25526e-09,4.12805e-07,4.128e-07,5e-08,0.0,0.0,0.0,0.0,0.0,0.0,0.0,0.0,535,0.600085,0.246473,0.0112347,0.0,0.0,0.0162509,0.0,0.0,0.0,0.0,0,0,0,831,24,0,0,0
14900000,0.999994,0.000335078,-0.000590404,0.00345457,0.00224433,0.00270208,-0.00147361,-0.00809423,-0.0247271,-0.00158994,-6.76345e-07,5.98548e-07,-2.59145e-08,-1.26932e-05,-5.18373e-05,-1.51426e-06,0.892472,0.03996,1.0,0.0,0.0,0.0,0.0,0.0,1.34342e-09,4.43691e-05,0.000216312,1.49767e-09,2.25587e-05,2.25592e-05,0.000131308,0.0358067,0.0358067,0.046985,0.0869426,0.0869426,0.0562576,6.24121e-11,6.24137e-11,1.24311e-09,4.12805e-07,4.128e-07,5.00001e-08,0.0,0.0,0.0,0.0,0.0,0.0,0.0,0.0,535,0.416995,0.237187,0.00346176,0.00100885,0.0033138,0.00389096,0.0,0.0,0.0,0.0,0,0,0,831,24,0,0,0
15092000,0.999993,0.000470837,-0.000545462,0.00359297,0.00371235,0.00632416,-1.94088e-05,-0.00481211,-0.0194607,0.00305566,-6.74874e-07,5.97436e-07,-1.51465e-07,-1.27122e-05,-5.18633e-05,-3.22191e-06,0.892472,0.03996,1.0,0.0,0.0,0.0,0.0,0.0,1.29263e-09,4.32241e-05,0.000213869,1.56993e-09,2.31132e-05,2.31137e-05,0.000129186,0.0278373,0.0278373,0.0401168,0.05687,0.05687,0.0538728,6.24967e-11,6.24982e-11,1.22866e-09,4.12801e-07,4.12797e-07,5e-08,0.0,0.0,0.0,0.0,0.0,0.0,0.0,0.0,535,0.337254,0.232105,0.00559506,0.00231515,0.00191387,0.00333435,0.0,0.0,0.0,0.0,0,0,0,831,24,0,0,0
15284000,0.999992,0.000241731,-0.0005589,0.00395642,0.00445762,0.00740431,-0.00106935,-0.00468406,-0.0142349,0.000272106,-6.71926e-07,5.94844e-07,-3.12285e-07,-1.27625e-05,-5.19162e-05,-2.35566e-06,0.892472,0.03996,1.0,0.0,0.0,0.0,0.0,0.0,1.22548e-09,4.22182e-05,0.000228552,1.74058e-09,2.36777e-05,2.36782e-05,0.000127373,0.0227259,0.0227259,0.0347186,0.0422893,0.0422893,0.0529772,6.25625e-11,6.2564e-11,1.2134e-09,4.12791e-07,4.12786e-07,5e-08,0.0,0.0,0.0,0.0,0.0,0.0,0.0,0.0,535,0.290824,0.230168,0.00583694,0.00307882,0.00573623,0.00480187,0.0,0.0,0.0,0.0,0,0,0,831,24,0,0,0
15476000,0.999992,0.000203032,-0.000356439,0.0040235,0.0050604,0.0095276,-0.0015868,-0.00585076,-0.00898681,-0.00446068,-6.67757e-07,5.90534e-07,-3.273e-07,-1.28442e-05,-5.19966e-05,-9.82443e-07,0.892472,0.03996,1.0,0.0,0.0,0.0,0.0,0.0,1.14427e-09,3.97413e-05,0.000223722,1.83135e-09,2.42479e-05,2.42484e-05,0.000126538,0.0191686,0.0191686,0.0304272,0.0338153,0.0338153,0.0535117,6.26001e-11,6.26016e-11,1.19919e-09,4.1277e-07,4.12765e-07,5e-08,0.0,0.0,0.0,0.0,0.0,0.0,0.0,0.0,535,0.260059,0.231326,0.000498109,0.0037395,0.00679298,0.0131646,0.0,0.0,0.0,0.0,0,0,0,831,24,0,0,0
15668000,0.999992,0.000400026,-0.000235343,0.00405387,0.00472918,0.0132092,-0.00148275,-0.00579007,-0.00535475,-0.00297587,-6.64249e-07,5.88347e-07,-3.61487e-07,-1.28851e-05,-5.20658e-05,-1.42587e-06,0.892472,0.03996,1.0,0.0,0.0,0.0,0.0,0.0,1.2602e-09,4.23624e-05,0.000228187,1.90256e-09,2.48419e-05,2.48424e-05,0.000125214,0.0180802,0.0180802,0.028113,0.032471,0.032471,0.0545511,6.26545e-11,6.2656e-11,1.18249e-09,4.12754e-07,4.1275e-07,5e-08,0.0,0.0,0.0,0.0,0.0,0.0,0.0,0.0,535,0.254837,0.233562,0.00644224,0.0044478,0.00581456,0.00701377,0.0,0.0,0.0,0.0,0,0,0,831,24,0,0,0
15860000,0.999991,0.000518197,-0.000258363,0.00408588,0.00411681,0.0147536,-0.000578359,-0.00767201,-0.00345723,-0.00117238,-6.5107e-07,5.82867e-07,-3.95601e-07,-1.29872e-05,-5.2328e-05,-1.87632e-06,0.892472,0.03996,1.0,0.0,0.0,0.0,0.0,0.0,1.18939e-09,4.13283e-05,0.000225337,1.98134e-09,2.54186e-05,2.54192e-05,0.000124097,0.0158887,0.0158886,0.0247336,0.0282776,0.0282776,0.0548168,6.2629e-11,6.26305e-11,1.1651e-09,4.12706e-07,4.12702e-07,5e-08,0.0,0.0,0.0,0.0,0.0,0.0,0.0,0.0,535,0.237813,0.23413,0.00180195,0.00557191,0.00140749,0.00999597,0.0,0.0,0.0,0.0,0,0,0,831,24,0,0,0
16052000,0.999991,0.000806913,-0.000126975,0.00422384,0.00507761,0.0179734,-0.000281502,-0.0078383,-0.00244601,-0.00254165,-6.30916e-07,5.7649e-07,-5.50774e-07,-1.3112e-05,-5.27362e-05,-1.62086e-06,0.892472,0.03996,1.0,0.0,0.0,0.0,0.0,0.0,1.34592e-09,4.30122e-05,0.00023101,2.08673e-09,2.59853e-05,2.5986e-05,0.000123157,0.0142517,0.0142516,0.0218902,0.0255655,0.0255655,0.0550094,6.25447e-11,6.25462e-11,1.14704e-09,4.12633e-07,4.12629e-07,5e-08,0.0,0.0,0.0,0.0,0.0,0.0,0.0,0.0,535,0.226122,0.234541,0.00342587,0.00683394,0.00183153,0.00323376,0.0,0.0,0.0,0.0,0,0,0,831,24,0,0,0
16244000,0.99999,0.00055354,-0.000145245,0.00435548,0.00449675,0.0209351,0.0027272,-0.00694309,-0.00196613,0.000708061,-6.0119e-07,5.69243e-07,-6.73644e-07,-1.32535e-05,-5.3349e-05,-2.23409e-06,0.892472,0.03996,1.0,0.0,0.0,0.0,0.0,0.0,1.28598e-09,4.34261e-05,0.000224736,2.20144e-09,2.65341e-05,2.65347e-05,0.00012304,0.0130187,0.0130186,0.0196219,0.0237228,0.0237228,0.0558512,6.2387e-11,6.23885e-11,1.13047e-09,4.12525e-07,4.12521e-07,5.00001e-08,0.0,0.0,0.0,0.0,0.0,0.0,0.0,0.0,535,0.21782,0.236329,0.00145861,0.00786336,0.00835304,0.00362467,0.0,0.0,0.0,0.0,0,0,0,831,24,0,0,0
16436000,0.99999,0.000554619,-4.39025e-05,0.00442716,0.00483097,0.0217282,0.00219862,-0.00435015,-0.00256842,0.00144374,-5.60212e-07,5.67231e-07,-7.31535e-07,-1.32865e-05,-5.42043e-05,-2.29049e-06,0.892472,0.03996,1.0,0.0,0.0,0.0,0.0,0.0,1.41133e-09,4.45956e-05,0.000243506,2.30766e-09,2.70557e-05,2.70563e-05,0.000122376,0.0120959,0.0120958,0.0175831,0.0224237,0.0224237,0.0557789,6.21403e-11,6.21417e-11,1.11129e-09,4.12374e-07,4.1237e-07,5e-08,0.0,0.0,0.0,0.0,0.0,0.0,0.0,0.0,535,0.211772,0.236176,0.00317831,0.0082083,0.00653235,0.00255475,0.0,0.0,0.0,0.0,0,0,0,831,24,0,0,0
16628000,0.999991,0.000534638,-0.000163793,0.00430481,0.0034867,0.0218318,0.00100606,-0.00326815,-0.00235563,7.07781e-05,-5.14257e-07,5.62664e-07,-7.16745e-07,-1.33683e-05,-5.51834e-05,-1.99127e-06,0.892472,0.03996,1.0,0.0,0.0,0.0,0.0,0.0,1.51686e-09,4.45828e-05,0.000234761,2.31703e-09,2.75401e-05,2.75408e-05,0.000121823,0.0114167,0.0114165,0.0158563,0.0214804,0.0214803,0.0555616,6.17889e-11,6.17903e-11,1.09159e-09,4.1217e-07,4.12166e-07,5e-08,0.0,0.0,0.0,0.0,0.0,0.0,0.0,0.0,535,0.20727,0.235715,0.00239518,0.00856511,0.00514198,0.00386387,0.0,0.0,0.0,0.0,0,0,0,831,24,0,0,0
16820000,0.999991,0.000541691,-0.00025462,0.00414344,0.00213608,0.0214331,0.00368036,-0.00252036,-0.000414754,0.00123023,-4.7094e-07,5.58414e-07,-8.52658e-07,-1.34496e-05,-5.61262e-05,-2.10277e-06,0.892472,0.03996,1.0,0.0,0.0,0.0,0.0,0.0,1.28352e-09,4.11958e-05,0.000235919,2.25116e-09,2.7977e-05,2.79777e-05,0.000121365,0.0109306,0.0109305,0.0143986,0.0207786,0.0207786,0.0552173,6.13182e-11,6.13195e-11,1.07143e-09,4.11903e-07,4.11899e-07,5e-08,0.0,0.0,0.0,0.0,0.0,0.0,0.0,0.0,535,0.203856,0.234984,0.00533558,0.00819334,0.0010485,0.00691891,0.0,0.0,0.0,0.0,0,0,0,831,24,0,0,0
17012000,0.999991,0.000727535,-0.000365202,0.00418541,0.00420572,0.0232505,0.00116573,-0.00186266,-0.000376279,-0.00192951,-4.08158e-07,5.53302e-07,-8.88749e-07,-1.35425e-05,-5.75036e-05,-1.53843e-06,0.892472,0.03996,1.0,0.0,0.0,0.0,0.0,0.0,1.32963e-09,4.23e-05,0.000233061,2.35771e-09,2.83566e-05,2.83572e-05,0.000121638,0.0106041,0.0106039,0.0132777,0.0202461,0.020246,0.055524,6.07159e-11,6.07172e-11,1.05317e-09,4.11564e-07,4.1156e-07,5.00001e-08,0.0,0.0,0.0,0.0,0.0,0.0,0.0,0.0,535,0.201227,0.235635,0.0071098,0.00903772,0.00610209,0.00363388,0.0,0.0,0.0,0.0,0,0,0,831,24,0,0,0
17204000,0.999991,0.000670339,-0.000639786,0.00420921,0.00405037,0.0256091,0.00158666,-0.00287183,0.0027014,-0.00507201,-3.49871e-07,5.35573e-07,-9.86292e-07,-1.39141e-05,-5.88198e-05,-1.04825e-06,0.892472,0.03996,1.0,0.0,0.0,0.0,0.0,0.0,1.1628e-09,4.05684e-05,0.000226694,2.42861e-09,2.86694e-05,2.86701e-05,0.000121315,0.0104002,0.0104,0.0122434,0.0198356,0.0198355,0.0549621,5.99726e-11,5.99739e-11,1.0323e-09,4.11146e-07,4.11142e-07,5e-08,0.0,0.0,0.0,0.0,0.0,0.0,0.0,0.0,535,0.199176,0.23444,0.00347621,0.0102891,0.00344556,0.00159725,0.0,0.0,0.0,0.0,0,0,0,831,24,0,0,0
17396000,0.99999,0.000493165,-0.000584716,0.00441125,0.00664911,0.0267314,-0.000263045,-0.00601701,0.00717665,-0.00820507,-2.89329e-07,4.92379e-07,-1.04126e-06,-1.48513e-05,-6.02224e-05,-5.88462e-07,0.892472,0.03996,1.0,0.0,0.0,0.0,0.0,0.0,1.1385e-09,4.15556e-05,0.000222709,2.62326e-09,2.89079e-05,2.89085e-05,0.000121041,0.010295,0.0102948,0.0113828,0.0195152,0.0195152,0.0543258,5.90838e-11,5.9085e-11,1.01112e-09,4.10643e-07,4.10639e-07,5e-08,0.0,0.0,0.0,0.0,0.0,0.0,0.0,0.0,535,0.197561,0.233079,0.00727466,0.0110853,0.0114243,0.00678633,0.0,0.0,0.0,0.0,0,0,0,831,24,0,0,0
17596000,0.99999,0.000469778,-0.000513297,0.00437087,0.00659706,0.0246883,0.0038081,-0.0076907,0.00826585,-0.00642188,-2.03018e-07,4.51906e-07,-1.16007e-06,-1.57375e-05,-6.22068e-05,-7.69135e-07,0.892472,0.03996,1.0,0.0,0.0,0.0,0.0,0.0,1.20967e-09,4.27587e-05,0.00023117,2.6375e-09,2.90963e-05,2.90968e-05,0.000121042,0.0103237,0.0103236,0.0106966,0.0194108,0.0194107,0.0539332,5.80543e-11,5.80555e-11,9.89719e-10,4.10052e-07,4.10048e-07,5e-08,0.0,0.0,0.0,0.0,0.0,0.0,0.0,0.0,535,0.197032,0.232235,0.000383961,0.0101456,0.00673825,0.0013883,0.0,0.0,0.0,0.0,0,0,0,831,24,0,0,0
17788000,0.999991,0.000248833,-0.000341038,0.00433135,0.00744924,0.0251852,0.003454,-0.0059158,0.00890076,-0.00716426,-1.10908e-07,4.3925e-07,-1.20997e-06,-1.6013e-05,-6.43366e-05,-4.77445e-07,0.892472,0.03996,1.0,0.0,0.0,0.0,0.0,0.0,1.24733e-09,4.36115e-05,0.000220876,2.66241e-09,2.9173e-05,2.91736e-05,0.000120838,0.0103406,0.0103404,0.0101214,0.0192112,0.0192112,0.0532071,5.68827e-11,5.68838e-11,9.68148e-10,4.09374e-07,4.0937e-07,5e-08,0.0,0.0,0.0,0.0,0.0,0.0,0.0,0.0,535,0.196016,0.230667,0.00634428,0.0102665,0.00396459,0.00705405,0.0,0.0,0.0,0.0,0,0,0,831,24,0,0,0
17980000,0.999991,0.000110056,-0.000180605,0.00422678,0.00642842,0.0249771,0.00330073,-0.00605563,0.0105538,-0.00636124,-2.38698e-08,4.10836e-07,-1.18426e-06,-1.66477e-05,-6.63868e-05,-4.58872e-07,0.892472,0.03996,1.0,0.0,0.0,0.0,0.0,0.0,1.26775e-09,4.38559e-05,0.000217005,2.67569e-09,2.91671e-05,2.91677e-05,0.000121303,0.0103858,0.0103856,0.00973441,0.0190519,0.0190518,0.0531626,5.55839e-11,5.5585e-11,9.48876e-10,4.0861e-07,4.08607e-07,5e-08,0.0,0.0,0.0,0.0,0.0,0.0,0.0,0.0,535,0.195202,0.23057,0.0110729,0.0100088,0.0021958,0.00460472,0.0,0.0,0.0,0.0,0,0,0,831,24,0,0,0
18180000,0.999991,-1.99661e-05,-0.000123576,0.00420957,0.00742037,0.0227584,0.000344723,-0.0061172,0.00923722,-0.00538785,9.44378e-08,3.79311e-07,-1.17586e-06,-1.73566e-05,-6.91752e-05,-5.542e-07,0.892472,0.03996,1.0,0.0,0.0,0.0,0.0,0.0,1.20074e-09,4.27172e-05,0.000220556,2.7469e-09,2.91102e-05,2.91108e-05,0.000121364,0.0105183,0.0105181,0.00939291,0.0190746,0.0190745,0.0526645,5.41786e-11,5.41795e-11,9.27113e-10,4.07766e-07,4.07763e-07,5e-08,0.0,0.0,0.0,0.0,0.0,0.0,0.0,0.0,663,0.195318,0.229487,0.00302197,0.00972721,0.0104436,0.00243135,0.0,0.0,0.0,0.0,0,0,0,831,24,0,0,0
18372000,0.999991,9.03697e-06,-0.000138068,0.00424985,0.00673168,0.0214518,-0.000222433,-0.00714741,0.0109834,-0.00887194,1.69577e-07,3.41227e-07,-1.11822e-06,-1.82349e-05,-7.09951e-05,3.54213e-08,0.892472,0.03996,1.0,0.0,0.0,0.0,0.0,0.0,1.3281e-09,4.4498e-05,0.000225963,2.87712e-09,2.89515e-05,2.89521e-05,0.000121189,0.0105703,0.0105702,0.00911171,0.0189687,0.0189686,0.0518982,5.268e-11,5.26809e-11,9.05319e-10,4.06852e-07,4.06849e-07,5e-08,0.0,0.0,0.0,0.0,0.0,0.0,0.0,0.0,663,0.194775,0.227812,0.00490756,0.00872205,0.00177613,0.0161687,0.0,0.0,0.0,0.0,0,0,0,831,24,0,0,0
18564000,0.999991,0.000149334,3.23142e-05,0.00428376,0.00840886,0.0211614,0.00146211,-0.0054844,0.013091,-0.00684725,2.13833e-07,3.32934e-07,-1.09919e-06,-1.84316e-05,-7.2062e-05,-2.87665e-07,0.892472,0.03996,1.0,0.0,0.0,0.0,0.0,0.0,1.3464e-09,4.46971e-05,0.000228719,2.98595e-09,2.91807e-05,2.91812e-05,0.000121008,0.0115294,0.0115293,0.00904657,0.0208906,0.0208905,0.0515995,5.19507e-11,5.19516e-11,8.8353e-10,4.06372e-07,4.06369e-07,5e-08,0.0,0.0,0.0,0.0,0.0,0.0,0.0,0.0,663,0.204404,0.227155,0.00364401,0.00834006,0.00506468,0.00148872,0.0,0.0,0.0,0.0,0,0,0,831,24,0,0,0
18756000,0.999991,0.000179936,0.000138471,0.00431765,0.00655583,0.0207903,-0.000632395,-0.00733227,0.0126433,-0.00924754,3.10189e-07,2.81102e-07,-1.16361e-06,-1.9647e-05,-7.44085e-05,1.62614e-07,0.892472,0.03996,1.0,0.0,0.0,0.0,0.0,0.0,3.6743e-09,4.61174e-05,0.000241852,3.05978e-09,2.89216e-05,2.89222e-05,0.00012082,0.011563,0.0115629,0.00889677,0.0208157,0.0208157,0.0508591,5.03625e-11,5.03633e-11,8.61822e-10,4.05377e-07,4.05374e-07,5e-08,0.0,0.0,0.0,0.0,0.0,0.0,0.0,0.0,663,0.204038,0.22552,0.00162711,0.00864828,0.00611321,0.0104584,0.0,0.0,0.0,0.0,0,0,0,831,24,0,0,0
18948000,0.999981,-0.00427136,0.00093391,0.00433806,0.00229437,0.0117638,-0.15403,-0.00839804,0.0112544,-0.0205233,4.06377e-07,2.46613e-07,-1.15577e-06,-2.04633e-05,-7.67812e-05,-6.13146e-07,0.892472,0.03996,1.0,0.0,0.0,0.0,0.0,0.0,3.49256e-09,4.57917e-05,0.000239872,3.58794e-09,2.8604e-05,2.86069e-05,0.000121265,0.0117446,0.0117446,0.00886159,0.0207495,0.0207494,0.0508001,4.87349e-11,4.87356e-11,8.42609e-10,4.04313e-07,4.0431e-07,5.00001e-08,0.0,0.0,0.0,0.0,0.0,0.0,0.0,0.0,663,0.203713,0.225389,0.00936943,0.0173441,0.00575485,0.0190047,0.0,0.0,0.0,0.0,0,0,0,831,24,0,0,0
19140000,0.999986,-0.00281463,0.000484004,0.00441756,4.7369e-05,-0.00454953,-0.399798,-0.0096099,0.00909709,-0.0650039,4.46682e-07,2.26949e-07,-1.11347e-06,-2.09376e-05,-7.77849e-05,-6.84581e-06,0.892472,0.03996,1.0,0.0,0.0,0.0,0.0,0.0,4.09582e-09,4.66531e-05,0.000247815,3.47425e-09,2.81905e-05,2.8192e-05,0.000121041,0.011986,0.0119859,0.00880998,0.0206976,0.0206975,0.0501334,4.70414e-11,4.7042e-11,8.21122e-10,4.03009e-07,4.03007e-07,5e-08,0.0,0.0,0.0,0.0,0.0,0.0,0.0,0.0,663,0.203458,0.223905,0.00047123,0.0395351,0.00527028,0.00109783,0.0,0.0,0.0,0.0,0,0,0,831,24,0,0,0
19332000,0.999991,-0.000163193,-0.000277071,0.00417981,-0.000633855,-0.0126676,-0.64977,-0.00906163,0.00216002,-0.161757,5.32126e-07,2.36669e-07,-1.11618e-06,-2.0654e-05,-8.01078e-05,-1.22235e-05,0.892472,0.03996,1.0,0.0,0.0,0.0,0.0,0.0,3.84034e-09,4.85694e-05,0.000245126,3.18576e-09,2.76845e-05,2.7685e-05,0.0001208,0.01216,0.0121598,0.00879588,0.0206523,0.0206523,0.0495175,4.53033e-11,4.53038e-11,7.99841e-10,4.01431e-07,4.01429e-07,5e-08,0.0,0.0,0.0,0.0,0.0,0.0,0.0,0.0,663,0.203235,0.222525,0.00590923,0.0366482,0.0107531,0.00975352,0.0,0.0,0.0,0.0,0,0,0,831,24,0,0,0
19524000,0.999992,0.00112466,-0.000688563,0.00386127,-3.49979e-05,-0.0121366,-0.904184,-0.00937573,-0.00549493,-0.302861,6.29772e-07,2.33896e-07,-9.87357e-07,-2.06889e-05,-8.30359e-05,-1.92731e-05,0.892472,0.03996,1.0,0.0,0.0,0.0,0.0,0.0,3.10272e-09,4.92865e-05,0.000253532,3.1382e-09,2.71043e-05,2.71049e-05,0.000121186,0.0122665,0.0122664,0.00886793,0.0206062,0.0206062,0.049564,4.35538e-11,4.35542e-11,7.8113e-10,3.99599e-07,3.99597e-07,5.00001e-08,0.0,0.0,0.0,0.0,0.0,0.0,0.0,0.0,663,0.203008,0.22263,0.00976396,0.0506386,0.00770913,0.00880776,0.0,0.0,0.0,0.0,0,0,0,831,24,0,0,0
19716000,0.999992,0.0011979,-0.000639186,0.00367183,0.00258922,-0.00608733,-1.15558,-0.00956096,-0.0106369,-0.4909,7.05595e-07,2.26568e-07,-8.95997e-07,-2.09018e-05,-8.55286e-05,-2.75638e-05,0.892472,0.03996,1.0,0.0,0.0,0.0,0.0,0.0,2.59557e-09,4.82454e-05,0.000257523,3.08777e-09,2.64685e-05,2.64692e-05,0.000120898,0.0122956,0.0122956,0.00890648,0.0205533,0.0205533,0.0490444,4.18222e-11,4.18226e-11,7.60336e-10,3.97543e-07,3.97541e-07,5e-08,0.0,0.0,0.0,0.0,0.0,0.0,0.0,0.0,663,0.202748,0.22146,0.00423263,0.0465511,0.00849868,0.00363363,0.0,0.0,0.0,0.0,0,0,0,831,24,0,0,0
19908000,0.999992,0.00113321,-3.74449e-05,0.00393272,0.00665895,-0.00254411,-1.41037,-0.00680176,-0.017016,-0.729194,8.05206e-07,2.37221e-07,-8.41569e-07,-2.07175e-05,-8.8818e-05,-3.51805e-05,0.892472,0.03996,1.0,0.0,0.0,0.0,0.0,0.0,2.41794e-09,4.65504e-05,0.000256852,3.35947e-09,2.5797e-05,2.57977e-05,0.000120586,0.0122593,0.0122593,0.00896299,0.0204893,0.0204893,0.048582,4.01345e-11,4.01348e-11,7.39834e-10,3.95308e-07,3.95306e-07,5e-08,0.0,0.0,0.0,0.0,0.0,0.0,0.0,0.0,663,0.202432,0.220413,0.00148625,0.0419227,0.00897957,0.00575713,0.0,0.0,0.0,0.0,0,0,0,831,24,0,0,0
20100000,0.999992,0.00106601,0.000120885,0.00393549,0.00542466,-1.65478e-05,-1.66759,-0.00616358,-0.0218013,-1.02235,8.79717e-07,2.18785e-07,-8.44366e-07,-2.1434e-05,-9.1327e-05,-4.10217e-05,0.892472,0.03996,1.0,0.0,0.0,0.0,0.0,0.0,2.03506e-09,4.45773e-05,0.00025617,3.40574e-09,2.51063e-05,2.51069e-05,0.000120248,0.0121625,0.0121624,0.00903148,0.0204112,0.0204112,0.0481721,3.85093e-11,3.85095e-11,7.19657e-10,3.92937e-07,3.92935e-07,5e-08,0.0,0.0,0.0,0.0,0.0,0.0,0.0,0.0,663,0.202046,0.219481,0.00120149,0.039017,0.00994491,0.000785631,0.0,0.0,0.0,0.0,0,0,0,831,24,0,0,0
20292000,0.999992,0.00126001,0.000354998,0.00386035,0.00363643,0.0079909,-1.92661,-0.0065674,-0.0227404,-1.36891,9.18682e-07,1.92824e-07,-6.96204e-07,-2.23918e-05,-9.28317e-05,-4.52591e-05,0.892472,0.03996,1.0,0.0,0.0,0.0,0.0,0.0,1.90514e-09,4.44024e-05,0.000245232,3.48248e-09,2.44112e-05,2.44118e-05,0.000120528,0.0120145,0.0120143,0.00916234,0.0203179,0.0203179,0.0483933,3.69605e-11,3.69607e-11,7.02017e-10,3.90474e-07,3.90473e-07,5.00001e-08,0.0,0.0,0.0,0.0,0.0,0.0,0.0,0.0,663,0.201583,0.219985,0.00568217,0.0335567,0.00658974,0.00418288,0.0,0.0,0.0,0.0,0,0,0,831,24,0,0,0
20484000,0.999998,0.000823821,0.000284649,0.00163853,-0.00110964,0.0133662,-2.17742,-0.00875437,-0.0231171,-1.7648,9.6783e-07,1.60129e-07,-6.33869e-07,-2.34902e-05,-9.44927e-05,-4.87611e-05,0.8965,0.0401403,1.0,0.0,0.0,0.0,0.0,0.0,2.02145e-09,4.71816e-05,0.000241256,5.47788e-09,2.46346e-05,2.46359e-05,0.00154266,0.0105948,0.0105946,0.00924131,0.0201995,0.0201995,0.0480752,3.56109e-11,3.56111e-11,6.95531e-10,3.8868e-07,3.88679e-07,5e-08,0.0,0.0,0.0,0.0,0.0,0.0,0.0,0.0,8389271,0.200995,0.219261,0.00129032,0.0286291,0.00562321,0.013841,0.0,0.0,0.0,0.0,0,0,0,831,24,0,0,0
20676000,0.999996,0.000317844,-0.000124516,0.00273085,-5.12078e-05,0.0185079,-2.42571,-0.0108222,-0.0246301,-2.2099,1.04238e-06,1.3773e-07,-6.39225e-07,-2.42297e-05,-9.57648e-05,-5.15317e-05,0.8965,0.0401403,1.0,0.0,0.0,0.0,0.0,0.0,2.25512e-09,4.70723e-05,0.000275694,5.44751e-09,2.45684e-05,2.45689e-05,0.000954151,0.00982753,0.0098269,0.0093199,0.0199574,0.0199574,0.0478008,3.46487e-11,3.46488e-11,6.95608e-10,3.88146e-07,3.88144e-07,5e-08,0.0,0.0,0.0,0.0,0.0,0.0,0.0,0.0,8389271,0.199787,0.218634,0.00197013,0.025681,0.0057753,0.00565107,0.0,0.0,0.0,0.0,0,0,0,831,24,0,0,0
