timestamp,ref_timestamp,ref_lat,ref_lon,x,y,z,delta_xy[0],delta_xy[1],delta_z,vx,vy,vz,z_deriv,delta_vxy[0],delta_vxy[1],delta_vz,ax,ay,az,yaw,ref_alt,dist_bottom,dist_bottom_rate,eph,epv,evh,evv,vxy_max,vz_max,hagl_min,hagl_max,xy_valid,z_valid,v_xy_valid,v_z_valid,xy_reset_counter,z_reset_counter,vxy_reset_counter,vz_reset_counter,xy_global,z_global,dist_bottom_valid
176000,0,47.397742,8.545594,0.0,-0.00752684,0.0,0.0,0.0,0.0,0.0,0.0,0.0,0.0,0.0,0.0,0.0,0.0,0.0,0.0,0.0,0.0,0.0,0.0,0.0,0.0,0.0,0.0,inf,inf,inf,inf,1,1,1,1,0,0,0,0,1,1,0
272000,0,47.397742,8.545594,0.0,-0.00752684,0.0,0.0,0.0,0.0,0.0,0.0,0.0,0.0,0.0,0.0,0.0,0.0,0.0,0.0,0.0,0.0,0.0,0.0,0.0,0.0,0.0,0.0,inf,inf,inf,inf,1,1,1,1,0,0,0,0,1,1,0
368000,0,47.397742,8.545594,-0.0111195,0.0,0.0,0.0,0.0,0.0,0.0,0.0,0.0,0.0,0.0,0.0,0.0,0.0,0.0,0.0,0.0,0.0,0.0,0.0,0.0,0.0,0.0,0.0,inf,inf,inf,inf,1,1,1,1,0,0,0,0,1,1,0
464000,0,47.397742,8.545594,-0.022239,-0.0150537,0.0,0.0,0.0,0.0,0.0,0.0,0.0,0.0,0.0,0.0,0.0,0.0,0.0,0.0,0.0,0.0,0.0,0.0,0.0,0.0,0.0,0.0,inf,inf,inf,inf,1,1,1,1,0,0,0,0,1,1,0
560000,0,47.397742,8.545594,-0.0111195,-0.00752684,0.0,0.0,0.0,0.0,0.0,0.0,0.0,0.0,0.0,0.0,0.0,0.0,0.0,0.0,0.0,0.0,0.0,0.0,0.0,0.0,0.0,0.0,inf,inf,inf,inf,1,1,1,1,0,0,0,0,1,1,0
656000,0,47.397742,8.545594,-0.0111195,0.0225805,0.0,0.0,0.0,0.0,0.0,0.0,0.0,0.0,0.0,0.0,0.0,0.0,0.0,0.0,0.0,0.0,0.0,0.0,0.0,0.0,0.0,0.0,inf,inf,inf,inf,1,1,1,1,0,0,0,0,1,1,0
752000,0,47.397742,8.545594,-0.022239,0.0225805,0.0,0.0,0.0,0.0,0.0,0.0,0.0,0.0,0.0,0.0,0.0,0.0,0.0,0.0,0.0,0.0,0.0,0.0,0.0,0.0,0.0,0.0,inf,inf,inf,inf,1,1,1,1,0,0,0,0,1,1,0
848000,0,47.397742,8.545594,-0.022239,0.0150537,0.0,0.0,0.0,0.0,0.0,0.0,0.0,0.0,0.0,0.0,0.0,0.0,0.0,0.0,0.0,0.0,0.0,0.0,0.0,0.0,0.0,0.0,inf,inf,inf,inf,1,1,1,1,0,0,0,0,1,1,0
944000,0,47.397742,8.545594,0.0,0.0225805,0.0,0.0,0.0,0.0,0.0,0.0,0.0,0.0,0.0,0.0,0.0,0.0,0.0,0.0,0.0,0.0,0.0,0.0,0.0,0.0,0.0,0.0,inf,inf,inf,inf,1,1,1,1,0,0,0,0,1,1,0
1040000,0,47.397742,8.545594,-0.022239,0.0225805,0.0,0.0,0.0,0.0,0.0,0.0,0.0,0.0,0.0,0.0,0.0,0.0,0.0,0.0,0.0,0.0,0.0,0.0,0.0,0.0,0.0,0.0,inf,inf,inf,inf,1,1,1,1,0,0,0,0,1,1,0
1136000,0,47.397742,8.545594,-0.0111195,0.0150537,0.0,0.0,0.0,0.0,0.0,0.0,0.0,0.0,0.0,0.0,0.0,0.0,0.0,0.0,0.0,0.0,0.0,0.0,0.0,0.0,0.0,0.0,inf,inf,inf,inf,1,1,1,1,0,0,0,0,1,1,0
1232000,0,47.397742,8.545594,-0.0111195,0.00752684,0.0,0.0,0.0,0.0,0.0,0.0,0.0,0.0,0.0,0.0,0.0,0.0,0.0,0.0,0.0,0.0,0.0,0.0,0.0,0.0,0.0,0.0,inf,inf,inf,inf,1,1,1,1,0,0,0,0,1,1,0
1328000,0,47.397742,8.545594,-0.0111195,0.00752684,0.0,0.0,0.0,0.0,0.0,0.0,0.0,0.0,0.0,0.0,0.0,0.0,0.0,0.0,0.0,0.0,0.0,0.0,0.0,0.0,0.0,0.0,inf,inf,inf,inf,1,1,1,1,0,0,0,0,1,1,0
1424000,0,47.397742,8.545594,-0.022239,0.0,0.0,0.0,0.0,0.0,0.0,0.0,0.0,0.0,0.0,0.0,0.0,0.0,0.0,0.0,0.0,0.0,0.0,0.0,0.0,0.0,0.0,0.0,inf,inf,inf,inf,1,1,1,1,0,0,0,0,1,1,0
1520000,0,47.397742,8.545594,0.0,0.0,0.0,0.0,0.0,0.0,0.0,0.0,0.0,0.0,0.0,0.0,0.0,0.0,0.0,0.0,0.0,0.0,0.0,0.0,0.0,0.0,0.0,0.0,inf,inf,inf,inf,1,1,1,1,0,0,0,0,1,1,0
1616000,0,47.397742,8.545594,0.0,-0.00752684,0.0,0.0,0.0,0.0,0.0,0.0,0.0,0.0,0.0,0.0,0.0,0.0,0.0,0.0,0.0,0.0,0.0,0.0,0.0,0.0,0.0,0.0,inf,inf,inf,inf,1,1,1,1,0,0,0,0,1,1,0
1712000,0,47.397742,8.545594,-0.0111195,0.0,0.0,0.0,0.0,0.0,0.0,0.0,0.0,0.0,0.0,0.0,0.0,0.0,0.0,0.0,0.0,0.0,0.0,0.0,0.0,0.0,0.0,0.0,inf,inf,inf,inf,1,1,1,1,0,0,0,0,1,1,0
1808000,0,47.397742,8.545594,-0.0111195,0.00752684,0.0,0.0,0.0,0.0,0.0,0.0,0.0,0.0,0.0,0.0,0.0,0.0,0.0,0.0,0.0,0.0,0.0,0.0,0.0,0.0,0.0,0.0,inf,inf,inf,inf,1,1,1,1,0,0,0,0,1,1,0
1904000,0,47.397742,8.545594,0.0,0.00752684,0.0,0.0,0.0,0.0,0.0,0.0,0.0,0.0,0.0,0.0,0.0,0.0,0.0,0.0,0.0,0.0,0.0,0.0,0.0,0.0,0.0,0.0,inf,inf,inf,inf,1,1,1,1,0,0,0,0,1,1,0
2000000,0,47.397742,8.545594,-0.0111195,0.0,0.0,0.0,0.0,0.0,0.0,0.0,0.0,0.0,0.0,0.0,0.0,0.0,0.0,0.0,0.0,0.0,0.0,0.0,0.0,0.0,0.0,0.0,inf,inf,inf,inf,1,1,1,1,0,0,0,0,1,1,0
2096000,0,47.397742,8.545594,0.0,-0.00752684,0.0,0.0,0.0,0.0,0.0,0.0,0.0,0.0,0.0,0.0,0.0,0.0,0.0,0.0,0.0,0.0,0.0,0.0,0.0,0.0,0.0,0.0,inf,inf,inf,inf,1,1,1,1,0,0,0,0,1,1,0
2192000,0,47.397742,8.545594,-0.0111195,0.00752684,0.0,0.0,0.0,0.0,0.0,0.0,0.0,0.0,0.0,0.0,0.0,0.0,0.0,0.0,0.0,0.0,0.0,0.0,0.0,0.0,0.0,0.0,inf,inf,inf,inf,1,1,1,1,0,0,0,0,1,1,0
2288000,0,47.397742,8.545594,-0.0111195,0.0,0.0,0.0,0.0,0.0,0.0,0.0,0.0,0.0,0.0,0.0,0.0,0.0,0.0,0.0,0.0,0.0,0.0,0.0,0.0,0.0,0.0,0.0,inf,inf,inf,inf,1,1,1,1,0,0,0,0,1,1,0
2384000,0,47.397742,8.545594,0.0,0.00752684,0.0,0.0,0.0,0.0,0.0,0.0,0.0,0.0,0.0,0.0,0.0,0.0,0.0,0.0,0.0,0.0,0.0,0.0,0.0,0.0,0.0,0.0,inf,inf,inf,inf,1,1,1,1,0,0,0,0,1,1,0
2480000,0,47.397742,8.545594,-0.0111195,0.0,0.0,0.0,0.0,0.0,0.0,0.0,0.0,0.0,0.0,0.0,0.0,0.0,0.0,0.0,0.0,0.0,0.0,0.0,0.0,0.0,0.0,0.0,inf,inf,inf,inf,1,1,1,1,0,0,0,0,1,1,0
2576000,0,47.397742,8.545594,-0.0111195,-0.00752684,0.0,0.0,0.0,0.0,0.0,0.0,0.0,0.0,0.0,0.0,0.0,0.0,0.0,0.0,0.0,0.0,0.0,0.0,0.0,0.0,0.0,0.0,inf,inf,inf,inf,1,1,1,1,0,0,0,0,1,1,0
2672000,0,47.397742,8.545594,-0.0111195,-0.00752684,0.0,0.0,0.0,0.0,0.0,0.0,0.0,0.0,0.0,0.0,0.0,0.0,0.0,0.0,0.0,0.0,0.0,0.0,0.0,0.0,0.0,0.0,inf,inf,inf,inf,1,1,1,1,0,0,0,0,1,1,0
2768000,0,47.397742,8.545594,-0.0111195,0.0,0.0,0.0,0.0,0.0,0.0,0.0,0.0,0.0,0.0,0.0,0.0,0.0,0.0,0.0,0.0,0.0,0.0,0.0,0.0,0.0,0.0,0.0,inf,inf,inf,inf,1,1,1,1,0,0,0,0,1,1,0
2864000,0,47.397742,8.545594,-0.0111195,0.0150537,0.0,0.0,0.0,0.0,0.0,0.0,0.0,0.0,0.0,0.0,0.0,0.0,0.0,0.0,0.0,0.0,0.0,0.0,0.0,0.0,0.0,0.0,inf,inf,inf,inf,1,1,1,1,0,0,0,0,1,1,0
2960000,0,47.397742,8.545594,-0.0111195,0.0,0.0,0.0,0.0,0.0,0.0,0.0,0.0,0.0,0.0,0.0,0.0,0.0,0.0,0.0,0.0,0.0,0.0,0.0,0.0,0.0,0.0,0.0,inf,inf,inf,inf,1,1,1,1,0,0,0,0,1,1,0
3056000,0,47.397742,8.545594,-0.0111195,-0.0150537,0.0,0.0,0.0,0.0,0.0,0.0,0.0,0.0,0.0,0.0,0.0,0.0,0.0,0.0,0.0,0.0,0.0,0.0,0.0,0.0,0.0,0.0,inf,inf,inf,inf,1,1,1,1,0,0,0,0,1,1,0
3152000,0,47.397742,8.545594,-0.022239,0.00752684,0.0,0.0,0.0,0.0,0.0,0.0,0.0,0.0,0.0,0.0,0.0,0.0,0.0,0.0,0.0,0.0,0.0,0.0,0.0,0.0,0.0,0.0,inf,inf,inf,inf,1,1,1,1,0,0,0,0,1,1,0
3248000,0,47.397742,8.545594,-0.022239,-0.00752684,0.0,0.0,0.0,0.0,0.0,0.0,0.0,0.0,0.0,0.0,0.0,0.0,0.0,0.0,0.0,0.0,0.0,0.0,0.0,0.0,0.0,0.0,inf,inf,inf,inf,1,1,1,1,0,0,0,0,1,1,0
3344000,0,47.397742,8.545594,-0.0111195,-0.0225805,0.0,0.0,0.0,0.0,0.0,0.0,0.0,0.0,0.0,0.0,0.0,0.0,0.0,0.0,0.0,0.0,0.0,0.0,0.0,0.0,0.0,0.0,inf,inf,inf,inf,1,1,1,1,0,0,0,0,1,1,0
3440000,0,47.397742,8.545594,0.0,-0.0150537,0.0,0.0,0.0,0.0,0.0,0.0,0.0,0.0,0.0,0.0,0.0,0.0,0.0,0.0,0.0,0.0,0.0,0.0,0.0,0.0,0.0,0.0,inf,inf,inf,inf,1,1,1,1,0,0,0,0,1,1,0
3536000,0,47.397742,8.545594,-0.022239,-0.00752684,0.0,0.0,0.0,0.0,0.0,0.0,0.0,0.0,0.0,0.0,0.0,0.0,0.0,0.0,0.0,0.0,0.0,0.0,0.0,0.0,0.0,0.0,inf,inf,inf,inf,1,1,1,1,0,0,0,0,1,1,0
3632000,0,47.397742,8.545594,-0.0111195,0.0,0.0,0.0,0.0,0.0,0.0,0.0,0.0,0.0,0.0,0.0,0.0,0.0,0.0,0.0,0.0,0.0,0.0,0.0,0.0,0.0,0.0,0.0,inf,inf,inf,inf,1,1,1,1,0,0,0,0,1,1,0
3728000,0,47.397742,8.545594,0.0,0.00752684,0.0,0.0,0.0,0.0,0.0,0.0,0.0,0.0,0.0,0.0,0.0,0.0,0.0,0.0,0.0,0.0,0.0,0.0,0.0,0.0,0.0,0.0,inf,inf,inf,inf,1,1,1,1,0,0,0,0,1,1,0
3824000,0,47.397742,8.545594,0.0,0.0150537,0.0,0.0,0.0,0.0,0.0,0.0,0.0,0.0,0.0,0.0,0.0,0.0,0.0,0.0,0.0,0.0,0.0,0.0,0.0,0.0,0.0,0.0,inf,inf,inf,inf,1,1,1,1,0,0,0,0,1,1,0
3920000,0,47.397742,8.545594,0.0111195,-0.00752684,0.0,0.0,0.0,0.0,0.0,0.0,0.0,0.0,0.0,0.0,0.0,0.0,0.0,0.0,0.0,0.0,0.0,0.0,0.0,0.0,0.0,0.0,inf,inf,inf,inf,1,1,1,1,0,0,0,0,1,1,0
4016000,0,47.397742,8.545594,-0.0111195,-0.00752684,0.0,0.0,0.0,0.0,0.0,0.0,0.0,0.0,0.0,0.0,0.0,0.0,0.0,0.0,0.0,0.0,0.0,0.0,0.0,0.0,0.0,0.0,inf,inf,inf,inf,1,1,1,1,0,0,0,0,1,1,0
4112000,0,47.397742,8.545594,-0.022239,-0.0150537,0.0,0.0,0.0,0.0,0.0,0.0,0.0,0.0,0.0,0.0,0.0,0.0,0.0,0.0,0.0,0.0,0.0,0.0,0.0,0.0,0.0,0.0,inf,inf,inf,inf,1,1,1,1,0,0,0,0,1,1,0
4208000,0,47.397742,8.545594,-0.0333585,-0.00752684,0.0,0.0,0.0,0.0,0.0,0.0,0.0,0.0,0.0,0.0,0.0,0.0,0.0,0.0,0.0,0.0,0.0,0.0,0.0,0.0,0.0,0.0,inf,inf,inf,inf,1,1,1,1,0,0,0,0,1,1,0
4304000,0,47.397742,8.545594,-0.0111195,-0.00752684,0.0,0.0,0.0,0.0,0.0,0.0,0.0,0.0,0.0,0.0,0.0,0.0,0.0,0.0,0.0,0.0,0.0,0.0,0.0,0.0,0.0,0.0,inf,inf,inf,inf,1,1,1,1,0,0,0,0,1,1,0
4400000,0,47.397742,8.545594,-0.022239,-0.0225805,0.0,0.0,0.0,0.0,0.0,0.0,0.0,0.0,0.0,0.0,0.0,0.0,0.0,0.0,0.0,0.0,0.0,0.0,0.0,0.0,0.0,0.0,inf,inf,inf,inf,1,1,1,1,0,0,0,0,1,1,0
4496000,0,47.397742,8.545594,-0.0111195,-0.0225805,0.0,0.0,0.0,0.0,0.0,0.0,0.0,0.0,0.0,0.0,0.0,0.0,0.0,0.0,0.0,0.0,0.0,0.0,0.0,0.0,0.0,0.0,inf,inf,inf,inf,1,1,1,1,0,0,0,0,1,1,0
4592000,0,47.397742,8.545594,-0.0111195,-0.00752684,0.0,0.0,0.0,0.0,0.0,0.0,0.0,0.0,0.0,0.0,0.0,0.0,0.0,0.0,0.0,0.0,0.0,0.0,0.0,0.0,0.0,0.0,inf,inf,inf,inf,1,1,1,1,0,0,0,0,1,1,0
4688000,0,47.397742,8.545594,-0.022239,-0.00752684,0.0,0.0,0.0,0.0,0.0,0.0,0.0,0.0,0.0,0.0,0.0,0.0,0.0,0.0,0.0,0.0,0.0,0.0,0.0,0.0,0.0,0.0,inf,inf,inf,inf,1,1,1,1,0,0,0,0,1,1,0
4784000,0,47.397742,8.545594,-0.0111195,0.0,0.0,0.0,0.0,0.0,0.0,0.0,0.0,0.0,0.0,0.0,0.0,0.0,0.0,0.0,0.0,0.0,0.0,0.0,0.0,0.0,0.0,0.0,inf,inf,inf,inf,1,1,1,1,0,0,0,0,1,1,0
4880000,0,47.397742,8.545594,0.0,0.0,0.0,0.0,0.0,0.0,0.0,0.0,0.0,0.0,0.0,0.0,0.0,0.0,0.0,0.0,0.0,0.0,0.0,0.0,0.0,0.0,0.0,0.0,inf,inf,inf,inf,1,1,1,1,0,0,0,0,1,1,0
4976000,0,47.397742,8.545594,-0.0111195,0.00752684,0.0,0.0,0.0,0.0,0.0,0.0,0.0,0.0,0.0,0.0,0.0,0.0,0.0,0.0,0.0,0.0,0.0,0.0,0.0,0.0,0.0,0.0,inf,inf,inf,inf,1,1,1,1,0,0,0,0,1,1,0
5072000,0,47.397742,8.545594,-0.0111195,-0.00752684,0.0,0.0,0.0,0.0,0.0,0.0,0.0,0.0,0.0,0.0,0.0,0.0,0.0,0.0,0.0,0.0,0.0,0.0,0.0,0.0,0.0,0.0,inf,inf,inf,inf,1,1,1,1,0,0,0,0,1,1,0
5168000,0,47.397742,8.545594,-0.022239,0.0,0.0,0.0,0.0,0.0,0.0,0.0,0.0,0.0,0.0,0.0,0.0,0.0,0.0,0.0,0.0,0.0,0.0,0.0,0.0,0.0,0.0,0.0,inf,inf,inf,inf,1,1,1,1,0,0,0,0,1,1,0
5264000,0,47.397742,8.545594,-0.022239,0.0,0.0,0.0,0.0,0.0,0.0,0.0,0.0,0.0,0.0,0.0,0.0,0.0,0.0,0.0,0.0,0.0,0.0,0.0,0.0,0.0,0.0,0.0,inf,inf,inf,inf,1,1,1,1,0,0,0,0,1,1,0
5360000,0,47.397742,8.545594,-0.022239,0.0,0.0,0.0,0.0,0.0,0.0,0.0,0.0,0.0,0.0,0.0,0.0,0.0,0.0,0.0,0.0,0.0,0.0,0.0,0.0,0.0,0.0,0.0,inf,inf,inf,inf,1,1,1,1,0,0,0,0,1,1,0
5456000,0,47.397742,8.545594,-0.0111195,0.0150537,0.0,0.0,0.0,0.0,0.0,0.0,0.0,0.0,0.0,0.0,0.0,0.0,0.0,0.0,0.0,0.0,0.0,0.0,0.0,0.0,0.0,0.0,inf,inf,inf,inf,1,1,1,1,0,0,0,0,1,1,0
5552000,0,47.397742,8.545594,0.0,0.0225805,0.0,0.0,0.0,0.0,0.0,0.0,0.0,0.0,0.0,0.0,0.0,0.0,0.0,0.0,0.0,0.0,0.0,0.0,0.0,0.0,0.0,0.0,inf,inf,inf,inf,1,1,1,1,0,0,0,0,1,1,0
5648000,0,47.397742,8.545594,-0.0111195,-0.00752684,0.0,0.0,0.0,0.0,0.0,0.0,0.0,0.0,0.0,0.0,0.0,0.0,0.0,0.0,0.0,0.0,0.0,0.0,0.0,0.0,0.0,0.0,inf,inf,inf,inf,1,1,1,1,0,0,0,0,1,1,0
5744000,0,47.397742,8.545594,-0.0111195,-0.0150537,0.0,0.0,0.0,0.0,0.0,0.0,0.0,0.0,0.0,0.0,0.0,0.0,0.0,0.0,0.0,0.0,0.0,0.0,0.0,0.0,0.0,0.0,inf,inf,inf,inf,1,1,1,1,0,0,0,0,1,1,0
5840000,0,47.397742,8.545594,-0.0111195,-0.0150537,0.0,0.0,0.0,0.0,0.0,0.0,0.0,0.0,0.0,0.0,0.0,0.0,0.0,0.0,0.0,0.0,0.0,0.0,0.0,0.0,0.0,0.0,inf,inf,inf,inf,1,1,1,1,0,0,0,0,1,1,0
5936000,0,47.397742,8.545594,-0.0111195,-0.0225805,0.0,0.0,0.0,0.0,0.0,0.0,0.0,0.0,0.0,0.0,0.0,0.0,0.0,0.0,0.0,0.0,0.0,0.0,0.0,0.0,0.0,0.0,inf,inf,inf,inf,1,1,1,1,0,0,0,0,1,1,0
6032000,0,47.397742,8.545594,0.0,-0.00752684,0.0,0.0,0.0,0.0,0.0,0.0,0.0,0.0,0.0,0.0,0.0,0.0,0.0,0.0,0.0,0.0,0.0,0.0,0.0,0.0,0.0,0.0,inf,inf,inf,inf,1,1,1,1,0,0,0,0,1,1,0
6128000,0,47.397742,8.545594,0.0111195,-0.0150537,0.0,0.0,0.0,0.0,0.0,0.0,0.0,0.0,0.0,0.0,0.0,0.0,0.0,0.0,0.0,0.0,0.0,0.0,0.0,0.0,0.0,0.0,inf,inf,inf,inf,1,1,1,1,0,0,0,0,1,1,0
6224000,0,47.397742,8.545594,0.0111195,-0.00752684,0.0,0.0,0.0,0.0,0.0,0.0,0.0,0.0,0.0,0.0,0.0,0.0,0.0,0.0,0.0,0.0,0.0,0.0,0.0,0.0,0.0,0.0,inf,inf,inf,inf,1,1,1,1,0,0,0,0,1,1,0
6320000,0,47.397742,8.545594,0.0111195,-0.00752684,0.0,0.0,0.0,0.0,0.0,0.0,0.0,0.0,0.0,0.0,0.0,0.0,0.0,0.0,0.0,0.0,0.0,0.0,0.0,0.0,0.0,0.0,inf,inf,inf,inf,1,1,1,1,0,0,0,0,1,1,0
6416000,0,47.397742,8.545594,0.0,-0.00752684,0.0,0.0,0.0,0.0,0.0,0.0,0.0,0.0,0.0,0.0,0.0,0.0,0.0,0.0,0.0,0.0,0.0,0.0,0.0,0.0,0.0,0.0,inf,inf,inf,inf,1,1,1,1,0,0,0,0,1,1,0
6512000,0,47.397742,8.545594,0.0,-0.00752684,0.0,0.0,0.0,0.0,0.0,0.0,0.0,0.0,0.0,0.0,0.0,0.0,0.0,0.0,0.0,0.0,0.0,0.0,0.0,0.0,0.0,0.0,inf,inf,inf,inf,1,1,1,1,0,0,0,0,1,1,0
6608000,0,47.397742,8.545594,0.0,-0.0301074,0.0,0.0,0.0,0.0,0.0,0.0,0.0,0.0,0.0,0.0,0.0,0.0,0.0,0.0,0.0,0.0,0.0,0.0,0.0,0.0,0.0,0.0,inf,inf,inf,inf,1,1,1,1,0,0,0,0,1,1,0
6704000,0,47.397742,8.545594,0.0111195,-0.0150537,0.0,0.0,0.0,0.0,0.0,0.0,0.0,0.0,0.0,0.0,0.0,0.0,0.0,0.0,0.0,0.0,0.0,0.0,0.0,0.0,0.0,0.0,inf,inf,inf,inf,1,1,1,1,0,0,0,0,1,1,0
6800000,0,47.397742,8.545594,0.0,-0.0150537,0.0,0.0,0.0,0.0,0.0,0.0,0.0,0.0,0.0,0.0,0.0,0.0,0.0,0.0,0.0,0.0,0.0,0.0,0.0,0.0,0.0,0.0,inf,inf,inf,inf,1,1,1,1,0,0,0,0,1,1,0
6896000,0,47.397742,8.545594,-0.0111195,-0.0225805,0.0,0.0,0.0,0.0,0.0,0.0,0.0,0.0,0.0,0.0,0.0,0.0,0.0,0.0,0.0,0.0,0.0,0.0,0.0,0.0,0.0,0.0,inf,inf,inf,inf,1,1,1,1,0,0,0,0,1,1,0
6992000,0,47.397742,8.545594,0.0,-0.0225805,0.0,0.0,0.0,0.0,0.0,0.0,0.0,0.0,0.0,0.0,0.0,0.0,0.0,0.0,0.0,0.0,0.0,0.0,0.0,0.0,0.0,0.0,inf,inf,inf,inf,1,1,1,1,0,0,0,0,1,1,0
7088000,0,47.397742,8.545594,0.0,0.0,0.0,0.0,0.0,0.0,0.0,0.0,0.0,0.0,0.0,0.0,0.0,0.0,0.0,0.0,0.0,0.0,0.0,0.0,0.0,0.0,0.0,0.0,inf,inf,inf,inf,1,1,1,1,0,0,0,0,1,1,0
7184000,0,47.397742,8.545594,-0.022239,-0.00752684,0.0,0.0,0.0,0.0,0.0,0.0,0.0,0.0,0.0,0.0,0.0,0.0,0.0,0.0,0.0,0.0,0.0,0.0,0.0,0.0,0.0,0.0,inf,inf,inf,inf,1,1,1,1,0,0,0,0,1,1,0
7280000,0,47.397742,8.545594,-0.0111195,-0.00752684,0.0,0.0,0.0,0.0,0.0,0.0,0.0,0.0,0.0,0.0,0.0,0.0,0.0,0.0,0.0,0.0,0.0,0.0,0.0,0.0,0.0,0.0,inf,inf,inf,inf,1,1,1,1,0,0,0,0,1,1,0
7376000,0,47.397742,8.545594,-0.0111195,-0.0150537,0.0,0.0,0.0,0.0,0.0,0.0,0.0,0.0,0.0,0.0,0.0,0.0,0.0,0.0,0.0,0.0,0.0,0.0,0.0,0.0,0.0,0.0,inf,inf,inf,inf,1,1,1,1,0,0,0,0,1,1,0
7472000,0,47.397742,8.545594,0.0,-0.00752684,0.0,0.0,0.0,0.0,0.0,0.0,0.0,0.0,0.0,0.0,0.0,0.0,0.0,0.0,0.0,0.0,0.0,0.0,0.0,0.0,0.0,0.0,inf,inf,inf,inf,1,1,1,1,0,0,0,0,1,1,0
7568000,0,47.397742,8.545594,0.0111195,-0.00752684,0.0,0.0,0.0,0.0,0.0,0.0,0.0,0.0,0.0,0.0,0.0,0.0,0.0,0.0,0.0,0.0,0.0,0.0,0.0,0.0,0.0,0.0,inf,inf,inf,inf,1,1,1,1,0,0,0,0,1,1,0
7664000,0,47.397742,8.545594,0.0111195,0.00752684,0.0,0.0,0.0,0.0,0.0,0.0,0.0,0.0,0.0,0.0,0.0,0.0,0.0,0.0,0.0,0.0,0.0,0.0,0.0,0.0,0.0,0.0,inf,inf,inf,inf,1,1,1,1,0,0,0,0,1,1,0
7760000,0,47.397742,8.545594,-0.0111195,0.0,0.0,0.0,0.0,0.0,0.0,0.0,0.0,0.0,0.0,0.0,0.0,0.0,0.0,0.0,0.0,0.0,0.0,0.0,0.0,0.0,0.0,0.0,inf,inf,inf,inf,1,1,1,1,0,0,0,0,1,1,0
7856000,0,47.397742,8.545594,0.0,-0.00752684,0.0,0.0,0.0,0.0,0.0,0.0,0.0,0.0,0.0,0.0,0.0,0.0,0.0,0.0,0.0,0.0,0.0,0.0,0.0,0.0,0.0,0.0,inf,inf,inf,inf,1,1,1,1,0,0,0,0,1,1,0
7952000,0,47.397742,8.545594,0.0,0.0,0.0,0.0,0.0,0.0,0.0,0.0,0.0,0.0,0.0,0.0,0.0,0.0,0.0,0.0,0.0,0.0,0.0,0.0,0.0,0.0,0.0,0.0,inf,inf,inf,inf,1,1,1,1,0,0,0,0,1,1,0
8048000,0,47.397742,8.545594,0.0,-0.0150537,0.0,0.0,0.0,0.0,0.0,0.0,0.0,0.0,0.0,0.0,0.0,0.0,0.0,0.0,0.0,0.0,0.0,0.0,0.0,0.0,0.0,0.0,inf,inf,inf,inf,1,1,1,1,0,0,0,0,1,1,0
8144000,0,47.397742,8.545594,0.0111195,0.0,0.0,0.0,0.0,0.0,0.0,0.0,0.0,0.0,0.0,0.0,0.0,0.0,0.0,0.0,0.0,0.0,0.0,0.0,0.0,0.0,0.0,0.0,inf,inf,inf,inf,1,1,1,1,0,0,0,0,1,1,0
8240000,0,47.397742,8.545594,0.0,-0.00752684,0.0,0.0,0.0,0.0,0.0,0.0,0.0,0.0,0.0,0.0,0.0,0.0,0.0,0.0,0.0,0.0,0.0,0.0,0.0,0.0,0.0,0.0,inf,inf,inf,inf,1,1,1,1,0,0,0,0,1,1,0
8336000,0,47.397742,8.545594,0.0,-0.0150537,0.0,0.0,0.0,0.0,0.0,0.0,0.0,0.0,0.0,0.0,0.0,0.0,0.0,0.0,0.0,0.0,0.0,0.0,0.0,0.0,0.0,0.0,inf,inf,inf,inf,1,1,1,1,0,0,0,0,1,1,0
8432000,0,47.397742,8.545594,0.0111195,-0.0150537,0.0,0.0,0.0,0.0,0.0,0.0,0.0,0.0,0.0,0.0,0.0,0.0,0.0,0.0,0.0,0.0,0.0,0.0,0.0,0.0,0.0,0.0,inf,inf,inf,inf,1,1,1,1,0,0,0,0,1,1,0
8528000,0,47.397742,8.545594,0.0111195,0.0,0.0,0.0,0.0,0.0,0.0,0.0,0.0,0.0,0.0,0.0,0.0,0.0,0.0,0.0,0.0,0.0,0.0,0.0,0.0,0.0,0.0,0.0,inf,inf,inf,inf,1,1,1,1,0,0,0,0,1,1,0
8624000,0,47.397742,8.545594,0.0,-0.00752684,0.0,0.0,0.0,0.0,0.0,0.0,0.0,0.0,0.0,0.0,0.0,0.0,0.0,0.0,0.0,0.0,0.0,0.0,0.0,0.0,0.0,0.0,inf,inf,inf,inf,1,1,1,1,0,0,0,0,1,1,0
8720000,0,47.397742,8.545594,0.0,0.0,0.0,0.0,0.0,0.0,0.0,0.0,0.0,0.0,0.0,0.0,0.0,0.0,0.0,0.0,0.0,0.0,0.0,0.0,0.0,0.0,0.0,0.0,inf,inf,inf,inf,1,1,1,1,0,0,0,0,1,1,0
8816000,0,47.397742,8.545594,0.0111195,-0.00752684,0.0,0.0,0.0,0.0,0.0,0.0,0.0,0.0,0.0,0.0,0.0,0.0,0.0,0.0,0.0,0.0,0.0,0.0,0.0,0.0,0.0,0.0,inf,inf,inf,inf,1,1,1,1,0,0,0,0,1,1,0
8912000,0,47.397742,8.545594,-0.0111195,-0.00752684,0.0,0.0,0.0,0.0,0.0,0.0,0.0,0.0,0.0,0.0,0.0,0.0,0.0,0.0,0.0,0.0,0.0,0.0,0.0,0.0,0.0,0.0,inf,inf,inf,inf,1,1,1,1,0,0,0,0,1,1,0
9008000,0,47.397742,8.545594,-0.0111195,-0.0150537,0.0,0.0,0.0,0.0,0.0,0.0,0.0,0.0,0.0,0.0,0.0,0.0,0.0,0.0,0.0,0.0,0.0,0.0,0.0,0.0,0.0,0.0,inf,inf,inf,inf,1,1,1,1,0,0,0,0,1,1,0
9104000,0,47.397742,8.545594,-0.0111195,0.0,0.0,0.0,0.0,0.0,0.0,0.0,0.0,0.0,0.0,0.0,0.0,0.0,0.0,0.0,0.0,0.0,0.0,0.0,0.0,0.0,0.0,0.0,inf,inf,inf,inf,1,1,1,1,0,0,0,0,1,1,0
9200000,0,47.397742,8.545594,0.0111195,-0.00752684,0.0,0.0,0.0,0.0,0.0,0.0,0.0,0.0,0.0,0.0,0.0,0.0,0.0,0.0,0.0,0.0,0.0,0.0,0.0,0.0,0.0,0.0,inf,inf,inf,inf,1,1,1,1,0,0,0,0,1,1,0
9296000,0,47.397742,8.545594,0.0,-0.0225805,0.0,0.0,0.0,0.0,0.0,0.0,0.0,0.0,0.0,0.0,0.0,0.0,0.0,0.0,0.0,0.0,0.0,0.0,0.0,0.0,0.0,0.0,inf,inf,inf,inf,1,1,1,1,0,0,0,0,1,1,0
9392000,0,47.397742,8.545594,-0.022239,-0.00752684,0.0,0.0,0.0,0.0,0.0,0.0,0.0,0.0,0.0,0.0,0.0,0.0,0.0,0.0,0.0,0.0,0.0,0.0,0.0,0.0,0.0,0.0,inf,inf,inf,inf,1,1,1,1,0,0,0,0,1,1,0
9488000,0,47.397742,8.545594,-0.0111195,-0.00752684,0.0,0.0,0.0,0.0,0.0,0.0,0.0,0.0,0.0,0.0,0.0,0.0,0.0,0.0,0.0,0.0,0.0,0.0,0.0,0.0,0.0,0.0,inf,inf,inf,inf,1,1,1,1,0,0,0,0,1,1,0
9584000,0,47.397742,8.545594,0.0,-0.00752684,0.0,0.0,0.0,0.0,0.0,0.0,0.0,0.0,0.0,0.0,0.0,0.0,0.0,0.0,0.0,0.0,0.0,0.0,0.0,0.0,0.0,0.0,inf,inf,inf,inf,1,1,1,1,0,0,0,0,1,1,0
9680000,0,47.397742,8.545594,-0.022239,0.0,0.0,0.0,0.0,0.0,0.0,0.0,0.0,0.0,0.0,0.0,0.0,0.0,0.0,0.0,0.0,0.0,0.0,0.0,0.0,0.0,0.0,0.0,inf,inf,inf,inf,1,1,1,1,0,0,0,0,1,1,0
9776000,0,47.397742,8.545594,0.0,0.0,0.0,0.0,0.0,0.0,0.0,0.0,0.0,0.0,0.0,0.0,0.0,0.0,0.0,0.0,0.0,0.0,0.0,0.0,0.0,0.0,0.0,0.0,inf,inf,inf,inf,1,1,1,1,0,0,0,0,1,1,0
9872000,0,47.397742,8.545594,0.0,0.0150537,0.0,0.0,0.0,0.0,0.0,0.0,0.0,0.0,0.0,0.0,0.0,0.0,0.0,0.0,0.0,0.0,0.0,0.0,0.0,0.0,0.0,0.0,inf,inf,inf,inf,1,1,1,1,0,0,0,0,1,1,0
9968000,0,47.397742,8.545594,-0.0111195,0.00752684,0.0,0.0,0.0,0.0,0.0,0.0,0.0,0.0,0.0,0.0,0.0,0.0,0.0,0.0,0.0,0.0,0.0,0.0,0.0,0.0,0.0,0.0,inf,inf,inf,inf,1,1,1,1,0,0,0,0,1,1,0
10064000,0,47.397742,8.545594,0.022239,0.0,0.0,0.0,0.0,0.0,0.0,0.0,0.0,0.0,0.0,0.0,0.0,0.0,0.0,0.0,0.0,0.0,0.0,0.0,0.0,0.0,0.0,0.0,inf,inf,inf,inf,1,1,1,1,0,0,0,0,1,1,0
10160000,0,47.397742,8.545594,0.0111195,0.00752684,0.0,0.0,0.0,0.0,0.0,0.0,0.0,0.0,0.0,0.0,0.0,0.0,0.0,0.0,0.0,0.0,0.0,0.0,0.0,0.0,0.0,0.0,inf,inf,inf,inf,1,1,1,1,0,0,0,0,1,1,0
10256000,0,47.397742,8.545594,0.0111195,-0.00752684,0.0,0.0,0.0,0.0,0.0,0.0,0.0,0.0,0.0,0.0,0.0,0.0,0.0,0.0,0.0,0.0,0.0,0.0,0.0,0.0,0.0,0.0,inf,inf,inf,inf,1,1,1,1,0,0,0,0,1,1,0
10352000,0,47.397742,8.545594,0.022239,0.0,0.0,0.0,0.0,0.0,0.0,0.0,0.0,0.0,0.0,0.0,0.0,0.0,0.0,0.0,0.0,0.0,0.0,0.0,0.0,0.0,0.0,0.0,inf,inf,inf,inf,1,1,1,1,0,0,0,0,1,1,0
10448000,0,47.397742,8.545594,0.0,0.0150537,0.0,0.0,0.0,0.0,0.0,0.0,0.0,0.0,0.0,0.0,0.0,0.0,0.0,0.0,0.0,0.0,0.0,0.0,0.0,0.0,0.0,0.0,inf,inf,inf,inf,1,1,1,1,0,0,0,0,1,1,0
10544000,0,47.397742,8.545594,-0.0111195,0.00752684,0.0,0.0,0.0,0.0,0.0,0.0,0.0,0.0,0.0,0.0,0.0,0.0,0.0,0.0,0.0,0.0,0.0,0.0,0.0,0.0,0.0,0.0,inf,inf,inf,inf,1,1,1,1,0,0,0,0,1,1,0
10640000,0,47.397742,8.545594,-0.0111195,0.0,0.0,0.0,0.0,0.0,0.0,0.0,0.0,0.0,0.0,0.0,0.0,0.0,0.0,0.0,0.0,0.0,0.0,0.0,0.0,0.0,0.0,0.0,inf,inf,inf,inf,1,1,1,1,0,0,0,0,1,1,0
10736000,0,47.397742,8.545594,-0.0111195,0.0,0.0,0.0,0.0,0.0,0.0,0.0,0.0,0.0,0.0,0.0,0.0,0.0,0.0,0.0,0.0,0.0,0.0,0.0,0.0,0.0,0.0,0.0,inf,inf,inf,inf,1,1,1,1,0,0,0,0,1,1,0
10832000,0,47.397742,8.545594,0.0111195,0.0,0.0,0.0,0.0,0.0,0.0,0.0,0.0,0.0,0.0,0.0,0.0,0.0,0.0,0.0,0.0,0.0,0.0,0.0,0.0,0.0,0.0,0.0,inf,inf,inf,inf,1,1,1,1,0,0,0,0,1,1,0
10928000,0,47.397742,8.545594,0.0,0.00752684,0.0,0.0,0.0,0.0,0.0,0.0,0.0,0.0,0.0,0.0,0.0,0.0,0.0,0.0,0.0,0.0,0.0,0.0,0.0,0.0,0.0,0.0,inf,inf,inf,inf,1,1,1,1,0,0,0,0,1,1,0
11024000,0,47.397742,8.545594,0.0,0.00752684,0.0,0.0,0.0,0.0,0.0,0.0,0.0,0.0,0.0,0.0,0.0,0.0,0.0,0.0,0.0,0.0,0.0,0.0,0.0,0.0,0.0,0.0,inf,inf,inf,inf,1,1,1,1,0,0,0,0,1,1,0
11120000,0,47.397742,8.545594,0.0,0.00752684,0.0,0.0,0.0,0.0,0.0,0.0,0.0,0.0,0.0,0.0,0.0,0.0,0.0,0.0,0.0,0.0,0.0,0.0,0.0,0.0,0.0,0.0,inf,inf,inf,inf,1,1,1,1,0,0,0,0,1,1,0
11216000,0,47.397742,8.545594,0.0111195,0.00752684,0.0,0.0,0.0,0.0,0.0,0.0,0.0,0.0,0.0,0.0,0.0,0.0,0.0,0.0,0.0,0.0,0.0,0.0,0.0,0.0,0.0,0.0,inf,inf,inf,inf,1,1,1,1,0,0,0,0,1,1,0
11312000,0,47.397742,8.545594,0.0111195,0.00752684,0.0,0.0,0.0,0.0,0.0,0.0,0.0,0.0,0.0,0.0,0.0,0.0,0.0,0.0,0.0,0.0,0.0,0.0,0.0,0.0,0.0,0.0,inf,inf,inf,inf,1,1,1,1,0,0,0,0,1,1,0
11408000,0,47.397742,8.545594,-0.022239,-0.00752684,0.0,0.0,0.0,0.0,0.0,0.0,0.0,0.0,0.0,0.0,0.0,0.0,0.0,0.0,0.0,0.0,0.0,0.0,0.0,0.0,0.0,0.0,inf,inf,inf,inf,1,1,1,1,0,0,0,0,1,1,0
11504000,0,47.397742,8.545594,0.0,-0.0150537,0.0,0.0,0.0,0.0,0.0,0.0,0.0,0.0,0.0,0.0,0.0,0.0,0.0,0.0,0.0,0.0,0.0,0.0,0.0,0.0,0.0,0.0,inf,inf,inf,inf,1,1,1,1,0,0,0,0,1,1,0
11600000,0,47.397742,8.545594,-0.0111195,0.00752684,0.0,0.0,0.0,0.0,0.0,0.0,0.0,0.0,0.0,0.0,0.0,0.0,0.0,0.0,0.0,0.0,0.0,0.0,0.0,0.0,0.0,0.0,inf,inf,inf,inf,1,1,1,1,0,0,0,0,1,1,0
11696000,0,47.397742,8.545594,-0.0111195,0.0,0.0,0.0,0.0,0.0,0.0,0.0,0.0,0.0,0.0,0.0,0.0,0.0,0.0,0.0,0.0,0.0,0.0,0.0,0.0,0.0,0.0,0.0,inf,inf,inf,inf,1,1,1,1,0,0,0,0,1,1,0
11792000,0,47.397742,8.545594,-0.0111195,0.0,0.0,0.0,0.0,0.0,0.0,0.0,0.0,0.0,0.0,0.0,0.0,0.0,0.0,0.0,0.0,0.0,0.0,0.0,0.0,0.0,0.0,0.0,inf,inf,inf,inf,1,1,1,1,0,0,0,0,1,1,0
11888000,0,47.397742,8.545594,-0.0111195,-0.00752684,0.0,0.0,0.0,0.0,0.0,0.0,0.0,0.0,0.0,0.0,0.0,0.0,0.0,0.0,0.0,0.0,0.0,0.0,0.0,0.0,0.0,0.0,inf,inf,inf,inf,1,1,1,1,0,0,0,0,1,1,0
11984000,0,47.397742,8.545594,0.0111195,0.0225805,0.0,0.0,0.0,0.0,0.0,0.0,0.0,0.0,0.0,0.0,0.0,0.0,0.0,0.0,0.0,0.0,0.0,0.0,0.0,0.0,0.0,0.0,inf,inf,inf,inf,1,1,1,1,0,0,0,0,1,1,0
12080000,0,47.397742,8.545594,-0.0111195,0.00752684,0.0,0.0,0.0,0.0,0.0,0.0,0.0,0.0,0.0,0.0,0.0,0.0,0.0,0.0,0.0,0.0,0.0,0.0,0.0,0.0,0.0,0.0,inf,inf,inf,inf,1,1,1,1,0,0,0,0,1,1,0
12176000,0,47.397742,8.545594,-0.0111195,0.0150537,0.0,0.0,0.0,0.0,0.0,0.0,0.0,0.0,0.0,0.0,0.0,0.0,0.0,0.0,0.0,0.0,0.0,0.0,0.0,0.0,0.0,0.0,inf,inf,inf,inf,1,1,1,1,0,0,0,0,1,1,0
12272000,0,47.397742,8.545594,-0.0111195,-0.00752684,0.0,0.0,0.0,0.0,0.0,0.0,0.0,0.0,0.0,0.0,0.0,0.0,0.0,0.0,0.0,0.0,0.0,0.0,0.0,0.0,0.0,0.0,inf,inf,inf,inf,1,1,1,1,0,0,0,0,1,1,0
12368000,0,47.397742,8.545594,-0.022239,-0.00752684,0.0,0.0,0.0,0.0,0.0,0.0,0.0,0.0,0.0,0.0,0.0,0.0,0.0,0.0,0.0,0.0,0.0,0.0,0.0,0.0,0.0,0.0,inf,inf,inf,inf,1,1,1,1,0,0,0,0,1,1,0
12464000,0,47.397742,8.545594,-0.022239,-0.00752684,0.0,0.0,0.0,0.0,0.0,0.0,0.0,0.0,0.0,0.0,0.0,0.0,0.0,0.0,0.0,0.0,0.0,0.0,0.0,0.0,0.0,0.0,inf,inf,inf,inf,1,1,1,1,0,0,0,0,1,1,0
12560000,0,47.397742,8.545594,-0.022239,-0.00752684,0.0,0.0,0.0,0.0,0.0,0.0,0.0,0.0,0.0,0.0,0.0,0.0,0.0,0.0,0.0,0.0,0.0,0.0,0.0,0.0,0.0,0.0,inf,inf,inf,inf,1,1,1,1,0,0,0,0,1,1,0
12656000,0,47.397742,8.545594,-0.0111195,-0.0301074,0.0,0.0,0.0,0.0,0.0,0.0,0.0,0.0,0.0,0.0,0.0,0.0,0.0,0.0,0.0,0.0,0.0,0.0,0.0,0.0,0.0,0.0,inf,inf,inf,inf,1,1,1,1,0,0,0,0,1,1,0
12752000,0,47.397742,8.545594,-0.0111195,-0.0150537,0.0,0.0,0.0,0.0,0.0,0.0,0.0,0.0,0.0,0.0,0.0,0.0,0.0,0.0,0.0,0.0,0.0,0.0,0.0,0.0,0.0,0.0,inf,inf,inf,inf,1,1,1,1,0,0,0,0,1,1,0
12848000,0,47.397742,8.545594,0.0,0.00752684,0.0,0.0,0.0,0.0,0.0,0.0,0.0,0.0,0.0,0.0,0.0,0.0,0.0,0.0,0.0,0.0,0.0,0.0,0.0,0.0,0.0,0.0,inf,inf,inf,inf,1,1,1,1,0,0,0,0,1,1,0
12944000,0,47.397742,8.545594,0.0,-0.00752684,0.0,0.0,0.0,0.0,0.0,0.0,0.0,0.0,0.0,0.0,0.0,0.0,0.0,0.0,0.0,0.0,0.0,0.0,0.0,0.0,0.0,0.0,inf,inf,inf,inf,1,1,1,1,0,0,0,0,1,1,0
13040000,0,47.397742,8.545594,-0.0111195,-0.00752684,0.0,0.0,0.0,0.0,0.0,0.0,0.0,0.0,0.0,0.0,0.0,0.0,0.0,0.0,0.0,0.0,0.0,0.0,0.0,0.0,0.0,0.0,inf,inf,inf,inf,1,1,1,1,0,0,0,0,1,1,0
13136000,0,47.397742,8.545594,0.0,-0.00752684,0.0,0.0,0.0,0.0,0.0,0.0,0.0,0.0,0.0,0.0,0.0,0.0,0.0,0.0,0.0,0.0,0.0,0.0,0.0,0.0,0.0,0.0,inf,inf,inf,inf,1,1,1,1,0,0,0,0,1,1,0
13232000,0,47.397742,8.545594,0.0,0.00752684,0.0,0.0,0.0,0.0,0.0,0.0,0.0,0.0,0.0,0.0,0.0,0.0,0.0,0.0,0.0,0.0,0.0,0.0,0.0,0.0,0.0,0.0,inf,inf,inf,inf,1,1,1,1,0,0,0,0,1,1,0
13328000,0,47.397742,8.545594,-0.0111195,0.0150537,0.0,0.0,0.0,0.0,0.0,0.0,0.0,0.0,0.0,0.0,0.0,0.0,0.0,0.0,0.0,0.0,0.0,0.0,0.0,0.0,0.0,0.0,inf,inf,inf,inf,1,1,1,1,0,0,0,0,1,1,0
13424000,0,47.397742,8.545594,-0.0111195,0.0,0.0,0.0,0.0,0.0,0.0,0.0,0.0,0.0,0.0,0.0,0.0,0.0,0.0,0.0,0.0,0.0,0.0,0.0,0.0,0.0,0.0,0.0,inf,inf,inf,inf,1,1,1,1,0,0,0,0,1,1,0
13520000,0,47.397742,8.545594,-0.0333585,0.0,0.0,0.0,0.0,0.0,0.0,0.0,0.0,0.0,0.0,0.0,0.0,0.0,0.0,0.0,0.0,0.0,0.0,0.0,0.0,0.0,0.0,0.0,inf,inf,inf,inf,1,1,1,1,0,0,0,0,1,1,0
13616000,0,47.397742,8.545594,-0.0111195,0.00752684,0.0,0.0,0.0,0.0,0.0,0.0,0.0,0.0,0.0,0.0,0.0,0.0,0.0,0.0,0.0,0.0,0.0,0.0,0.0,0.0,0.0,0.0,inf,inf,inf,inf,1,1,1,1,0,0,0,0,1,1,0
13712000,0,47.397742,8.545594,0.0,0.0,0.0,0.0,0.0,0.0,0.0,0.0,0.0,0.0,0.0,0.0,0.0,0.0,0.0,0.0,0.0,0.0,0.0,0.0,0.0,0.0,0.0,0.0,inf,inf,inf,inf,1,1,1,1,0,0,0,0,1,1,0
13808000,0,47.397742,8.545594,0.0,0.0150537,0.0,0.0,0.0,0.0,0.0,0.0,0.0,0.0,0.0,0.0,0.0,0.0,0.0,0.0,0.0,0.0,0.0,0.0,0.0,0.0,0.0,0.0,inf,inf,inf,inf,1,1,1,1,0,0,0,0,1,1,0
13904000,0,47.397742,8.545594,-0.0111195,0.0,0.0,0.0,0.0,0.0,0.0,0.0,0.0,0.0,0.0,0.0,0.0,0.0,0.0,0.0,0.0,0.0,0.0,0.0,0.0,0.0,0.0,0.0,inf,inf,inf,inf,1,1,1,1,0,0,0,0,1,1,0
14000000,0,47.397742,8.545594,-0.0111195,0.0,0.0,0.0,0.0,0.0,0.0,0.0,0.0,0.0,0.0,0.0,0.0,0.0,0.0,0.0,0.0,0.0,0.0,0.0,0.0,0.0,0.0,0.0,inf,inf,inf,inf,1,1,1,1,0,0,0,0,1,1,0
14096000,0,47.397742,8.545594,0.0,0.0,0.0,0.0,0.0,0.0,0.0,0.0,0.0,0.0,0.0,0.0,0.0,0.0,0.0,0.0,0.0,0.0,0.0,0.0,0.0,0.0,0.0,0.0,inf,inf,inf,inf,1,1,1,1,0,0,0,0,1,1,0
14192000,0,47.397742,8.545594,0.0111195,-0.00752684,0.0,0.0,0.0,0.0,0.0,0.0,0.0,0.0,0.0,0.0,0.0,0.0,0.0,0.0,0.0,0.0,0.0,0.0,0.0,0.0,0.0,0.0,inf,inf,inf,inf,1,1,1,1,0,0,0,0,1,1,0
14288000,0,47.397742,8.545594,-0.0111195,0.0,0.0,0.0,0.0,0.0,0.0,0.0,0.0,0.0,0.0,0.0,0.0,0.0,0.0,0.0,0.0,0.0,0.0,0.0,0.0,0.0,0.0,0.0,inf,inf,inf,inf,1,1,1,1,0,0,0,0,1,1,0
14384000,0,47.397742,8.545594,-0.0111195,-0.0150537,0.0,0.0,0.0,0.0,0.0,0.0,0.0,0.0,0.0,0.0,0.0,0.0,0.0,0.0,0.0,0.0,0.0,0.0,0.0,0.0,0.0,0.0,inf,inf,inf,inf,1,1,1,1,0,0,0,0,1,1,0
14480000,0,47.397742,8.545594,-0.0111195,-0.0301074,0.0,0.0,0.0,0.0,0.0,0.0,0.0,0.0,0.0,0.0,0.0,0.0,0.0,0.0,0.0,0.0,0.0,0.0,0.0,0.0,0.0,0.0,inf,inf,inf,inf,1,1,1,1,0,0,0,0,1,1,0
14576000,0,47.397742,8.545594,0.0,-0.0301074,0.0,0.0,0.0,0.0,0.0,0.0,0.0,0.0,0.0,0.0,0.0,0.0,0.0,0.0,0.0,0.0,0.0,0.0,0.0,0.0,0.0,0.0,inf,inf,inf,inf,1,1,1,1,0,0,0,0,1,1,0
14672000,0,47.397742,8.545594,0.0,-0.00752684,0.0,0.0,0.0,0.0,0.0,0.0,0.0,0.0,0.0,0.0,0.0,0.0,0.0,0.0,0.0,0.0,0.0,0.0,0.0,0.0,0.0,0.0,inf,inf,inf,inf,1,1,1,1,0,0,0,0,1,1,0
14768000,0,47.397742,8.545594,0.0111195,-0.0150537,0.0,0.0,0.0,0.0,0.0,0.0,0.0,0.0,0.0,0.0,0.0,0.0,0.0,0.0,0.0,0.0,0.0,0.0,0.0,0.0,0.0,0.0,inf,inf,inf,inf,1,1,1,1,0,0,0,0,1,1,0
14864000,0,47.397742,8.545594,0.0,-0.00752684,0.0,0.0,0.0,0.0,0.0,0.0,0.0,0.0,0.0,0.0,0.0,0.0,0.0,0.0,0.0,0.0,0.0,0.0,0.0,0.0,0.0,0.0,inf,inf,inf,inf,1,1,1,1,0,0,0,0,1,1,0
14960000,0,47.397742,8.545594,-0.0111195,0.0,0.0,0.0,0.0,0.0,0.0,0.0,0.0,0.0,0.0,0.0,0.0,0.0,0.0,0.0,0.0,0.0,0.0,0.0,0.0,0.0,0.0,0.0,inf,inf,inf,inf,1,1,1,1,0,0,0,0,1,1,0
15056000,0,47.397742,8.545594,-0.022239,-0.00752684,0.0,0.0,0.0,0.0,0.0,0.0,0.0,0.0,0.0,0.0,0.0,0.0,0.0,0.0,0.0,0.0,0.0,0.0,0.0,0.0,0.0,0.0,inf,inf,inf,inf,1,1,1,1,0,0,0,0,1,1,0
15152000,0,47.397742,8.545594,-0.0111195,0.0150537,0.0,0.0,0.0,0.0,0.0,0.0,0.0,0.0,0.0,0.0,0.0,0.0,0.0,0.0,0.0,0.0,0.0,0.0,0.0,0.0,0.0,0.0,inf,inf,inf,inf,1,1,1,1,0,0,0,0,1,1,0
15248000,0,47.397742,8.545594,-0.0111195,0.00752684,0.0,0.0,0.0,0.0,0.0,0.0,0.0,0.0,0.0,0.0,0.0,0.0,0.0,0.0,0.0,0.0,0.0,0.0,0.0,0.0,0.0,0.0,inf,inf,inf,inf,1,1,1,1,0,0,0,0,1,1,0
15344000,0,47.397742,8.545594,-0.022239,0.0,0.0,0.0,0.0,0.0,0.0,0.0,0.0,0.0,0.0,0.0,0.0,0.0,0.0,0.0,0.0,0.0,0.0,0.0,0.0,0.0,0.0,0.0,inf,inf,inf,inf,1,1,1,1,0,0,0,0,1,1,0
15440000,0,47.397742,8.545594,-0.0111195,-0.00752684,0.0,0.0,0.0,0.0,0.0,0.0,0.0,0.0,0.0,0.0,0.0,0.0,0.0,0.0,0.0,0.0,0.0,0.0,0.0,0.0,0.0,0.0,inf,inf,inf,inf,1,1,1,1,0,0,0,0,1,1,0
15536000,0,47.397742,8.545594,-0.022239,-0.00752684,0.0,0.0,0.0,0.0,0.0,0.0,0.0,0.0,0.0,0.0,0.0,0.0,0.0,0.0,0.0,0.0,0.0,0.0,0.0,0.0,0.0,0.0,inf,inf,inf,inf,1,1,1,1,0,0,0,0,1,1,0
15632000,0,47.397742,8.545594,0.0,-0.00752684,0.0,0.0,0.0,0.0,0.0,0.0,0.0,0.0,0.0,0.0,0.0,0.0,0.0,0.0,0.0,0.0,0.0,0.0,0.0,0.0,0.0,0.0,inf,inf,inf,inf,1,1,1,1,0,0,0,0,1,1,0
15728000,0,47.397742,8.545594,0.0,0.0,0.0,0.0,0.0,0.0,0.0,0.0,0.0,0.0,0.0,0.0,0.0,0.0,0.0,0.0,0.0,0.0,0.0,0.0,0.0,0.0,0.0,0.0,inf,inf,inf,inf,1,1,1,1,0,0,0,0,1,1,0
15824000,0,47.397742,8.545594,0.0,-0.0150537,0.0,0.0,0.0,0.0,0.0,0.0,0.0,0.0,0.0,0.0,0.0,0.0,0.0,0.0,0.0,0.0,0.0,0.0,0.0,0.0,0.0,0.0,inf,inf,inf,inf,1,1,1,1,0,0,0,0,1,1,0
15920000,0,47.397742,8.545594,-0.0111195,-0.0150537,0.0,0.0,0.0,0.0,0.0,0.0,0.0,0.0,0.0,0.0,0.0,0.0,0.0,0.0,0.0,0.0,0.0,0.0,0.0,0.0,0.0,0.0,inf,inf,inf,inf,1,1,1,1,0,0,0,0,1,1,0
16016000,0,47.397742,8.545594,0.0111195,-0.00752684,0.0,0.0,0.0,0.0,0.0,0.0,0.0,0.0,0.0,0.0,0.0,0.0,0.0,0.0,0.0,0.0,0.0,0.0,0.0,0.0,0.0,0.0,inf,inf,inf,inf,1,1,1,1,0,0,0,0,1,1,0
16112000,0,47.397742,8.545594,0.0111195,0.0,0.0,0.0,0.0,0.0,0.0,0.0,0.0,0.0,0.0,0.0,0.0,0.0,0.0,0.0,0.0,0.0,0.0,0.0,0.0,0.0,0.0,0.0,inf,inf,inf,inf,1,1,1,1,0,0,0,0,1,1,0
16208000,0,47.397742,8.545594,0.0,-0.0150537,0.0,0.0,0.0,0.0,0.0,0.0,0.0,0.0,0.0,0.0,0.0,0.0,0.0,0.0,0.0,0.0,0.0,0.0,0.0,0.0,0.0,0.0,inf,inf,inf,inf,1,1,1,1,0,0,0,0,1,1,0
16304000,0,47.397742,8.545594,0.0,-0.0225805,0.0,0.0,0.0,0.0,0.0,0.0,0.0,0.0,0.0,0.0,0.0,0.0,0.0,0.0,0.0,0.0,0.0,0.0,0.0,0.0,0.0,0.0,inf,inf,inf,inf,1,1,1,1,0,0,0,0,1,1,0
16400000,0,47.397742,8.545594,0.0,-0.00752684,0.0,0.0,0.0,0.0,0.0,0.0,0.0,0.0,0.0,0.0,0.0,0.0,0.0,0.0,0.0,0.0,0.0,0.0,0.0,0.0,0.0,0.0,inf,inf,inf,inf,1,1,1,1,0,0,0,0,1,1,0
16496000,0,47.397742,8.545594,0.0,-0.00752684,0.0,0.0,0.0,0.0,0.0,0.0,0.0,0.0,0.0,0.0,0.0,0.0,0.0,0.0,0.0,0.0,0.0,0.0,0.0,0.0,0.0,0.0,inf,inf,inf,inf,1,1,1,1,0,0,0,0,1,1,0
16592000,0,47.397742,8.545594,0.0,-0.0150537,0.0,0.0,0.0,0.0,0.0,0.0,0.0,0.0,0.0,0.0,0.0,0.0,0.0,0.0,0.0,0.0,0.0,0.0,0.0,0.0,0.0,0.0,inf,inf,inf,inf,1,1,1,1,0,0,0,0,1,1,0
16688000,0,47.397742,8.545594,-0.0111195,-0.00752684,0.0,0.0,0.0,0.0,0.0,0.0,0.0,0.0,0.0,0.0,0.0,0.0,0.0,0.0,0.0,0.0,0.0,0.0,0.0,0.0,0.0,0.0,inf,inf,inf,inf,1,1,1,1,0,0,0,0,1,1,0
16784000,0,47.397742,8.545594,-0.022239,0.0,0.0,0.0,0.0,0.0,0.0,0.0,0.0,0.0,0.0,0.0,0.0,0.0,0.0,0.0,0.0,0.0,0.0,0.0,0.0,0.0,0.0,0.0,inf,inf,inf,inf,1,1,1,1,0,0,0,0,1,1,0
16880000,0,47.397742,8.545594,0.0,0.0150537,0.0,0.0,0.0,0.0,0.0,0.0,0.0,0.0,0.0,0.0,0.0,0.0,0.0,0.0,0.0,0.0,0.0,0.0,0.0,0.0,0.0,0.0,inf,inf,inf,inf,1,1,1,1,0,0,0,0,1,1,0
16976000,0,47.397742,8.545594,-0.022239,0.0225805,0.0,0.0,0.0,0.0,0.0,0.0,0.0,0.0,0.0,0.0,0.0,0.0,0.0,0.0,0.0,0.0,0.0,0.0,0.0,0.0,0.0,0.0,inf,inf,inf,inf,1,1,1,1,0,0,0,0,1,1,0
17072000,0,47.397742,8.545594,-0.0333585,0.00752684,0.0,0.0,0.0,0.0,0.0,0.0,0.0,0.0,0.0,0.0,0.0,0.0,0.0,0.0,0.0,0.0,0.0,0.0,0.0,0.0,0.0,0.0,inf,inf,inf,inf,1,1,1,1,0,0,0,0,1,1,0
17168000,0,47.397742,8.545594,-0.0111195,0.0,0.0,0.0,0.0,0.0,0.0,0.0,0.0,0.0,0.0,0.0,0.0,0.0,0.0,0.0,0.0,0.0,0.0,0.0,0.0,0.0,0.0,0.0,inf,inf,inf,inf,1,1,1,1,0,0,0,0,1,1,0
17264000,0,47.397742,8.545594,-0.022239,-0.0150537,0.0,0.0,0.0,0.0,0.0,0.0,0.0,0.0,0.0,0.0,0.0,0.0,0.0,0.0,0.0,0.0,0.0,0.0,0.0,0.0,0.0,0.0,inf,inf,inf,inf,1,1,1,1,0,0,0,0,1,1,0
17360000,0,47.397742,8.545594,-0.0111195,0.0,0.0,0.0,0.0,0.0,0.0,0.0,0.0,0.0,0.0,0.0,0.0,0.0,0.0,0.0,0.0,0.0,0.0,0.0,0.0,0.0,0.0,0.0,inf,inf,inf,inf,1,1,1,1,0,0,0,0,1,1,0
17456000,0,47.397742,8.545594,0.0,-0.00752684,0.0,0.0,0.0,0.0,0.0,0.0,0.0,0.0,0.0,0.0,0.0,0.0,0.0,0.0,0.0,0.0,0.0,0.0,0.0,0.0,0.0,0.0,inf,inf,inf,inf,1,1,1,1,0,0,0,0,1,1,0
17552000,0,47.397742,8.545594,-0.0111195,0.00752684,0.0,0.0,0.0,0.0,0.0,0.0,0.0,0.0,0.0,0.0,0.0,0.0,0.0,0.0,0.0,0.0,0.0,0.0,0.0,0.0,0.0,0.0,inf,inf,inf,inf,1,1,1,1,0,0,0,0,1,1,0
17648000,0,47.397742,8.545594,-0.022239,-0.0150537,0.0,0.0,0.0,0.0,0.0,0.0,0.0,0.0,0.0,0.0,0.0,0.0,0.0,0.0,0.0,0.0,0.0,0.0,0.0,0.0,0.0,0.0,inf,inf,inf,inf,1,1,1,1,0,0,0,0,1,1,0
17744000,0,47.397742,8.545594,0.0,0.0,0.0,0.0,0.0,0.0,0.0,0.0,0.0,0.0,0.0,0.0,0.0,0.0,0.0,0.0,0.0,0.0,0.0,0.0,0.0,0.0,0.0,0.0,inf,inf,inf,inf,1,1,1,1,0,0,0,0,1,1,0
17840000,0,47.397742,8.545594,-0.0111195,-0.0150537,0.0,0.0,0.0,0.0,0.0,0.0,0.0,0.0,0.0,0.0,0.0,0.0,0.0,0.0,0.0,0.0,0.0,0.0,0.0,0.0,0.0,0.0,inf,inf,inf,inf,1,1,1,1,0,0,0,0,1,1,0
17936000,0,47.397742,8.545594,-0.022239,0.0,0.0,0.0,0.0,0.0,0.0,0.0,0.0,0.0,0.0,0.0,0.0,0.0,0.0,0.0,0.0,0.0,0.0,0.0,0.0,0.0,0.0,0.0,inf,inf,inf,inf,1,1,1,1,0,0,0,0,1,1,0
18032000,0,47.397742,8.545594,0.0,0.00752684,0.0,0.0,0.0,0.0,0.0,0.0,0.0,0.0,0.0,0.0,0.0,0.0,0.0,0.0,0.0,0.0,0.0,0.0,0.0,0.0,0.0,0.0,inf,inf,inf,inf,1,1,1,1,0,0,0,0,1,1,0
18128000,0,47.397742,8.545594,0.0,0.00752684,0.0,0.0,0.0,0.0,0.0,0.0,0.0,0.0,0.0,0.0,0.0,0.0,0.0,0.0,0.0,0.0,0.0,0.0,0.0,0.0,0.0,0.0,inf,inf,inf,inf,1,1,1,1,0,0,0,0,1,1,0
18224000,0,47.397742,8.545594,-0.0111195,0.0,0.0,0.0,0.0,0.0,0.0,0.0,0.0,0.0,0.0,0.0,0.0,0.0,0.0,0.0,0.0,0.0,0.0,0.0,0.0,0.0,0.0,0.0,inf,inf,inf,inf,1,1,1,1,0,0,0,0,1,1,0
18320000,0,47.397742,8.545594,-0.022239,0.0,0.0,0.0,0.0,0.0,0.0,0.0,0.0,0.0,0.0,0.0,0.0,0.0,0.0,0.0,0.0,0.0,0.0,0.0,0.0,0.0,0.0,0.0,inf,inf,inf,inf,1,1,1,1,0,0,0,0,1,1,0
18416000,0,47.397742,8.545594,-0.0111195,-0.00752684,0.0,0.0,0.0,0.0,0.0,0.0,0.0,0.0,0.0,0.0,0.0,0.0,0.0,0.0,0.0,0.0,0.0,0.0,0.0,0.0,0.0,0.0,inf,inf,inf,inf,1,1,1,1,0,0,0,0,1,1,0
18512000,0,47.397742,8.545594,-0.0111195,0.0,0.0,0.0,0.0,0.0,0.0,0.0,0.0,0.0,0.0,0.0,0.0,0.0,0.0,0.0,0.0,0.0,0.0,0.0,0.0,0.0,0.0,0.0,inf,inf,inf,inf,1,1,1,1,0,0,0,0,1,1,0
18608000,0,47.397742,8.545594,-0.022239,0.0,0.0,0.0,0.0,0.0,0.0,0.0,0.0,0.0,0.0,0.0,0.0,0.0,0.0,0.0,0.0,0.0,0.0,0.0,0.0,0.0,0.0,0.0,inf,inf,inf,inf,1,1,1,1,0,0,0,0,1,1,0
18704000,0,47.397742,8.545594,-0.0111195,-0.00752684,0.002,0.0,0.0,0.0,0.0,0.0,-0.06,0.0,0.0,0.0,0.0,0.0,0.0,0.0,-1.40778e-05,0.0,0.0,0.0,0.0,0.0,0.0,0.0,inf,inf,inf,inf,1,1,1,1,0,0,0,0,1,1,0
18800000,0,47.397742,8.545594,-0.022239,0.0,0.013,0.0,0.0,0.0,0.0,-0.01,-0.18,0.0,0.0,0.0,0.0,0.0,0.0,0.0,-0.000139886,0.0,0.0,0.0,0.0,0.0,0.0,0.0,inf,inf,inf,inf,1,1,1,1,0,0,0,0,1,1,0
18896000,0,47.397742,8.545594,-0.0111195,-0.0150537,0.036,0.0,0.0,0.0,0.0,-0.02,-0.3,0.0,0.0,0.0,0.0,0.0,0.0,0.0,-0.000290961,0.0,0.0,0.0,0.0,0.0,0.0,0.0,inf,inf,inf,inf,1,1,1,1,0,0,0,0,1,1,0
18992000,0,47.397742,8.545594,0.0,-0.0150537,0.072,0.0,0.0,0.0,0.0,-0.02,-0.43,0.0,0.0,0.0,0.0,0.0,0.0,0.0,-0.00052912,0.0,0.0,0.0,0.0,0.0,0.0,0.0,inf,inf,inf,inf,1,1,1,1,0,0,0,0,1,1,0
19088000,0,47.397742,8.545594,-0.0111195,-0.0225805,0.119,0.0,0.0,0.0,0.0,-0.03,-0.56,0.0,0.0,0.0,0.0,0.0,0.0,0.0,-0.000908205,0.0,0.0,0.0,0.0,0.0,0.0,0.0,inf,inf,inf,inf,1,1,1,1,0,0,0,0,1,1,0
19184000,0,47.397742,8.545594,-0.022239,-0.0225805,0.179,0.0,0.0,0.0,0.0,-0.03,-0.68,0.0,0.0,0.0,0.0,0.0,0.0,0.0,-0.00126326,0.0,0.0,0.0,0.0,0.0,0.0,0.0,inf,inf,inf,inf,1,1,1,1,0,0,0,0,1,1,0
19280000,0,47.397742,8.545594,-0.0111195,-0.0150537,0.251,0.0,0.0,0.0,0.0,-0.03,-0.81,0.0,0.0,0.0,0.0,0.0,0.0,0.0,-0.00152003,0.0,0.0,0.0,0.0,0.0,0.0,0.0,inf,inf,inf,inf,1,1,1,1,0,0,0,0,1,1,0
19376000,0,47.397742,8.545594,-0.0111195,-0.0376342,0.336,0.0,0.0,0.0,0.0,-0.02,-0.94,0.0,0.0,0.0,0.0,0.0,0.0,0.0,-0.00173436,0.0,0.0,0.0,0.0,0.0,0.0,0.0,inf,inf,inf,inf,1,1,1,1,0,0,0,0,1,1,0
19472000,0,47.397742,8.545594,0.0,-0.045161,0.433,0.0,0.0,0.0,0.0,-0.02,-1.07,0.0,0.0,0.0,0.0,0.0,0.0,0.0,-0.00182512,0.0,0.0,0.0,0.0,0.0,0.0,0.0,inf,inf,inf,inf,1,1,1,1,0,0,0,0,1,1,0
19568000,0,47.397742,8.545594,0.0111195,-0.0376342,0.542,0.0,0.0,0.0,0.0,-0.02,-1.2,0.0,0.0,0.0,0.0,0.0,0.0,0.0,-0.00180857,0.0,0.0,0.0,0.0,0.0,0.0,0.0,inf,inf,inf,inf,1,1,1,1,0,0,0,0,1,1,0
19664000,0,47.397742,8.545594,0.0,-0.0376342,0.664,0.0,0.0,0.0,0.0,-0.01,-1.33,0.0,0.0,0.0,0.0,0.0,0.0,0.0,-0.00179103,0.0,0.0,0.0,0.0,0.0,0.0,0.0,inf,inf,inf,inf,1,1,1,1,0,0,0,0,1,1,0
19760000,0,47.397742,8.545594,-0.0111195,-0.0526879,0.798,0.0,0.0,0.0,0.0,-0.01,-1.46,0.0,0.0,0.0,0.0,0.0,0.0,0.0,-0.00185174,0.0,0.0,0.0,0.0,0.0,0.0,0.0,inf,inf,inf,inf,1,1,1,1,0,0,0,0,1,1,0
19856000,0,47.397742,8.545594,0.0,-0.045161,0.945,0.0,0.0,0.0,0.0,-0.01,-1.6,0.0,0.0,0.0,0.0,0.0,0.0,0.0,-0.00197953,0.0,0.0,0.0,0.0,0.0,0.0,0.0,inf,inf,inf,inf,1,1,1,1,0,0,0,0,1,1,0
19952000,0,47.397742,8.545594,-0.0111195,-0.0225805,1.105,0.0,0.0,0.0,0.0,-0.01,-1.73,0.0,0.0,0.0,0.0,0.0,0.0,0.0,-0.00206859,0.0,0.0,0.0,0.0,0.0,0.0,0.0,inf,inf,inf,inf,1,1,1,1,0,0,0,0,1,1,0
20048000,0,47.397742,8.545594,-0.022239,-0.0225805,1.278,0.0,0.0,0.0,0.0,0.0,-1.86,0.0,0.0,0.0,0.0,0.0,0.0,0.0,-0.00218474,0.0,0.0,0.0,0.0,0.0,0.0,0.0,inf,inf,inf,inf,1,1,1,1,0,0,0,0,1,1,0
20144000,0,47.397742,8.545594,-0.022239,-0.0150537,1.463,0.0,0.0,0.0,0.0,0.0,-1.99,0.0,0.0,0.0,0.0,0.0,0.0,0.0,-0.00223926,0.0,0.0,0.0,0.0,0.0,0.0,0.0,inf,inf,inf,inf,1,1,1,1,0,0,0,0,1,1,0
20240000,0,47.397742,8.545594,-0.022239,-0.0301074,1.66,0.0,0.0,0.0,0.0,0.0,-2.12,0.0,0.0,0.0,0.0,0.0,0.0,0.0,-0.00228511,0.0,0.0,0.0,0.0,0.0,0.0,0.0,inf,inf,inf,inf,1,1,1,1,0,0,0,0,1,1,0
20336000,0,47.397742,8.545594,-0.022239,-0.045161,1.87,0.0,0.0,0.0,0.0,0.0,-2.24,0.0,0.0,0.0,0.0,0.0,0.0,0.0,-0.00223121,0.0,0.0,0.0,0.0,0.0,0.0,0.0,inf,inf,inf,inf,1,1,1,1,0,0,0,0,1,1,0
20432000,0,47.397742,8.545594,0.0,-0.0376342,2.091,0.0,0.0,0.0,0.0,0.0,-2.37,0.0,0.0,0.0,0.0,0.0,0.0,0.0,-0.00200547,0.0,0.0,0.0,0.0,0.0,0.0,0.0,inf,inf,inf,inf,1,1,1,1,0,0,0,0,1,1,0
20528000,0,47.397742,8.545594,-0.0111195,-0.0301074,2.324,0.0,0.0,0.0,0.0,0.0,-2.49,0.0,0.0,0.0,0.0,0.0,0.0,0.0,-0.00139688,0.0,0.0,0.0,0.0,0.0,0.0,0.0,inf,inf,inf,inf,1,1,1,1,0,0,0,0,1,1,0
20624000,0,47.397742,8.545594,-0.022239,-0.0301074,2.568,0.0,0.0,0.0,0.0,0.0,-2.55,0.0,0.0,0.0,0.0,0.0,0.0,0.0,-0.000681982,0.0,0.0,0.0,0.0,0.0,0.0,0.0,inf,inf,inf,inf,1,1,1,1,0,0,0,0,1,1,0
20720000,0,47.397742,8.545594,-0.0111195,-0.0150537,2.81,0.0,0.0,0.0,0.0,0.0,-2.47,0.0,0.0,0.0,0.0,0.0,0.0,0.0,2.9204e-05,0.0,0.0,0.0,0.0,0.0,0.0,0.0,inf,inf,inf,inf,1,1,1,1,0,0,0,0,1,1,0
20816000,0,47.397742,8.545594,0.0,-0.0376342,3.043,0.0,0.0,0.0,0.0,0.0,-2.37,0.0,0.0,0.0,0.0,0.0,0.0,0.0,0.000627143,0.0,0.0,0.0,0.0,0.0,0.0,0.0,inf,inf,inf,inf,1,1,1,1,0,0,0,0,1,1,0
20912000,0,47.397742,8.545594,0.0,-0.0301074,3.267,0.0,0.0,0.0,0.0,0.01,-2.28,0.0,0.0,0.0,0.0,0.0,0.0,0.0,0.00116855,0.0,0.0,0.0,0.0,0.0,0.0,0.0,inf,inf,inf,inf,1,1,1,1,0,0,0,0,1,1,0
21008000,0,47.397742,8.545594,0.0,-0.0225805,3.483,0.0,0.0,0.0,0.0,0.01,-2.2,0.0,0.0,0.0,0.0,0.0,0.0,0.0,0.0015416,0.0,0.0,0.0,0.0,0.0,0.0,0.0,inf,inf,inf,inf,1,1,1,1,0,0,0,0,1,1,0
21104000,0,47.397742,8.545594,0.0,-0.0301074,3.692,0.0,0.0,0.0,0.0,0.0,-2.13,0.0,0.0,0.0,0.0,0.0,0.0,0.0,0.00163261,0.0,0.0,0.0,0.0,0.0,0.0,0.0,inf,inf,inf,inf,1,1,1,1,0,0,0,0,1,1,0
21200000,0,47.397742,8.545594,-0.0111195,-0.0225805,3.893,0.0,0.0,0.0,0.0,0.0,-2.05,0.0,0.0,0.0,0.0,0.0,0.0,0.0,0.00144182,0.0,0.0,0.0,0.0,0.0,0.0,0.0,inf,inf,inf,inf,1,1,1,1,0,0,0,0,1,1,0
21296000,0,47.397742,8.545594,-0.0111195,-0.0301074,4.087,0.0,0.0,0.0,0.0,0.0,-1.98,0.0,0.0,0.0,0.0,0.0,0.0,0.0,0.00107718,0.0,0.0,0.0,0.0,0.0,0.0,0.0,inf,inf,inf,inf,1,1,1,1,0,0,0,0,1,1,0
21392000,0,47.397742,8.545594,-0.0111195,-0.0225805,4.274,0.0,0.0,0.0,0.0,0.0,-1.92,0.0,0.0,0.0,0.0,0.0,0.0,0.0,0.000775236,0.0,0.0,0.0,0.0,0.0,0.0,0.0,inf,inf,inf,inf,1,1,1,1,0,0,0,0,1,1,0
21488000,0,47.397742,8.545594,-0.022239,-0.0150537,4.456,0.0,0.0,0.0,0.0,0.0,-1.86,0.0,0.0,0.0,0.0,0.0,0.0,0.0,0.000614578,0.0,0.0,0.0,0.0,0.0,0.0,0.0,inf,inf,inf,inf,1,1,1,1,0,0,0,0,1,1,0
21584000,0,47.397742,8.545594,-0.0111195,-0.0150537,4.633,0.0,0.0,0.0,0.0,0.0,-1.81,0.0,0.0,0.0,0.0,0.0,0.0,0.0,0.000555822,0.0,0.0,0.0,0.0,0.0,0.0,0.0,inf,inf,inf,inf,1,1,1,1,0,0,0,0,1,1,0
21680000,0,47.397742,8.545594,-0.022239,-0.0301074,4.805,0.0,0.0,0.0,0.0,0.0,-1.76,0.0,0.0,0.0,0.0,0.0,0.0,0.0,0.000469045,0.0,0.0,0.0,0.0,0.0,0.0,0.0,inf,inf,inf,inf,1,1,1,1,0,0,0,0,1,1,0
21776000,0,47.397742,8.545594,-0.022239,-0.0150537,4.973,0.0,0.0,0.0,0.0,0.0,-1.73,0.0,0.0,0.0,0.0,0.0,0.0,0.0,0.000440161,0.0,0.0,0.0,0.0,0.0,0.0,0.0,inf,inf,inf,inf,1,1,1,1,0,0,0,0,1,1,0
21872000,0,47.397742,8.545594,-0.0333585,-0.0150537,5.138,0.0,0.0,0.0,0.0,0.0,-1.69,0.0,0.0,0.0,0.0,0.0,0.0,0.0,0.000488503,0.0,0.0,0.0,0.0,0.0,0.0,0.0,inf,inf,inf,inf,1,1,1,1,0,0,0,0,1,1,0
21968000,0,47.397742,8.545594,-0.022239,-0.00752684,5.3,0.0,0.0,0.0,0.0,0.0,-1.67,0.0,0.0,0.0,0.0,0.0,0.0,0.0,0.000597829,0.0,0.0,0.0,0.0,0.0,0.0,0.0,inf,inf,inf,inf,1,1,1,1,0,0,0,0,1,1,0
22064000,0,47.397742,8.545594,-0.0111195,-0.00752684,5.459,0.0,0.0,0.0,0.0,0.0,-1.64,0.0,0.0,0.0,0.0,0.0,0.0,0.0,0.000707027,0.0,0.0,0.0,0.0,0.0,0.0,0.0,inf,inf,inf,inf,1,1,1,1,0,0,0,0,1,1,0
22160000,0,47.397742,8.545594,-0.0333585,-0.0150537,5.615,0.0,0.0,0.0,0.0,0.0,-1.61,0.0,0.0,0.0,0.0,0.0,0.0,0.0,0.000863023,0.0,0.0,0.0,0.0,0.0,0.0,0.0,inf,inf,inf,inf,1,1,1,1,0,0,0,0,1,1,0
22256000,0,47.397742,8.545594,-0.022239,-0.00752684,5.77,0.0,0.0,0.0,0.0,0.0,-1.6,0.0,0.0,0.0,0.0,0.0,0.0,0.0,0.00112986,0.0,0.0,0.0,0.0,0.0,0.0,0.0,inf,inf,inf,inf,1,1,1,1,0,0,0,0,1,1,0
22352000,0,47.397742,8.545594,-0.022239,-0.00752684,5.923,0.0,0.0,0.0,0.0,0.0,-1.58,0.0,0.0,0.0,0.0,0.0,0.0,0.0,0.00141373,0.0,0.0,0.0,0.0,0.0,0.0,0.0,inf,inf,inf,inf,1,1,1,1,0,0,0,0,1,1,0
22448000,0,47.397742,8.545594,-0.022239,-0.0150537,6.074,0.0,0.0,0.0,0.0,0.0,-1.56,0.0,0.0,0.0,0.0,0.0,0.0,0.0,0.00158169,0.0,0.0,0.0,0.0,0.0,0.0,0.0,inf,inf,inf,inf,1,1,1,1,0,0,0,0,1,1,0
22544000,0,47.397742,8.545594,-0.0111195,-0.0225805,6.223,0.0,0.0,0.0,0.0,0.0,-1.55,0.0,0.0,0.0,0.0,0.0,0.0,0.0,0.00177128,0.0,0.0,0.0,0.0,0.0,0.0,0.0,inf,inf,inf,inf,1,1,1,1,0,0,0,0,1,1,0
22640000,0,47.397742,8.545594,-0.0111195,-0.00752684,6.372,0.0,0.0,0.0,0.0,0.0,-1.54,0.0,0.0,0.0,0.0,0.0,0.0,0.0,0.00191404,0.0,0.0,0.0,0.0,0.0,0.0,0.0,inf,inf,inf,inf,1,1,1,1,0,0,0,0,1,1,0
22736000,0,47.397742,8.545594,-0.022239,0.0,6.52,0.0,0.0,0.0,0.0,0.0,-1.53,0.0,0.0,0.0,0.0,0.0,0.0,0.0,0.00194503,0.0,0.0,0.0,0.0,0.0,0.0,0.0,inf,inf,inf,inf,1,1,1,1,0,0,0,0,1,1,0
22832000,0,47.397742,8.545594,-0.0111195,-0.0150537,6.667,0.0,0.0,0.0,0.0,0.0,-1.52,0.0,0.0,0.0,0.0,0.0,0.0,0.0,0.00185416,0.0,0.0,0.0,0.0,0.0,0.0,0.0,inf,inf,inf,inf,1,1,1,1,0,0,0,0,1,1,0
22928000,0,47.397742,8.545594,-0.0111195,-0.00752684,6.814,0.0,0.0,0.0,0.0,0.0,-1.52,0.0,0.0,0.0,0.0,0.0,0.0,0.0,0.00172081,0.0,0.0,0.0,0.0,0.0,0.0,0.0,inf,inf,inf,inf,1,1,1,1,0,0,0,0,1,1,0
23024000,0,47.397742,8.545594,-0.0111195,-0.0225805,6.96,0.0,0.0,0.0,0.0,0.0,-1.52,0.0,0.0,0.0,0.0,0.0,0.0,0.0,0.00166825,0.0,0.0,0.0,0.0,0.0,0.0,0.0,inf,inf,inf,inf,1,1,1,1,0,0,0,0,1,1,0
23120000,0,47.397742,8.545594,-0.0111195,-0.0301074,7.106,0.0,0.0,0.0,0.0,0.0,-1.51,0.0,0.0,0.0,0.0,0.0,0.0,0.0,0.00167826,0.0,0.0,0.0,0.0,0.0,0.0,0.0,inf,inf,inf,inf,1,1,1,1,0,0,0,0,1,1,0
23216000,0,47.397742,8.545594,-0.0111195,-0.0376342,7.251,0.0,0.0,0.0,0.0,0.0,-1.51,0.0,0.0,0.0,0.0,0.0,0.0,0.0,0.00168884,0.0,0.0,0.0,0.0,0.0,0.0,0.0,inf,inf,inf,inf,1,1,1,1,0,0,0,0,1,1,0
23312000,0,47.397742,8.545594,0.0,-0.0225805,7.396,0.0,0.0,0.0,0.01,0.0,-1.51,0.0,0.0,0.0,0.0,0.0,0.0,0.0,0.00171732,0.0,0.0,0.0,0.0,0.0,0.0,0.0,inf,inf,inf,inf,1,1,1,1,0,0,0,0,1,1,0
23408000,0,47.397742,8.545594,-0.0111195,-0.0376342,7.541,0.0,0.0,0.0,0.01,0.0,-1.5,0.0,0.0,0.0,0.0,0.0,0.0,0.0,0.00177317,0.0,0.0,0.0,0.0,0.0,0.0,0.0,inf,inf,inf,inf,1,1,1,1,0,0,0,0,1,1,0
23504000,0,47.397742,8.545594,-0.022239,-0.0301074,7.686,0.0,0.0,0.0,0.01,0.01,-1.5,0.0,0.0,0.0,0.0,0.0,0.0,0.0,0.00193108,0.0,0.0,0.0,0.0,0.0,0.0,0.0,inf,inf,inf,inf,1,1,1,1,0,0,0,0,1,1,0
23600000,0,47.397742,8.545594,0.0,-0.0225805,7.83,0.0,0.0,0.0,0.01,0.01,-1.5,0.0,0.0,0.0,0.0,0.0,0.0,0.0,0.00208687,0.0,0.0,0.0,0.0,0.0,0.0,0.0,inf,inf,inf,inf,1,1,1,1,0,0,0,0,1,1,0
23696000,0,47.397742,8.545594,-0.0111195,-0.0225805,7.975,0.0,0.0,0.0,0.01,0.01,-1.5,0.0,0.0,0.0,0.0,0.0,0.0,0.0,0.00214603,0.0,0.0,0.0,0.0,0.0,0.0,0.0,inf,inf,inf,inf,1,1,1,1,0,0,0,0,1,1,0
23792000,0,47.397742,8.545594,-0.022239,-0.00752684,8.119,0.0,0.0,0.0,0.01,0.01,-1.49,0.0,0.0,0.0,0.0,0.0,0.0,0.0,0.00222036,0.0,0.0,0.0,0.0,0.0,0.0,0.0,inf,inf,inf,inf,1,1,1,1,0,0,0,0,1,1,0
23888000,0,47.397742,8.545594,-0.0111195,-0.00752684,8.263,0.0,0.0,0.0,0.01,0.02,-1.49,0.0,0.0,0.0,0.0,0.0,0.0,0.0,0.0022344,0.0,0.0,0.0,0.0,0.0,0.0,0.0,inf,inf,inf,inf,1,1,1,1,0,0,0,0,1,1,0
23984000,0,47.397742,8.545594,0.0,-0.00752684,8.406,0.0,0.0,0.0,0.01,0.02,-1.49,0.0,0.0,0.0,0.0,0.0,0.0,0.0,0.0021426,0.0,0.0,0.0,0.0,0.0,0.0,0.0,inf,inf,inf,inf,1,1,1,1,0,0,0,0,1,1,0
24080000,0,47.397742,8.545594,-0.0111195,0.0,8.55,0.0,0.0,0.0,0.02,0.02,-1.49,0.0,0.0,0.0,0.0,0.0,0.0,0.0,0.00203845,0.0,0.0,0.0,0.0,0.0,0.0,0.0,inf,inf,inf,inf,1,1,1,1,0,0,0,0,1,1,0
24176000,0,47.397742,8.545594,-0.0111195,-0.0150537,8.694,0.0,0.0,0.0,0.02,0.02,-1.49,0.0,0.0,0.0,0.0,0.0,0.0,0.0,0.00194134,0.0,0.0,0.0,0.0,0.0,0.0,0.0,inf,inf,inf,inf,1,1,1,1,0,0,0,0,1,1,0
24272000,0,47.397742,8.545594,-0.0111195,-0.00752684,8.837,0.0,0.0,0.0,0.02,0.02,-1.49,0.0,0.0,0.0,0.0,0.0,0.0,0.0,0.00189713,0.0,0.0,0.0,0.0,0.0,0.0,0.0,inf,inf,inf,inf,1,1,1,1,0,0,0,0,1,1,0
24368000,0,47.397742,8.545594,-0.0111195,0.0150537,8.981,0.0,0.0,0.0,0.02,0.02,-1.5,0.0,0.0,0.0,0.0,0.0,0.0,0.0,0.00182468,0.0,0.0,0.0,0.0,0.0,0.0,0.0,inf,inf,inf,inf,1,1,1,1,0,0,0,0,1,1,0
24464000,0,47.397742,8.545594,0.0,0.0150537,9.125,0.0,0.0,0.0,0.02,0.02,-1.5,0.0,0.0,0.0,0.0,0.0,0.0,0.0,0.00181949,0.0,0.0,0.0,0.0,0.0,0.0,0.0,inf,inf,inf,inf,1,1,1,1,0,0,0,0,1,1,0
24560000,0,47.397742,8.545594,0.0,0.0150537,9.27,0.0,0.0,0.0,0.02,0.02,-1.5,0.0,0.0,0.0,0.0,0.0,0.0,0.0,0.00185366,0.0,0.0,0.0,0.0,0.0,0.0,0.0,inf,inf,inf,inf,1,1,1,1,0,0,0,0,1,1,0
24656000,0,47.397742,8.545594,0.0,0.0150537,9.414,0.0,0.0,0.0,0.02,0.03,-1.5,0.0,0.0,0.0,0.0,0.0,0.0,0.0,0.00202078,0.0,0.0,0.0,0.0,0.0,0.0,0.0,inf,inf,inf,inf,1,1,1,1,0,0,0,0,1,1,0
24752000,0,47.397742,8.545594,0.0111195,0.00752684,9.558,0.0,0.0,0.0,0.02,0.03,-1.5,0.0,0.0,0.0,0.0,0.0,0.0,0.0,0.00212297,0.0,0.0,0.0,0.0,0.0,0.0,0.0,inf,inf,inf,inf,1,1,1,1,0,0,0,0,1,1,0
24848000,0,47.397742,8.545594,0.0111195,0.0150537,9.702,0.0,0.0,0.0,0.02,0.03,-1.5,0.0,0.0,0.0,0.0,0.0,0.0,0.0,0.00211173,0.0,0.0,0.0,0.0,0.0,0.0,0.0,inf,inf,inf,inf,1,1,1,1,0,0,0,0,1,1,0
24944000,0,47.397742,8.545594,-0.022239,0.0150537,9.847,0.0,0.0,0.0,0.02,0.02,-1.5,0.0,0.0,0.0,0.0,0.0,0.0,0.0,0.00214821,0.0,0.0,0.0,0.0,0.0,0.0,0.0,inf,inf,inf,inf,1,1,1,1,0,0,0,0,1,1,0
25040000,0,47.397742,8.545594,-0.0111195,0.0301074,9.991,0.0,0.0,0.0,0.02,0.02,-1.5,0.0,0.0,0.0,0.0,0.0,0.0,0.0,0.00220311,0.0,0.0,0.0,0.0,0.0,0.0,0.0,inf,inf,inf,inf,1,1,1,1,0,0,0,0,1,1,0
25136000,0,47.397742,8.545594,0.0,0.0301074,10.136,0.0,0.0,0.0,0.02,0.02,-1.5,0.0,0.0,0.0,0.0,0.0,0.0,0.0,0.00236872,0.0,0.0,0.0,0.0,0.0,0.0,0.0,inf,inf,inf,inf,1,1,1,1,0,0,0,0,1,1,0
25232000,0,47.397742,8.545594,0.0111195,0.0376342,10.282,0.0,0.0,0.0,0.02,0.02,-1.55,0.0,0.0,0.0,0.0,0.0,0.0,0.0,0.00246974,0.0,0.0,0.0,0.0,0.0,0.0,0.0,inf,inf,inf,inf,1,1,1,1,0,0,0,0,1,1,0
25328000,0,47.397742,8.545594,0.0,0.0376342,10.436,0.0,0.0,0.0,0.02,0.01,-1.67,0.0,0.0,0.0,0.0,0.0,0.0,0.0,0.0026234,0.0,0.0,0.0,0.0,0.0,0.0,0.0,inf,inf,inf,inf,1,1,1,1,0,0,0,0,1,1,0
25424000,0,47.397742,8.545594,0.022239,0.0225805,10.605,0.0,0.0,0.0,0.02,0.01,-1.87,0.0,0.0,0.0,0.0,0.0,0.0,0.0,0.00285331,0.0,0.0,0.0,0.0,0.0,0.0,0.0,inf,inf,inf,inf,1,1,1,1,0,0,0,0,1,1,0
25520000,0,47.397742,8.545594,0.022239,0.0376342,10.798,0.0,0.0,0.0,0.02,0.01,-2.15,0.0,0.0,0.0,0.0,0.0,0.0,0.0,0.00311112,0.0,0.0,0.0,0.0,0.0,0.0,0.0,inf,inf,inf,inf,1,1,1,1,0,0,0,0,1,1,0
25616000,0,47.397742,8.545594,0.0333585,0.0301074,11.019,0.0,0.0,0.0,0.02,0.01,-2.48,0.0,0.0,0.0,0.0,0.0,0.0,0.0,0.00339545,0.0,0.0,0.0,0.0,0.0,0.0,0.0,inf,inf,inf,inf,1,1,1,1,0,0,0,0,1,1,0
25712000,0,47.397742,8.545594,0.0333585,0.0301074,11.271,0.0,0.0,0.0,0.03,0.0,-2.76,0.0,0.0,0.0,0.0,0.0,0.0,0.0,0.00373216,0.0,0.0,0.0,0.0,0.0,0.0,0.0,inf,inf,inf,inf,1,1,1,1,0,0,0,0,1,1,0
25808000,0,47.397742,8.545594,0.044478,0.045161,11.546,0.0,0.0,0.0,0.03,0.0,-2.97,0.0,0.0,0.0,0.0,0.0,0.0,0.0,0.00400587,0.0,0.0,0.0,0.0,0.0,0.0,0.0,inf,inf,inf,inf,1,1,1,1,0,0,0,0,1,1,0
25904000,0,47.397742,8.545594,0.0555975,0.0376342,11.836,0.0,0.0,0.0,0.03,0.0,-3.04,0.0,0.0,0.0,0.0,0.0,0.0,0.0,0.00399292,0.0,0.0,0.0,0.0,0.0,0.0,0.0,inf,inf,inf,inf,1,1,1,1,0,0,0,0,1,1,0
26000000,0,47.397742,8.545594,0.0333585,0.045161,12.13,0.0,0.0,0.0,0.03,0.0,-3.06,0.0,0.0,0.0,0.0,0.0,0.0,0.0,0.00383314,0.0,0.0,0.0,0.0,0.0,0.0,0.0,inf,inf,inf,inf,1,1,1,1,0,0,0,0,1,1,0
26096000,0,47.397742,8.545594,0.0333585,0.045161,12.424,0.0,0.0,0.0,0.03,0.0,-3.07,0.0,0.0,0.0,0.0,0.0,0.0,0.0,0.00356816,0.0,0.0,0.0,0.0,0.0,0.0,0.0,inf,inf,inf,inf,1,1,1,1,0,0,0,0,1,1,0
26192000,0,47.397742,8.545594,0.044478,0.0602147,12.719,0.0,0.0,0.0,0.03,0.0,-3.07,0.0,0.0,0.0,0.0,0.0,0.0,0.0,0.00327073,0.0,0.0,0.0,0.0,0.0,0.0,0.0,inf,inf,inf,inf,1,1,1,1,0,0,0,0,1,1,0
26288000,0,47.397742,8.545594,0.066717,0.045161,13.015,0.0,0.0,0.0,0.02,0.0,-3.08,0.0,0.0,0.0,0.0,0.0,0.0,0.0,0.00303405,0.0,0.0,0.0,0.0,0.0,0.0,0.0,inf,inf,inf,inf,1,1,1,1,0,0,0,0,1,1,0
26384000,0,47.397742,8.545594,0.044478,0.0376342,13.311,0.0,0.0,0.0,0.02,0.0,-3.08,0.0,0.0,0.0,0.0,0.0,0.0,0.0,0.00289758,0.0,0.0,0.0,0.0,0.0,0.0,0.0,inf,inf,inf,inf,1,1,1,1,0,0,0,0,1,1,0
26480000,0,47.397742,8.545594,0.066717,0.0301074,13.607,0.0,0.0,0.0,0.02,0.0,-3.08,0.0,0.0,0.0,0.0,0.0,0.0,0.0,0.00278886,0.0,0.0,0.0,0.0,0.0,0.0,0.0,inf,inf,inf,inf,1,1,1,1,0,0,0,0,1,1,0
26576000,0,47.397742,8.545594,0.066717,0.0376342,13.903,0.0,0.0,0.0,0.02,0.0,-3.07,0.0,0.0,0.0,0.0,0.0,0.0,0.0,0.00280454,0.0,0.0,0.0,0.0,0.0,0.0,0.0,inf,inf,inf,inf,1,1,1,1,0,0,0,0,1,1,0
26672000,0,47.397742,8.545594,0.0555975,0.045161,14.198,0.0,0.0,0.0,0.01,0.0,-3.07,0.0,0.0,0.0,0.0,0.0,0.0,0.0,0.00290438,0.0,0.0,0.0,0.0,0.0,0.0,0.0,inf,inf,inf,inf,1,1,1,1,0,0,0,0,1,1,0
26768000,0,47.397742,8.545594,0.066717,0.0376342,14.492,0.0,0.0,0.0,0.01,0.0,-3.06,0.0,0.0,0.0,0.0,0.0,0.0,0.0,0.0030353,0.0,0.0,0.0,0.0,0.0,0.0,0.0,inf,inf,inf,inf,1,1,1,1,0,0,0,0,1,1,0
26864000,0,47.397742,8.545594,0.066717,0.045161,14.786,0.0,0.0,0.0,0.01,0.0,-3.05,0.0,0.0,0.0,0.0,0.0,0.0,0.0,0.0031961,0.0,0.0,0.0,0.0,0.0,0.0,0.0,inf,inf,inf,inf,1,1,1,1,0,0,0,0,1,1,0
26960000,0,47.397742,8.545594,0.0555975,0.0376342,15.079,0.0,0.0,0.0,0.0,0.0,-3.04,0.0,0.0,0.0,0.0,0.0,0.0,0.0,0.00327862,0.0,0.0,0.0,0.0,0.0,0.0,0.0,inf,inf,inf,inf,1,1,1,1,0,0,0,0,1,1,0
27056000,0,47.397742,8.545594,0.0555975,0.0301074,15.371,0.0,0.0,0.0,0.0,0.0,-3.04,0.0,0.0,0.0,0.0,0.0,0.0,0.0,0.00328924,0.0,0.0,0.0,0.0,0.0,0.0,0.0,inf,inf,inf,inf,1,1,1,1,0,0,0,0,1,1,0
27152000,0,47.397742,8.545594,0.0555975,0.0376342,15.663,0.0,0.0,0.0,0.0,0.0,-3.03,0.0,0.0,0.0,0.0,0.0,0.0,0.0,0.0032403,0.0,0.0,0.0,0.0,0.0,0.0,0.0,inf,inf,inf,inf,1,1,1,1,0,0,0,0,1,1,0
27248000,0,47.397742,8.545594,0.066717,0.0376342,15.953,0.0,0.0,0.0,0.0,0.0,-3.02,0.0,0.0,0.0,0.0,0.0,0.0,0.0,0.00321322,0.0,0.0,0.0,0.0,0.0,0.0,0.0,inf,inf,inf,inf,1,1,1,1,0,0,0,0,1,1,0
27344000,0,47.397742,8.545594,0.066717,0.0301074,16.244,0.0,0.0,0.0,0.0,0.0,-3.01,0.0,0.0,0.0,0.0,0.0,0.0,0.0,0.00322201,0.0,0.0,0.0,0.0,0.0,0.0,0.0,inf,inf,inf,inf,1,1,1,1,0,0,0,0,1,1,0
27440000,0,47.397742,8.545594,0.066717,0.0602147,16.533,0.0,0.0,0.0,0.0,0.0,-3.01,0.0,0.0,0.0,0.0,0.0,0.0,0.0,0.00322376,0.0,0.0,0.0,0.0,0.0,0.0,0.0,inf,inf,inf,inf,1,1,1,1,0,0,0,0,1,1,0
27536000,0,47.397742,8.545594,0.044478,0.0301074,16.822,0.0,0.0,0.0,0.0,0.0,-3.0,0.0,0.0,0.0,0.0,0.0,0.0,0.0,0.00320331,0.0,0.0,0.0,0.0,0.0,0.0,0.0,inf,inf,inf,inf,1,1,1,1,0,0,0,0,1,1,0
27632000,0,47.397742,8.545594,0.0555975,0.0376342,17.111,0.0,0.0,0.0,0.0,0.0,-3.0,0.0,0.0,0.0,0.0,0.0,0.0,0.0,0.0031464,0.0,0.0,0.0,0.0,0.0,0.0,0.0,inf,inf,inf,inf,1,1,1,1,0,0,0,0,1,1,0
27728000,0,47.397742,8.545594,0.066717,0.0225805,17.399,0.0,0.0,0.0,-0.01,0.0,-3.0,0.0,0.0,0.0,0.0,0.0,0.0,0.0,0.00313403,0.0,0.0,0.0,0.0,0.0,0.0,0.0,inf,inf,inf,inf,1,1,1,1,0,0,0,0,1,1,0
27824000,0,47.397742,8.545594,0.066717,0.00752684,17.687,0.0,0.0,0.0,-0.01,0.0,-3.0,0.0,0.0,0.0,0.0,0.0,0.0,0.0,0.00316664,0.0,0.0,0.0,0.0,0.0,0.0,0.0,inf,inf,inf,inf,1,1,1,1,0,0,0,0,1,1,0
27920000,0,47.397742,8.545594,0.0555975,0.0225805,17.976,0.0,0.0,0.0,-0.01,0.0,-2.99,0.0,0.0,0.0,0.0,0.0,0.0,0.0,0.00316443,0.0,0.0,0.0,0.0,0.0,0.0,0.0,inf,inf,inf,inf,1,1,1,1,0,0,0,0,1,1,0
28016000,0,47.397742,8.545594,0.066717,0.0526879,18.263,0.0,0.0,0.0,-0.01,0.0,-2.99,0.0,0.0,0.0,0.0,0.0,0.0,0.0,0.00319292,0.0,0.0,0.0,0.0,0.0,0.0,0.0,inf,inf,inf,inf,1,1,1,1,0,0,0,0,1,1,0
28112000,0,47.397742,8.545594,0.044478,0.045161,18.551,0.0,0.0,0.0,-0.01,0.0,-2.99,0.0,0.0,0.0,0.0,0.0,0.0,0.0,0.00323905,0.0,0.0,0.0,0.0,0.0,0.0,0.0,inf,inf,inf,inf,1,1,1,1,0,0,0,0,1,1,0
28208000,0,47.397742,8.545594,0.0555975,0.0225805,18.839,0.0,0.0,0.0,-0.02,0.0,-2.99,0.0,0.0,0.0,0.0,0.0,0.0,0.0,0.00320107,0.0,0.0,0.0,0.0,0.0,0.0,0.0,inf,inf,inf,inf,1,1,1,1,0,0,0,0,1,1,0
28304000,0,47.397742,8.545594,0.0555975,0.0150537,19.126,0.0,0.0,0.0,-0.02,0.0,-2.99,0.0,0.0,0.0,0.0,0.0,0.0,0.0,0.00309099,0.0,0.0,0.0,0.0,0.0,0.0,0.0,inf,inf,inf,inf,1,1,1,1,0,0,0,0,1,1,0
28400000,0,47.397742,8.545594,0.0333585,0.0301074,19.414,0.0,0.0,0.0,-0.02,0.0,-2.99,0.0,0.0,0.0,0.0,0.0,0.0,0.0,0.00295164,0.0,0.0,0.0,0.0,0.0,0.0,0.0,inf,inf,inf,inf,1,1,1,1,0,0,0,0,1,1,0
28496000,0,47.397742,8.545594,0.0333585,0.0301074,19.702,0.0,0.0,0.0,-0.02,0.0,-2.99,0.0,0.0,0.0,0.0,0.0,0.0,0.0,0.00286744,0.0,0.0,0.0,0.0,0.0,0.0,0.0,inf,inf,inf,inf,1,1,1,1,0,0,0,0,1,1,0
28592000,0,47.397742,8.545594,0.0333585,0.0150537,19.989,0.0,0.0,0.0,-0.02,0.0,-2.99,0.0,0.0,0.0,0.0,0.0,0.0,0.0,0.00276266,0.0,0.0,0.0,0.0,0.0,0.0,0.0,inf,inf,inf,inf,1,1,1,1,0,0,0,0,1,1,0
28688000,0,47.397742,8.545594,0.044478,0.0301074,20.277,0.0,0.0,0.0,-0.02,0.0,-2.99,0.0,0.0,0.0,0.0,0.0,0.0,0.0,0.00266858,0.0,0.0,0.0,0.0,0.0,0.0,0.0,inf,inf,inf,inf,1,1,1,1,0,0,0,0,1,1,0
28784000,0,47.397742,8.545594,0.044478,0.0150537,20.565,0.0,0.0,0.0,-0.02,0.0,-2.99,0.0,0.0,0.0,0.0,0.0,0.0,0.0,0.0025854,0.0,0.0,0.0,0.0,0.0,0.0,0.0,inf,inf,inf,inf,1,1,1,1,0,0,0,0,1,1,0
28880000,0,47.397742,8.545594,0.044478,0.0150537,20.852,0.0,0.0,0.0,-0.02,0.0,-2.99,0.0,0.0,0.0,0.0,0.0,0.0,0.0,0.00254432,0.0,0.0,0.0,0.0,0.0,0.0,0.0,inf,inf,inf,inf,1,1,1,1,0,0,0,0,1,1,0
28976000,0,47.397742,8.545594,0.044478,0.0225805,21.14,0.0,0.0,0.0,-0.02,0.0,-2.99,0.0,0.0,0.0,0.0,0.0,0.0,0.0,0.00255603,0.0,0.0,0.0,0.0,0.0,0.0,0.0,inf,inf,inf,inf,1,1,1,1,0,0,0,0,1,1,0
29072000,0,47.397742,8.545594,0.044478,0.0150537,21.427,0.0,0.0,0.0,-0.02,0.0,-2.99,0.0,0.0,0.0,0.0,0.0,0.0,0.0,0.00256287,0.0,0.0,0.0,0.0,0.0,0.0,0.0,inf,inf,inf,inf,1,1,1,1,0,0,0,0,1,1,0
29168000,0,47.397742,8.545594,0.0333585,0.0225805,21.714,0.0,0.0,0.0,-0.02,0.0,-2.98,0.0,0.0,0.0,0.0,0.0,0.0,0.0,0.00257388,0.0,0.0,0.0,0.0,0.0,0.0,0.0,inf,inf,inf,inf,1,1,1,1,0,0,0,0,1,1,0
29264000,0,47.397742,8.545594,0.0333585,0.0301074,22.001,0.0,0.0,0.0,-0.02,0.0,-2.98,0.0,0.0,0.0,0.0,0.0,0.0,0.0,0.00270596,0.0,0.0,0.0,0.0,0.0,0.0,0.0,inf,inf,inf,inf,1,1,1,1,0,0,0,0,1,1,0
29360000,0,47.397742,8.545594,0.022239,0.0376342,22.287,0.0,0.0,0.0,-0.02,0.0,-2.97,0.0,0.0,0.0,0.0,0.0,0.0,0.0,0.00284621,0.0,0.0,0.0,0.0,0.0,0.0,0.0,inf,inf,inf,inf,1,1,1,1,0,0,0,0,1,1,0
29456000,0,47.397742,8.545594,0.0333585,0.0150537,22.573,0.0,0.0,0.0,-0.02,0.0,-2.97,0.0,0.0,0.0,0.0,0.0,0.0,0.0,0.00289412,0.0,0.0,0.0,0.0,0.0,0.0,0.0,inf,inf,inf,inf,1,1,1,1,0,0,0,0,1,1,0
29552000,0,47.397742,8.545594,0.0111195,0.045161,22.859,0.0,0.0,0.0,-0.02,0.0,-2.97,0.0,0.0,0.0,0.0,0.0,0.0,0.0,0.00283512,0.0,0.0,0.0,0.0,0.0,0.0,0.0,inf,inf,inf,inf,1,1,1,1,0,0,0,0,1,1,0
29648000,0,47.397742,8.545594,0.022239,0.0225805,23.144,0.0,0.0,0.0,-0.02,0.0,-2.97,0.0,0.0,0.0,0.0,0.0,0.0,0.0,0.00272073,0.0,0.0,0.0,0.0,0.0,0.0,0.0,inf,inf,inf,inf,1,1,1,1,0,0,0,0,1,1,0
29744000,0,47.397742,8.545594,0.0111195,0.0225805,23.43,0.0,0.0,0.0,-0.02,0.0,-2.97,0.0,0.0,0.0,0.0,0.0,0.0,0.0,0.00260946,0.0,0.0,0.0,0.0,0.0,0.0,0.0,inf,inf,inf,inf,1,1,1,1,0,0,0,0,1,1,0
29840000,0,47.397742,8.545594,0.0,0.0150537,23.716,0.0,0.0,0.0,-0.01,0.0,-2.98,0.0,0.0,0.0,0.0,0.0,0.0,0.0,0.00244635,0.0,0.0,0.0,0.0,0.0,0.0,0.0,inf,inf,inf,inf,1,1,1,1,0,0,0,0,1,1,0
29936000,0,47.397742,8.545594,0.0111195,0.0150537,24.002,0.0,0.0,0.0,-0.01,0.0,-2.98,0.0,0.0,0.0,0.0,0.0,0.0,0.0,0.00228612,0.0,0.0,0.0,0.0,0.0,0.0,0.0,inf,inf,inf,inf,1,1,1,1,0,0,0,0,1,1,0
30032000,0,47.397742,8.545594,0.0111195,0.00752684,24.289,0.0,0.0,0.0,-0.01,-0.01,-2.99,0.0,0.0,0.0,0.0,0.0,0.0,0.0,0.00214666,0.0,0.0,0.0,0.0,0.0,0.0,0.0,inf,inf,inf,inf,1,1,1,1,0,0,0,0,1,1,0
30128000,0,47.397742,8.545594,0.0111195,0.0,24.576,0.0,0.0,0.0,-0.01,-0.01,-2.99,0.0,0.0,0.0,0.0,0.0,0.0,0.0,0.00200847,0.0,0.0,0.0,0.0,0.0,0.0,0.0,inf,inf,inf,inf,1,1,1,1,0,0,0,0,1,1,0
30224000,0,47.397742,8.545594,0.022239,-0.00752684,24.863,0.0,0.0,0.0,-0.01,-0.01,-2.98,0.0,0.0,0.0,0.0,0.0,0.0,0.0,0.00194787,0.0,0.0,0.0,0.0,0.0,0.0,0.0,inf,inf,inf,inf,1,1,1,1,0,0,0,0,1,1,0
30320000,0,47.397742,8.545594,0.022239,0.0,25.15,0.0,0.0,0.0,0.0,-0.01,-2.99,0.0,0.0,0.0,0.0,0.0,0.0,0.0,0.00196696,0.0,0.0,0.0,0.0,0.0,0.0,0.0,inf,inf,inf,inf,1,1,1,1,0,0,0,0,1,1,0
30416000,0,47.397742,8.545594,0.022239,0.0225805,25.438,0.0,0.0,0.0,0.0,-0.01,-2.99,0.0,0.0,0.0,0.0,0.0,0.0,0.0,0.00201032,0.0,0.0,0.0,0.0,0.0,0.0,0.0,inf,inf,inf,inf,1,1,1,1,0,0,0,0,1,1,0
30512000,0,47.397742,8.545594,0.0,0.0150537,25.725,0.0,0.0,0.0,0.0,-0.01,-2.99,0.0,0.0,0.0,0.0,0.0,0.0,0.0,0.00202001,0.0,0.0,0.0,0.0,0.0,0.0,0.0,inf,inf,inf,inf,1,1,1,1,0,0,0,0,1,1,0
30608000,0,47.397742,8.545594,0.0,0.00752684,26.012,0.0,0.0,0.0,0.0,-0.01,-2.98,0.0,0.0,0.0,0.0,0.0,0.0,0.0,0.00202435,0.0,0.0,0.0,0.0,0.0,0.0,0.0,inf,inf,inf,inf,1,1,1,1,0,0,0,0,1,1,0
30704000,0,47.397742,8.545594,0.0111195,0.0,26.299,0.0,0.0,0.0,0.0,-0.01,-2.98,0.0,0.0,0.0,0.0,0.0,0.0,0.0,0.00195548,0.0,0.0,0.0,0.0,0.0,0.0,0.0,inf,inf,inf,inf,1,1,1,1,0,0,0,0,1,1,0
30800000,0,47.397742,8.545594,0.0,-0.00752684,26.585,0.0,0.0,0.0,0.0,-0.01,-2.98,0.0,0.0,0.0,0.0,0.0,0.0,0.0,0.00185676,0.0,0.0,0.0,0.0,0.0,0.0,0.0,inf,inf,inf,inf,1,1,1,1,0,0,0,0,1,1,0
30896000,0,47.397742,8.545594,-0.0111195,0.00752684,26.872,0.0,0.0,0.0,0.0,-0.01,-2.98,0.0,0.0,0.0,0.0,0.0,0.0,0.0,0.00169634,0.0,0.0,0.0,0.0,0.0,0.0,0.0,inf,inf,inf,inf,1,1,1,1,0,0,0,0,1,1,0
30992000,0,47.397742,8.545594,0.0111195,0.0,27.159,0.0,0.0,0.0,0.0,-0.01,-2.98,0.0,0.0,0.0,0.0,0.0,0.0,0.0,0.00153565,0.0,0.0,0.0,0.0,0.0,0.0,0.0,inf,inf,inf,inf,1,1,1,1,0,0,0,0,1,1,0
31088000,0,47.397742,8.545594,0.0,0.0,27.445,0.0,0.0,0.0,0.0,-0.01,-2.98,0.0,0.0,0.0,0.0,0.0,0.0,0.0,0.00140769,0.0,0.0,0.0,0.0,0.0,0.0,0.0,inf,inf,inf,inf,1,1,1,1,0,0,0,0,1,1,0
31184000,0,47.397742,8.545594,-0.0111195,0.0,27.732,0.0,0.0,0.0,0.0,-0.01,-2.98,0.0,0.0,0.0,0.0,0.0,0.0,0.0,0.00130679,0.0,0.0,0.0,0.0,0.0,0.0,0.0,inf,inf,inf,inf,1,1,1,1,0,0,0,0,1,1,0
31280000,0,47.397742,8.545594,-0.0111195,0.00752684,28.018,0.0,0.0,0.0,0.0,-0.01,-2.98,0.0,0.0,0.0,0.0,0.0,0.0,0.0,0.00111902,0.0,0.0,0.0,0.0,0.0,0.0,0.0,inf,inf,inf,inf,1,1,1,1,0,0,0,0,1,1,0
31376000,0,47.397742,8.545594,0.0,-0.00752684,28.304,0.0,0.0,0.0,0.0,-0.01,-2.98,0.0,0.0,0.0,0.0,0.0,0.0,0.0,0.000840333,0.0,0.0,0.0,0.0,0.0,0.0,0.0,inf,inf,inf,inf,1,1,1,1,0,0,0,0,1,1,0
31472000,0,47.397742,8.545594,0.0,0.00752684,28.59,0.0,0.0,0.0,0.0,0.0,-2.98,0.0,0.0,0.0,0.0,0.0,0.0,0.0,0.000520654,0.0,0.0,0.0,0.0,0.0,0.0,0.0,inf,inf,inf,inf,1,1,1,1,0,0,0,0,1,1,0
31568000,0,47.397742,8.545594,0.0,0.0225805,28.876,0.0,0.0,0.0,0.0,0.0,-2.98,0.0,0.0,0.0,0.0,0.0,0.0,0.0,0.000170819,0.0,0.0,0.0,0.0,0.0,0.0,0.0,inf,inf,inf,inf,1,1,1,1,0,0,0,0,1,1,0
31664000,0,47.397742,8.545594,-0.0111195,0.0150537,29.163,0.0,0.0,0.0,0.0,0.0,-2.98,0.0,0.0,0.0,0.0,0.0,0.0,0.0,-9.95806e-05,0.0,0.0,0.0,0.0,0.0,0.0,0.0,inf,inf,inf,inf,1,1,1,1,0,0,0,0,1,1,0
31760000,0,47.397742,8.545594,0.0,0.00752684,29.449,0.0,0.0,0.0,0.0,0.0,-2.98,0.0,0.0,0.0,0.0,0.0,0.0,0.0,-0.000182121,0.0,0.0,0.0,0.0,0.0,0.0,0.0,inf,inf,inf,inf,1,1,1,1,0,0,0,0,1,1,0
31856000,0,47.397742,8.545594,0.0,0.00752684,29.736,0.0,0.0,0.0,0.0,0.0,-2.98,0.0,0.0,0.0,0.0,0.0,0.0,0.0,-0.000215395,0.0,0.0,0.0,0.0,0.0,0.0,0.0,inf,inf,inf,inf,1,1,1,1,0,0,0,0,1,1,0
31952000,0,47.397742,8.545594,0.0,0.0,30.022,0.0,0.0,0.0,0.0,0.0,-2.98,0.0,0.0,0.0,0.0,0.0,0.0,0.0,-0.000168043,0.0,0.0,0.0,0.0,0.0,0.0,0.0,inf,inf,inf,inf,1,1,1,1,0,0,0,0,1,1,0
