timestamp,magnetometer_ga[0],magnetometer_ga[1],magnetometer_ga[2]
124000,0.898,0.039,1.791
132000,0.894,0.037,1.784
140000,0.896,0.033,1.783
144000,0.896,0.026,1.794
152000,0.898,0.028,1.788
160000,0.894,0.034,1.789
168000,0.903,0.04,1.787
172000,0.9,0.036,1.79
176000,0.902,0.042,1.793
180000,0.893,0.03,1.784
188000,0.899,0.03,1.788
192000,0.899,0.029,1.791
196000,0.9,0.029,1.778
200000,0.898,0.027,1.781
204000,0.891,0.033,1.789
208000,0.892,0.04,1.782
212000,0.897,0.029,1.785
216000,0.896,0.031,1.779
224000,0.898,0.039,1.784
228000,0.899,0.029,1.784
232000,0.898,0.035,1.786
236000,0.894,0.032,1.78
240000,0.896,0.028,1.788
244000,0.894,0.029,1.791
252000,0.894,0.03,1.791
256000,0.896,0.035,1.786
264000,0.898,0.033,1.793
268000,0.907,0.041,1.784
272000,0.899,0.035,1.793
276000,0.898,0.03,1.788
280000,0.906,0.036,1.783
284000,0.902,0.036,1.779
288000,0.893,0.031,1.787
296000,0.897,0.038,1.785
300000,0.898,0.024,1.783
308000,0.891,0.034,1.789
312000,0.882,0.037,1.788
316000,0.895,0.039,1.783
320000,0.902,0.034,1.789
324000,0.896,0.031,1.792
332000,0.902,0.04,1.783
340000,0.903,0.033,1.791
344000,0.894,0.038,1.793
352000,0.892,0.038,1.786
356000,0.894,0.025,1.778
364000,0.897,0.034,1.782
368000,0.901,0.036,1.787
372000,0.904,0.027,1.789
380000,0.898,0.034,1.793
384000,0.89,0.035,1.783
388000,0.893,0.022,1.788
392000,0.893,0.031,1.791
396000,0.899,0.036,1.786
400000,0.898,0.034,1.796
404000,0.9,0.04,1.793
412000,0.898,0.028,1.791
416000,0.887,0.031,1.782
420000,0.906,0.037,1.789
424000,0.898,0.03,1.789
428000,0.894,0.042,1.784
432000,0.895,0.028,1.791
436000,0.9,0.032,1.787
440000,0.896,0.043,1.792
444000,0.897,0.031,1.792
448000,0.895,0.031,1.788
452000,0.894,0.038,1.794
456000,0.901,0.034,1.791
464000,0.888,0.041,1.775
468000,0.896,0.03,1.789
476000,0.901,0.038,1.786
480000,0.894,0.033,1.79
484000,0.897,0.038,1.787
488000,0.887,0.028,1.796
492000,0.902,0.033,1.78
500000,0.9,0.035,1.778
504000,0.893,0.037,1.785
508000,0.905,0.034,1.792
512000,0.893,0.034,1.781
516000,0.901,0.03,1.782
524000,0.908,0.035,1.776
528000,0.892,0.034,1.791
532000,0.9,0.033,1.788
536000,0.894,0.04,1.779
540000,0.891,0.032,1.788
544000,0.899,0.036,1.787
552000,0.889,0.036,1.79
556000,0.896,0.032,1.779
560000,0.902,0.025,1.79
568000,0.89,0.033,1.778
572000,0.902,0.038,1.783
576000,0.9,0.048,1.797
580000,0.886,0.041,1.781
584000,0.902,0.027,1.779
588000,0.902,0.046,1.796
592000,0.898,0.029,1.776
596000,0.896,0.043,1.789
600000,0.886,0.028,1.786
608000,0.889,0.04,1.787
612000,0.899,0.032,1.786
616000,0.91,0.038,1.784
624000,0.896,0.038,1.785
628000,0.898,0.029,1.78
632000,0.889,0.041,1.781
640000,0.889,0.032,1.79
648000,0.888,0.033,1.788
652000,0.906,0.032,1.789
656000,0.891,0.047,1.785
660000,0.907,0.032,1.786
664000,0.886,0.027,1.786
668000,0.894,0.035,1.792
676000,0.899,0.032,1.785
680000,0.895,0.037,1.784
684000,0.891,0.029,1.793
688000,0.899,0.035,1.787
696000,0.903,0.033,1.784
700000,0.894,0.038,1.783
704000,0.892,0.038,1.788
708000,0.901,0.037,1.788
712000,0.888,0.032,1.794
716000,0.9,0.031,1.792
720000,0.9,0.032,1.785
724000,0.889,0.03,1.784
728000,0.901,0.044,1.795
736000,0.901,0.036,1.788
740000,0.902,0.042,1.782
744000,0.899,0.034,1.786
752000,0.898,0.028,1.785
756000,0.9,0.035,1.791
764000,0.887,0.034,1.783
768000,0.899,0.051,1.785
772000,0.9,0.03,1.788
776000,0.902,0.035,1.772
780000,0.896,0.032,1.788
788000,0.896,0.033,1.787
792000,0.893,0.039,1.783
796000,0.894,0.034,1.783
800000,0.9,0.023,1.788
808000,0.899,0.035,1.785
812000,0.894,0.041,1.787
816000,0.9,0.029,1.791
820000,0.904,0.03,1.785
824000,0.901,0.027,1.781
828000,0.901,0.03,1.785
832000,0.892,0.032,1.785
836000,0.891,0.038,1.796
840000,0.892,0.025,1.777
844000,0.891,0.026,1.775
848000,0.894,0.031,1.789
852000,0.897,0.041,1.788
856000,0.893,0.034,1.788
860000,0.898,0.031,1.791
864000,0.906,0.029,1.793
868000,0.9,0.035,1.781
872000,0.893,0.036,1.797
880000,0.899,0.03,1.777
884000,0.902,0.04,1.793
888000,0.898,0.033,1.789
892000,0.9,0.034,1.787
896000,0.888,0.031,1.789
904000,0.897,0.039,1.78
908000,0.883,0.035,1.784
916000,0.894,0.035,1.784
920000,0.889,0.033,1.79
924000,0.901,0.025,1.782
928000,0.888,0.03,1.79
932000,0.899,0.036,1.786
936000,0.9,0.033,1.776
940000,0.899,0.036,1.782
944000,0.893,0.033,1.791
948000,0.895,0.032,1.789
952000,0.901,0.035,1.79
956000,0.898,0.031,1.793
960000,0.905,0.03,1.786
964000,0.902,0.034,1.777
972000,0.895,0.029,1.79
980000,0.902,0.034,1.789
988000,0.901,0.033,1.791
992000,0.901,0.038,1.8
996000,0.893,0.034,1.784
1000000,0.889,0.031,1.788
1004000,0.896,0.033,1.79
1008000,0.887,0.031,1.791
1012000,0.897,0.033,1.784
1016000,0.903,0.036,1.785
1020000,0.905,0.032,1.783
1024000,0.901,0.031,1.793
1032000,0.899,0.032,1.781
1036000,0.892,0.03,1.786
1040000,0.899,0.029,1.792
1044000,0.895,0.033,1.785
1048000,0.899,0.035,1.781
1052000,0.899,0.028,1.783
1056000,0.906,0.03,1.793
1060000,0.9,0.017,1.794
1064000,0.896,0.027,1.795
1068000,0.9,0.036,1.784
1072000,0.902,0.025,1.788
1076000,0.898,0.026,1.783
1084000,0.894,0.022,1.789
1088000,0.887,0.031,1.787
1092000,0.89,0.034,1.785
1096000,0.898,0.03,1.796
1100000,0.894,0.031,1.781
1108000,0.894,0.025,1.787
1112000,0.9,0.037,1.791
1116000,0.901,0.045,1.785
1120000,0.897,0.038,1.793
1128000,0.889,0.034,1.781
1136000,0.903,0.034,1.79
1140000,0.895,0.025,1.783
1148000,0.903,0.037,1.793
1152000,0.899,0.041,1.788
1156000,0.896,0.03,1.787
1160000,0.901,0.032,1.781
1164000,0.899,0.026,1.788
1168000,0.896,0.033,1.778
1172000,0.906,0.028,1.788
1180000,0.89,0.033,1.779
1184000,0.899,0.043,1.795
1188000,0.903,0.038,1.787
1192000,0.893,0.046,1.79
1196000,0.901,0.027,1.783
1200000,0.908,0.031,1.778
1204000,0.899,0.034,1.788
1208000,0.902,0.04,1.779
1212000,0.898,0.036,1.791
1216000,0.894,0.022,1.79
1220000,0.904,0.039,1.782
1224000,0.9,0.021,1.783
1228000,0.894,0.033,1.785
1232000,0.888,0.044,1.791
1236000,0.899,0.038,1.781
1240000,0.889,0.028,1.786
1244000,0.901,0.04,1.782
1252000,0.901,0.036,1.791
1256000,0.899,0.024,1.784
1260000,0.899,0.031,1.792
1268000,0.892,0.028,1.777
1272000,0.894,0.03,1.787
1276000,0.903,0.033,1.786
1280000,0.896,0.023,1.793
1284000,0.902,0.03,1.786
1292000,0.902,0.034,1.784
1296000,0.897,0.027,1.794
1304000,0.893,0.032,1.783
1308000,0.903,0.031,1.786
1312000,0.897,0.031,1.778
1316000,0.895,0.034,1.783
1320000,0.897,0.025,1.784
1324000,0.896,0.03,1.785
1328000,0.894,0.035,1.787
1332000,0.894,0.026,1.788
1336000,0.891,0.029,1.786
1340000,0.893,0.036,1.792
1344000,0.9,0.037,1.786
1352000,0.902,0.043,1.786
1356000,0.898,0.032,1.792
1360000,0.895,0.027,1.788
1364000,0.901,0.033,1.793
1372000,0.905,0.039,1.791
1376000,0.897,0.026,1.784
1380000,0.9,0.038,1.789
1388000,0.891,0.041,1.795
1396000,0.892,0.045,1.79
1404000,0.894,0.04,1.79
1412000,0.894,0.029,1.784
1420000,0.898,0.044,1.783
1424000,0.897,0.031,1.788
1428000,0.901,0.043,1.783
1432000,0.898,0.034,1.787
1436000,0.896,0.031,1.794
1444000,0.9,0.03,1.79
1452000,0.893,0.036,1.782
1456000,0.897,0.04,1.786
1464000,0.896,0.031,1.785
1468000,0.901,0.027,1.777
1476000,0.894,0.032,1.784
1480000,0.898,0.032,1.79
1484000,0.893,0.032,1.782
1488000,0.9,0.029,1.783
1492000,0.879,0.037,1.785
1500000,0.888,0.032,1.79
1504000,0.892,0.028,1.788
1508000,0.896,0.036,1.794
1516000,0.893,0.037,1.785
1520000,0.895,0.038,1.78
1528000,0.905,0.032,1.788
1532000,0.893,0.033,1.788
1536000,0.894,0.025,1.79
1540000,0.895,0.031,1.792
1544000,0.902,0.036,1.781
1548000,0.895,0.029,1.79
1556000,0.904,0.034,1.789
1560000,0.903,0.032,1.788
1564000,0.894,0.031,1.784
1568000,0.894,0.024,1.782
1576000,0.902,0.04,1.771
1580000,0.901,0.023,1.783
1584000,0.9,0.036,1.782
1588000,0.891,0.027,1.789
1596000,0.9,0.031,1.789
1600000,0.9,0.043,1.789
1608000,0.902,0.024,1.789
1612000,0.89,0.034,1.789
1616000,0.902,0.035,1.79
1624000,0.89,0.031,1.787
1632000,0.902,0.029,1.785
1640000,0.905,0.035,1.789
1648000,0.898,0.035,1.799
1652000,0.892,0.035,1.793
1656000,0.898,0.032,1.785
1664000,0.895,0.038,1.792
1668000,0.898,0.028,1.785
1672000,0.901,0.03,1.784
1676000,0.891,0.028,1.781
1680000,0.89,0.034,1.791
1684000,0.889,0.021,1.796
1692000,0.898,0.034,1.781
1696000,0.898,0.029,1.789
1700000,0.898,0.031,1.785
1708000,0.9,0.031,1.786
1712000,0.897,0.034,1.786
1716000,0.886,0.039,1.79
1724000,0.887,0.045,1.789
1728000,0.897,0.036,1.798
1732000,0.898,0.028,1.786
1736000,0.901,0.051,1.787
1740000,0.899,0.036,1.782
1744000,0.901,0.041,1.784
1748000,0.891,0.029,1.797
1752000,0.889,0.024,1.79
1760000,0.9,0.034,1.79
1764000,0.903,0.036,1.786
1772000,0.889,0.03,1.783
1776000,0.895,0.03,1.785
1780000,0.886,0.027,1.788
1788000,0.902,0.028,1.782
1792000,0.907,0.031,1.787
1796000,0.892,0.031,1.78
1800000,0.9,0.032,1.798
1804000,0.9,0.038,1.788
1812000,0.898,0.031,1.786
1816000,0.899,0.033,1.779
1824000,0.898,0.032,1.793
1828000,0.892,0.029,1.792
1832000,0.896,0.035,1.779
1836000,0.897,0.043,1.793
1844000,0.9,0.043,1.793
1852000,0.905,0.031,1.79
1856000,0.894,0.035,1.79
1864000,0.895,0.035,1.792
1868000,0.9,0.027,1.786
1876000,0.899,0.034,1.786
1880000,0.897,0.029,1.788
1884000,0.9,0.029,1.785
1892000,0.89,0.029,1.779
1896000,0.893,0.035,1.797
1904000,0.899,0.039,1.792
1908000,0.905,0.04,1.787
1912000,0.897,0.029,1.788
1916000,0.9,0.039,1.783
1920000,0.896,0.039,1.799
1928000,0.896,0.043,1.782
1932000,0.893,0.034,1.791
1940000,0.887,0.036,1.786
1944000,0.888,0.028,1.786
1948000,0.904,0.028,1.785
1952000,0.895,0.032,1.78
1960000,0.892,0.034,1.785
1964000,0.902,0.029,1.789
1972000,0.894,0.033,1.79
1976000,0.901,0.038,1.787
1980000,0.897,0.027,1.79
1984000,0.897,0.031,1.787
1988000,0.904,0.028,1.784
1996000,0.899,0.039,1.789
2004000,0.904,0.038,1.777
2012000,0.898,0.037,1.793
2020000,0.891,0.034,1.782
2028000,0.9,0.035,1.78
2032000,0.891,0.031,1.79
2040000,0.897,0.024,1.784
2048000,0.9,0.04,1.785
2052000,0.894,0.03,1.78
2060000,0.893,0.034,1.78
2064000,0.894,0.034,1.779
2068000,0.897,0.033,1.777
2072000,0.899,0.045,1.792
2076000,0.898,0.037,1.786
2080000,0.889,0.039,1.795
2084000,0.896,0.027,1.794
2092000,0.897,0.036,1.782
2096000,0.9,0.036,1.782
2100000,0.892,0.035,1.789
2108000,0.902,0.033,1.79
2112000,0.902,0.028,1.795
2120000,0.897,0.032,1.785
2124000,0.9,0.034,1.788
2128000,0.899,0.034,1.779
2136000,0.892,0.037,1.79
2140000,0.898,0.041,1.791
2148000,0.885,0.04,1.789
2152000,0.889,0.039,1.785
2156000,0.904,0.033,1.789
2164000,0.893,0.035,1.786
2168000,0.898,0.024,1.78
2176000,0.906,0.021,1.794
2180000,0.898,0.04,1.785
2184000,0.895,0.024,1.776
2188000,0.905,0.025,1.797
2196000,0.908,0.036,1.783
2204000,0.908,0.03,1.778
2212000,0.887,0.036,1.785
2216000,0.887,0.04,1.784
2220000,0.895,0.033,1.796
2228000,0.905,0.037,1.787
2236000,0.9,0.03,1.791
2240000,0.897,0.029,1.783
2244000,0.904,0.031,1.795
2248000,0.89,0.021,1.784
2256000,0.896,0.038,1.783
2260000,0.896,0.03,1.788
2264000,0.906,0.031,1.781
2272000,0.904,0.03,1.794
2276000,0.896,0.036,1.787
2280000,0.9,0.033,1.789
2284000,0.895,0.033,1.786
2288000,0.896,0.035,1.792
2296000,0.894,0.028,1.788
2300000,0.897,0.033,1.791
2308000,0.898,0.035,1.793
2312000,0.892,0.028,1.793
2316000,0.891,0.03,1.782
2324000,0.894,0.03,1.781
2328000,0.891,0.028,1.786
2332000,0.902,0.033,1.785
2336000,0.898,0.033,1.786
2340000,0.888,0.035,1.785
2344000,0.899,0.032,1.79
2352000,0.895,0.031,1.787
2356000,0.893,0.037,1.795
2360000,0.905,0.029,1.794
2364000,0.9,0.033,1.785
2368000,0.907,0.022,1.783
2372000,0.9,0.034,1.777
2376000,0.891,0.032,1.783
2380000,0.9,0.036,1.789
2388000,0.893,0.034,1.783
2396000,0.897,0.037,1.788
2408000,0.903,0.039,1.791
2412000,0.891,0.028,1.789
2416000,0.895,0.033,1.781
2420000,0.903,0.037,1.792
2428000,0.9,0.031,1.794
2432000,0.9,0.027,1.773
2440000,0.89,0.03,1.794
2444000,0.902,0.035,1.783
2452000,0.893,0.042,1.778
2460000,0.895,0.033,1.778
2464000,0.895,0.034,1.788
2472000,0.907,0.036,1.784
2476000,0.898,0.038,1.788
2480000,0.897,0.043,1.78
2488000,0.894,0.035,1.777
2492000,0.9,0.034,1.786
2496000,0.887,0.031,1.786
2504000,0.9,0.038,1.787
2508000,0.892,0.042,1.784
2512000,0.904,0.032,1.79
2516000,0.889,0.031,1.787
2520000,0.888,0.031,1.777
2524000,0.906,0.033,1.787
2528000,0.902,0.037,1.791
2540000,0.892,0.03,1.775
2548000,0.891,0.048,1.788
2556000,0.899,0.034,1.792
2564000,0.895,0.035,1.792
2568000,0.896,0.031,1.788
2572000,0.897,0.036,1.786
2576000,0.893,0.035,1.788
2580000,0.888,0.027,1.782
2584000,0.897,0.037,1.785
2588000,0.899,0.033,1.782
2596000,0.899,0.027,1.79
2600000,0.906,0.025,1.79
2604000,0.898,0.033,1.789
2612000,0.903,0.038,1.79
2616000,0.893,0.036,1.785
2620000,0.893,0.036,1.789
2624000,0.892,0.031,1.784
2628000,0.9,0.041,1.784
2636000,0.897,0.033,1.784
2640000,0.902,0.036,1.788
2644000,0.892,0.042,1.789
2648000,0.896,0.025,1.778
2656000,0.893,0.033,1.786
2660000,0.894,0.029,1.79
2664000,0.896,0.029,1.779
2668000,0.901,0.027,1.788
2672000,0.896,0.036,1.791
2676000,0.905,0.035,1.779
2680000,0.895,0.036,1.787
2684000,0.891,0.021,1.789
2692000,0.89,0.036,1.782
2696000,0.9,0.037,1.785
2704000,0.899,0.031,1.78
2708000,0.901,0.033,1.786
2716000,0.901,0.035,1.79
2724000,0.891,0.029,1.782
2728000,0.897,0.032,1.782
2732000,0.892,0.032,1.793
2740000,0.903,0.039,1.787
2744000,0.9,0.028,1.784
2748000,0.888,0.039,1.788
2752000,0.899,0.034,1.78
2760000,0.9,0.031,1.787
2768000,0.9,0.032,1.789
2772000,0.902,0.03,1.773
2776000,0.893,0.033,1.787
2780000,0.906,0.018,1.789
2788000,0.9,0.033,1.794
2792000,0.902,0.03,1.788
2796000,0.884,0.026,1.792
2804000,0.893,0.025,1.785
2812000,0.9,0.037,1.779
2820000,0.896,0.028,1.787
2828000,0.892,0.038,1.78
2836000,0.901,0.031,1.785
2844000,0.895,0.034,1.782
2848000,0.899,0.045,1.792
2856000,0.905,0.023,1.794
2860000,0.89,0.03,1.788
2864000,0.901,0.021,1.79
2872000,0.899,0.029,1.786
2876000,0.901,0.031,1.788
2888000,0.895,0.034,1.794
2892000,0.892,0.033,1.803
2896000,0.883,0.035,1.789
2900000,0.9,0.029,1.779
2904000,0.904,0.032,1.785
2908000,0.898,0.036,1.79
2912000,0.888,0.029,1.787
2916000,0.904,0.034,1.786
2920000,0.902,0.036,1.782
2928000,0.884,0.044,1.786
2932000,0.895,0.041,1.787
2940000,0.897,0.034,1.788
2944000,0.895,0.035,1.781
2948000,0.897,0.036,1.788
2956000,0.905,0.03,1.777
2960000,0.9,0.036,1.785
2964000,0.904,0.045,1.785
2968000,0.898,0.041,1.792
2972000,0.906,0.026,1.782
2976000,0.906,0.036,1.791
2980000,0.892,0.029,1.782
2984000,0.897,0.026,1.785
2992000,0.891,0.037,1.787
2996000,0.903,0.033,1.787
3004000,0.885,0.029,1.792
3008000,0.9,0.03,1.783
3012000,0.899,0.032,1.789
3020000,0.898,0.039,1.787
3024000,0.894,0.032,1.787
3028000,0.902,0.035,1.786
3036000,0.901,0.031,1.786
3040000,0.9,0.032,1.779
3044000,0.889,0.036,1.778
3052000,0.897,0.029,1.793
3056000,0.89,0.018,1.778
3060000,0.898,0.037,1.789
3064000,0.89,0.031,1.783
3072000,0.905,0.033,1.781
3076000,0.903,0.027,1.783
3080000,0.888,0.033,1.786
3084000,0.899,0.033,1.79
3088000,0.895,0.027,1.791
3092000,0.899,0.048,1.786
3096000,0.9,0.033,1.795
3100000,0.892,0.038,1.785
3108000,0.901,0.032,1.788
3112000,0.9,0.035,1.78
3116000,0.905,0.037,1.788
3124000,0.894,0.034,1.781
3128000,0.894,0.03,1.78
3132000,0.896,0.034,1.785
3136000,0.895,0.036,1.794
3140000,0.899,0.029,1.789
3144000,0.899,0.03,1.789
3148000,0.893,0.034,1.788
3156000,0.889,0.034,1.776
3160000,0.898,0.037,1.783
3164000,0.899,0.035,1.79
3168000,0.896,0.038,1.784
3172000,0.897,0.032,1.789
3180000,0.897,0.032,1.798
3188000,0.894,0.044,1.784
3192000,0.884,0.036,1.783
3196000,0.893,0.039,1.781
3200000,0.901,0.026,1.789
3204000,0.896,0.03,1.78
3212000,0.897,0.028,1.793
3220000,0.889,0.035,1.781
3224000,0.904,0.032,1.784
3228000,0.891,0.034,1.791
3232000,0.901,0.034,1.78
3240000,0.9,0.037,1.788
3244000,0.897,0.033,1.781
3248000,0.891,0.032,1.776
3252000,0.893,0.038,1.782
3260000,0.903,0.03,1.793
3268000,0.89,0.029,1.781
3272000,0.898,0.039,1.787
3276000,0.9,0.032,1.781
3280000,0.901,0.035,1.789
3288000,0.892,0.035,1.779
3292000,0.892,0.039,1.783
3296000,0.903,0.037,1.785
3304000,0.896,0.029,1.789
3308000,0.902,0.037,1.786
3312000,0.896,0.031,1.784
3320000,0.889,0.032,1.787
3324000,0.896,0.033,1.778
3328000,0.895,0.035,1.781
3332000,0.897,0.036,1.779
3340000,0.896,0.025,1.788
3344000,0.898,0.04,1.79
3352000,0.902,0.041,1.787
3360000,0.881,0.033,1.794
3364000,0.895,0.031,1.777
3368000,0.9,0.027,1.784
3376000,0.897,0.029,1.784
3380000,0.898,0.042,1.779
3384000,0.891,0.03,1.781
3388000,0.903,0.03,1.784
3392000,0.89,0.037,1.783
3396000,0.902,0.032,1.784
3400000,0.902,0.043,1.782
3404000,0.894,0.029,1.784
3408000,0.898,0.034,1.78
3412000,0.901,0.021,1.786
3416000,0.894,0.035,1.784
3424000,0.883,0.033,1.786
3428000,0.894,0.028,1.79
3436000,0.886,0.039,1.779
3440000,0.898,0.036,1.785
3444000,0.897,0.025,1.783
3452000,0.891,0.028,1.784
3460000,0.898,0.036,1.785
3472000,0.898,0.035,1.787
3476000,0.899,0.031,1.78
3480000,0.896,0.032,1.786
3488000,0.888,0.034,1.785
3492000,0.894,0.034,1.785
3496000,0.894,0.036,1.782
3500000,0.886,0.032,1.793
3508000,0.893,0.032,1.781
3512000,0.907,0.036,1.79
3516000,0.9,0.032,1.785
3520000,0.904,0.031,1.785
3528000,0.889,0.025,1.793
3532000,0.899,0.033,1.784
3540000,0.901,0.031,1.792
3544000,0.905,0.037,1.782
3548000,0.904,0.03,1.787
3552000,0.892,0.029,1.783
3556000,0.89,0.03,1.784
3560000,0.9,0.029,1.792
3568000,0.895,0.032,1.782
3572000,0.898,0.031,1.786
3576000,0.89,0.026,1.785
3580000,0.892,0.037,1.788
3584000,0.893,0.034,1.788
3592000,0.891,0.034,1.788
3600000,0.891,0.028,1.789
3604000,0.893,0.044,1.782
3608000,0.899,0.041,1.793
3612000,0.894,0.033,1.781
3620000,0.909,0.04,1.786
3628000,0.886,0.036,1.786
3632000,0.895,0.033,1.792
3636000,0.895,0.042,1.78
3640000,0.898,0.038,1.787
3644000,0.895,0.033,1.798
3648000,0.899,0.034,1.79
3656000,0.892,0.038,1.778
3660000,0.894,0.036,1.786
3668000,0.89,0.037,1.793
3672000,0.899,0.034,1.791
3676000,0.902,0.041,1.791
3680000,0.892,0.034,1.781
3688000,0.898,0.039,1.786
3692000,0.901,0.04,1.788
3696000,0.893,0.037,1.785
3704000,0.907,0.038,1.79
3708000,0.898,0.043,1.787
3712000,0.905,0.029,1.777
3716000,0.897,0.04,1.784
3720000,0.887,0.028,1.795
3724000,0.91,0.029,1.786
3728000,0.894,0.033,1.785
3740000,0.897,0.032,1.799
3744000,0.889,0.03,1.791
3748000,0.905,0.034,1.787
3752000,0.89,0.036,1.791
3756000,0.897,0.019,1.777
3760000,0.897,0.034,1.785
3764000,0.901,0.028,1.783
3772000,0.89,0.042,1.785
3776000,0.896,0.028,1.793
3780000,0.898,0.032,1.788
3784000,0.895,0.038,1.791
3788000,0.898,0.038,1.781
3796000,0.897,0.027,1.781
3800000,0.901,0.028,1.784
3808000,0.898,0.028,1.793
3816000,0.902,0.028,1.78
3824000,0.893,0.034,1.787
3832000,0.898,0.04,1.79
3836000,0.893,0.038,1.792
3840000,0.895,0.037,1.788
3844000,0.906,0.019,1.799
3852000,0.902,0.032,1.784
3860000,0.897,0.034,1.784
3864000,0.907,0.032,1.796
3872000,0.894,0.037,1.787
3876000,0.896,0.036,1.788
3884000,0.898,0.025,1.784
3892000,0.906,0.027,1.78
3896000,0.901,0.035,1.776
3900000,0.902,0.044,1.777
3904000,0.898,0.039,1.787
3908000,0.898,0.024,1.791
3912000,0.901,0.031,1.793
3920000,0.89,0.025,1.792
3924000,0.881,0.033,1.781
3928000,0.894,0.034,1.793
3932000,0.9,0.036,1.787
3936000,0.899,0.03,1.788
3944000,0.903,0.043,1.79
3952000,0.895,0.044,1.784
3956000,0.898,0.027,1.788
3960000,0.895,0.031,1.792
3968000,0.897,0.036,1.782
3972000,0.901,0.028,1.784
3976000,0.899,0.038,1.793
3980000,0.903,0.036,1.788
3988000,0.89,0.038,1.789
3992000,0.897,0.032,1.789
3996000,0.896,0.029,1.788
4004000,0.896,0.037,1.796
4008000,0.898,0.03,1.788
4012000,0.893,0.031,1.791
4016000,0.895,0.036,1.793
4024000,0.899,0.037,1.793
4028000,0.894,0.038,1.788
4032000,0.898,0.033,1.781
4040000,0.888,0.031,1.792
4044000,0.9,0.035,1.8
4048000,0.896,0.03,1.784
4052000,0.892,0.034,1.782
4056000,0.897,0.034,1.801
4060000,0.891,0.029,1.788
4068000,0.895,0.039,1.782
4076000,0.885,0.03,1.784
4080000,0.908,0.035,1.788
4088000,0.894,0.04,1.783
4092000,0.899,0.031,1.786
4096000,0.898,0.028,1.786
4100000,0.9,0.035,1.793
4104000,0.897,0.031,1.786
4108000,0.896,0.039,1.789
4116000,0.896,0.04,1.782
4120000,0.908,0.036,1.781
4124000,0.881,0.023,1.786
4128000,0.904,0.034,1.802
4132000,0.909,0.037,1.785
4140000,0.898,0.04,1.785
4144000,0.896,0.033,1.787
4152000,0.892,0.028,1.785
4156000,0.898,0.028,1.787
4160000,0.902,0.043,1.787
4168000,0.897,0.035,1.788
4172000,0.909,0.045,1.794
4176000,0.899,0.031,1.78
4184000,0.886,0.041,1.786
4188000,0.895,0.03,1.783
4192000,0.904,0.036,1.792
4196000,0.887,0.029,1.782
4204000,0.898,0.036,1.786
4208000,0.891,0.039,1.789
4212000,0.893,0.029,1.787
4216000,0.899,0.031,1.789
4220000,0.898,0.027,1.791
4228000,0.9,0.032,1.787
4232000,0.901,0.035,1.783
4244000,0.887,0.035,1.788
4252000,0.892,0.04,1.792
4256000,0.9,0.028,1.793
4260000,0.899,0.031,1.786
4268000,0.895,0.043,1.787
4272000,0.9,0.038,1.781
4276000,0.897,0.032,1.781
4280000,0.894,0.035,1.793
4292000,0.902,0.029,1.789
4296000,0.902,0.022,1.787
4300000,0.898,0.027,1.789
4308000,0.888,0.036,1.788
4312000,0.907,0.034,1.783
4320000,0.893,0.035,1.784
4324000,0.897,0.029,1.795
4328000,0.902,0.035,1.782
4332000,0.896,0.034,1.785
4336000,0.904,0.036,1.793
4344000,0.9,0.039,1.788
4348000,0.898,0.031,1.785
4352000,0.908,0.027,1.778
4360000,0.898,0.035,1.783
4368000,0.906,0.036,1.783
4372000,0.9,0.029,1.781
4376000,0.891,0.037,1.783
4380000,0.897,0.037,1.793
4388000,0.893,0.034,1.789
4392000,0.899,0.016,1.785
4396000,0.895,0.034,1.788
4400000,0.893,0.029,1.791
4404000,0.894,0.03,1.795
4412000,0.902,0.031,1.784
4420000,0.896,0.037,1.786
4424000,0.892,0.03,1.795
4432000,0.896,0.038,1.794
4436000,0.905,0.03,1.785
4440000,0.902,0.037,1.79
4444000,0.887,0.036,1.792
4452000,0.893,0.03,1.782
4456000,0.901,0.031,1.786
4460000,0.899,0.044,1.779
4468000,0.884,0.033,1.791
4472000,0.899,0.035,1.788
4476000,0.895,0.041,1.785
4480000,0.905,0.031,1.784
4488000,0.902,0.032,1.784
4492000,0.9,0.037,1.785
4496000,0.897,0.042,1.785
4504000,0.903,0.037,1.791
4508000,0.903,0.027,1.789
4512000,0.888,0.031,1.781
4516000,0.892,0.037,1.79
4524000,0.893,0.031,1.788
4528000,0.891,0.035,1.787
4532000,0.895,0.032,1.785
4536000,0.898,0.03,1.787
4540000,0.91,0.042,1.791
4544000,0.9,0.022,1.789
4552000,0.904,0.039,1.788
4556000,0.895,0.042,1.795
4560000,0.897,0.037,1.784
4564000,0.893,0.031,1.791
4568000,0.897,0.032,1.786
4572000,0.895,0.032,1.784
4580000,0.893,0.032,1.787
4584000,0.899,0.036,1.783
4592000,0.9,0.038,1.793
4596000,0.899,0.031,1.791
4604000,0.894,0.04,1.788
4608000,0.892,0.025,1.788
4612000,0.899,0.035,1.781
4620000,0.893,0.033,1.789
4624000,0.897,0.029,1.785
4628000,0.897,0.037,1.79
4636000,0.905,0.039,1.788
4640000,0.893,0.036,1.785
4644000,0.897,0.035,1.78
4648000,0.904,0.029,1.793
4652000,0.896,0.038,1.78
4660000,0.89,0.028,1.787
4664000,0.9,0.039,1.786
4668000,0.907,0.035,1.79
4672000,0.888,0.031,1.782
4676000,0.885,0.031,1.781
4688000,0.895,0.035,1.774
4692000,0.892,0.029,1.79
4696000,0.89,0.035,1.783
4704000,0.885,0.029,1.794
4708000,0.908,0.03,1.786
4712000,0.898,0.031,1.782
4720000,0.888,0.031,1.792
4724000,0.893,0.027,1.795
4728000,0.9,0.036,1.781
4732000,0.897,0.027,1.785
4740000,0.89,0.038,1.779
4744000,0.9,0.027,1.794
4752000,0.902,0.037,1.786
4756000,0.897,0.036,1.782
4760000,0.897,0.034,1.791
4768000,0.893,0.033,1.785
4772000,0.909,0.027,1.789
4776000,0.896,0.031,1.788
4780000,0.893,0.035,1.784
4784000,0.9,0.026,1.776
4792000,0.892,0.03,1.793
4804000,0.895,0.031,1.78
4808000,0.9,0.029,1.792
4812000,0.895,0.028,1.795
4816000,0.897,0.023,1.787
4820000,0.896,0.031,1.788
4828000,0.899,0.033,1.789
4832000,0.906,0.032,1.789
4836000,0.891,0.027,1.787
4840000,0.894,0.036,1.785
4844000,0.894,0.032,1.794
4852000,0.899,0.036,1.786
4856000,0.903,0.028,1.786
4860000,0.886,0.037,1.791
4868000,0.898,0.035,1.793
4872000,0.899,0.027,1.783
4876000,0.899,0.035,1.785
4884000,0.896,0.041,1.789
4888000,0.898,0.034,1.782
4892000,0.89,0.029,1.789
4896000,0.894,0.035,1.79
4900000,0.901,0.038,1.78
4904000,0.899,0.034,1.78
4908000,0.9,0.037,1.792
4912000,0.895,0.03,1.785
4916000,0.901,0.034,1.79
4920000,0.898,0.035,1.792
4924000,0.901,0.034,1.788
4928000,0.889,0.034,1.786
4936000,0.895,0.03,1.788
4944000,0.896,0.033,1.781
4952000,0.902,0.033,1.798
4956000,0.897,0.034,1.785
4964000,0.899,0.033,1.789
4972000,0.896,0.031,1.785
4980000,0.904,0.026,1.786
4988000,0.895,0.036,1.783
4996000,0.901,0.036,1.797
5000000,0.891,0.028,1.783
5004000,0.892,0.032,1.786
5008000,0.895,0.032,1.785
5012000,0.896,0.03,1.785
5016000,0.891,0.031,1.79
5020000,0.895,0.032,1.79
5024000,0.888,0.036,1.793
5028000,0.894,0.036,1.791
5036000,0.888,0.033,1.787
5040000,0.899,0.037,1.787
5044000,0.898,0.035,1.786
5048000,0.894,0.035,1.792
5056000,0.904,0.032,1.783
5060000,0.903,0.034,1.792
5068000,0.887,0.031,1.788
5072000,0.901,0.029,1.782
5076000,0.904,0.039,1.784
5080000,0.893,0.04,1.785
5084000,0.901,0.03,1.78
5092000,0.895,0.033,1.778
5096000,0.889,0.037,1.785
5104000,0.9,0.036,1.785
5108000,0.908,0.028,1.78
5112000,0.901,0.029,1.787
5120000,0.907,0.043,1.786
5124000,0.894,0.031,1.788
5132000,0.892,0.023,1.791
5140000,0.903,0.028,1.801
5144000,0.897,0.034,1.777
5152000,0.897,0.041,1.791
5156000,0.896,0.033,1.791
5160000,0.891,0.037,1.782
5168000,0.896,0.034,1.787
5172000,0.906,0.031,1.792
5176000,0.894,0.039,1.79
5184000,0.9,0.04,1.781
5192000,0.904,0.037,1.782
5200000,0.898,0.032,1.782
5204000,0.9,0.041,1.782
5208000,0.901,0.028,1.788
5212000,0.903,0.032,1.781
5216000,0.889,0.035,1.781
5220000,0.898,0.03,1.79
5228000,0.895,0.033,1.787
5232000,0.896,0.029,1.787
5236000,0.889,0.037,1.782
5244000,0.9,0.032,1.786
5248000,0.899,0.029,1.783
5252000,0.895,0.028,1.784
5256000,0.894,0.037,1.789
5260000,0.902,0.03,1.785
5264000,0.902,0.038,1.783
5272000,0.893,0.042,1.788
5276000,0.894,0.032,1.787
5280000,0.899,0.04,1.781
5288000,0.904,0.035,1.786
5292000,0.891,0.03,1.788
5296000,0.892,0.034,1.796
5300000,0.9,0.043,1.79
5304000,0.895,0.039,1.777
5312000,0.903,0.04,1.798
5320000,0.896,0.029,1.787
5324000,0.903,0.04,1.789
5332000,0.901,0.042,1.78
5340000,0.889,0.033,1.786
5348000,0.89,0.037,1.792
5352000,0.898,0.029,1.773
5356000,0.893,0.029,1.787
5360000,0.901,0.038,1.789
5368000,0.894,0.031,1.795
5372000,0.898,0.034,1.796
5376000,0.906,0.031,1.781
5380000,0.899,0.027,1.78
5384000,0.897,0.031,1.796
5392000,0.891,0.036,1.794
5396000,0.902,0.028,1.778
5404000,0.898,0.031,1.789
5412000,0.907,0.036,1.787
5416000,0.905,0.036,1.783
5420000,0.901,0.032,1.78
5428000,0.895,0.037,1.795
5432000,0.905,0.027,1.776
5436000,0.903,0.036,1.783
5440000,0.885,0.038,1.786
5444000,0.896,0.037,1.791
5448000,0.892,0.034,1.789
5452000,0.9,0.029,1.792
5456000,0.892,0.034,1.788
5460000,0.893,0.028,1.786
5468000,0.901,0.039,1.784
5476000,0.895,0.034,1.784
5484000,0.879,0.038,1.789
5488000,0.887,0.028,1.784
5492000,0.888,0.028,1.79
5500000,0.9,0.033,1.784
5504000,0.897,0.027,1.783
5508000,0.898,0.037,1.781
5516000,0.901,0.031,1.786
5524000,0.89,0.035,1.788
5532000,0.891,0.036,1.786
5536000,0.891,0.032,1.782
5540000,0.89,0.045,1.783
5548000,0.892,0.03,1.786
5552000,0.892,0.031,1.787
5556000,0.896,0.04,1.79
5560000,0.902,0.031,1.792
5564000,0.897,0.035,1.785
5572000,0.896,0.034,1.783
5576000,0.903,0.034,1.787
5584000,0.897,0.034,1.788
5588000,0.891,0.032,1.792
5592000,0.901,0.026,1.786
5596000,0.896,0.027,1.784
5600000,0.893,0.039,1.781
5604000,0.894,0.035,1.788
5608000,0.897,0.032,1.787
5616000,0.899,0.031,1.78
5620000,0.898,0.04,1.796
5624000,0.897,0.036,1.798
5628000,0.897,0.033,1.796
5636000,0.894,0.028,1.79
5640000,0.899,0.026,1.782
5644000,0.9,0.034,1.791
5648000,0.891,0.039,1.792
5652000,0.894,0.033,1.785
5656000,0.891,0.036,1.789
5660000,0.892,0.032,1.774
5664000,0.903,0.034,1.788
5668000,0.903,0.035,1.783
5672000,0.9,0.033,1.792
5676000,0.898,0.032,1.784
5680000,0.897,0.033,1.792
5684000,0.896,0.025,1.78
5688000,0.897,0.022,1.78
5692000,0.9,0.023,1.783
5696000,0.898,0.031,1.788
5704000,0.894,0.036,1.78
5708000,0.892,0.042,1.791
5712000,0.901,0.035,1.786
5720000,0.908,0.033,1.786
5724000,0.899,0.021,1.789
5728000,0.9,0.03,1.778
5736000,0.895,0.032,1.792
5740000,0.902,0.029,1.781
5744000,0.896,0.029,1.778
5752000,0.896,0.029,1.784
5756000,0.887,0.027,1.792
5760000,0.899,0.034,1.792
5768000,0.895,0.028,1.792
5772000,0.894,0.028,1.785
5776000,0.896,0.036,1.788
5780000,0.907,0.037,1.792
5784000,0.899,0.032,1.786
5788000,0.897,0.035,1.795
5792000,0.903,0.039,1.784
5800000,0.897,0.036,1.791
5804000,0.891,0.034,1.786
5812000,0.897,0.031,1.792
5816000,0.896,0.028,1.788
5820000,0.892,0.032,1.782
5824000,0.903,0.03,1.782
5828000,0.893,0.035,1.784
5832000,0.905,0.03,1.781
5836000,0.893,0.024,1.792
5840000,0.889,0.036,1.788
5844000,0.891,0.037,1.777
5848000,0.89,0.035,1.789
5852000,0.895,0.031,1.783
5856000,0.904,0.039,1.777
5860000,0.895,0.028,1.787
5868000,0.895,0.04,1.787
5872000,0.895,0.034,1.788
5876000,0.902,0.031,1.792
5880000,0.902,0.023,1.787
5888000,0.895,0.03,1.79
5892000,0.905,0.038,1.792
5896000,0.897,0.031,1.778
5900000,0.894,0.031,1.781
5908000,0.89,0.033,1.78
5912000,0.897,0.039,1.789
5920000,0.901,0.041,1.79
5924000,0.906,0.026,1.788
5932000,0.91,0.037,1.786
5940000,0.892,0.036,1.789
5948000,0.908,0.025,1.783
5952000,0.889,0.03,1.78
5956000,0.896,0.031,1.788
5960000,0.898,0.036,1.791
5964000,0.897,0.04,1.785
5972000,0.893,0.028,1.783
5976000,0.902,0.031,1.785
5980000,0.894,0.03,1.783
5984000,0.899,0.027,1.777
5988000,0.889,0.035,1.794
5992000,0.89,0.028,1.78
5996000,0.895,0.04,1.791
6004000,0.893,0.035,1.78
6008000,0.901,0.037,1.788
6012000,0.899,0.033,1.793
6016000,0.904,0.036,1.803
6020000,0.896,0.031,1.784
6028000,0.895,0.036,1.791
6032000,0.897,0.038,1.787
6036000,0.899,0.033,1.784
6040000,0.889,0.031,1.784
6044000,0.902,0.03,1.796
6048000,0.891,0.037,1.784
6052000,0.903,0.041,1.796
6056000,0.893,0.038,1.787
6060000,0.897,0.031,1.785
6064000,0.894,0.033,1.788
6068000,0.895,0.037,1.784
6072000,0.895,0.032,1.785
6076000,0.897,0.027,1.789
6080000,0.893,0.034,1.785
6088000,0.902,0.031,1.79
6092000,0.891,0.039,1.778
6096000,0.892,0.042,1.784
6100000,0.9,0.037,1.791
6104000,0.904,0.038,1.785
6108000,0.897,0.033,1.783
6112000,0.899,0.038,1.788
6116000,0.897,0.028,1.784
6120000,0.889,0.029,1.789
6124000,0.894,0.035,1.775
6128000,0.897,0.035,1.78
6132000,0.887,0.037,1.793
6136000,0.899,0.038,1.785
6140000,0.904,0.033,1.783
6144000,0.899,0.039,1.783
6148000,0.905,0.029,1.787
6156000,0.893,0.038,1.794
6160000,0.892,0.031,1.795
6164000,0.891,0.025,1.785
6168000,0.907,0.032,1.791
6172000,0.896,0.042,1.794
6176000,0.903,0.031,1.789
6180000,0.9,0.03,1.786
6184000,0.899,0.037,1.78
6188000,0.89,0.029,1.788
6192000,0.894,0.029,1.785
6196000,0.893,0.039,1.786
6200000,0.892,0.034,1.772
6208000,0.89,0.041,1.787
6212000,0.896,0.032,1.783
6216000,0.898,0.035,1.787
6220000,0.897,0.032,1.787
6224000,0.904,0.037,1.785
6228000,0.9,0.03,1.786
6232000,0.911,0.026,1.787
6236000,0.896,0.031,1.783
6240000,0.892,0.034,1.787
6248000,0.892,0.035,1.774
6252000,0.901,0.022,1.78
6256000,0.89,0.031,1.789
6264000,0.885,0.029,1.787
6268000,0.894,0.04,1.794
6272000,0.898,0.036,1.781
6276000,0.896,0.03,1.782
6280000,0.894,0.035,1.798
6284000,0.9,0.034,1.789
6288000,0.901,0.039,1.781
6292000,0.898,0.026,1.791
6296000,0.89,0.027,1.782
6300000,0.898,0.035,1.785
6304000,0.9,0.032,1.782
6308000,0.888,0.038,1.788
6312000,0.892,0.025,1.787
6320000,0.899,0.034,1.787
6324000,0.895,0.032,1.791
6328000,0.91,0.036,1.788
6332000,0.897,0.031,1.783
6340000,0.896,0.031,1.78
6344000,0.898,0.04,1.793
6348000,0.894,0.026,1.78
6356000,0.896,0.036,1.79
6360000,0.904,0.036,1.791
6364000,0.9,0.028,1.785
6368000,0.901,0.039,1.786
6372000,0.893,0.029,1.778
6376000,0.9,0.026,1.793
6380000,0.9,0.029,1.788
6384000,0.899,0.032,1.797
6392000,0.893,0.027,1.785
6400000,0.905,0.037,1.778
6404000,0.893,0.029,1.789
6408000,0.904,0.036,1.786
6412000,0.89,0.023,1.789
6420000,0.888,0.038,1.79
6428000,0.89,0.034,1.779
6432000,0.895,0.027,1.781
6436000,0.914,0.042,1.785
6440000,0.901,0.034,1.781
6448000,0.893,0.031,1.777
6452000,0.896,0.03,1.78
6456000,0.899,0.028,1.784
6460000,0.896,0.026,1.782
6464000,0.895,0.035,1.793
6468000,0.893,0.035,1.789
6476000,0.898,0.03,1.787
6484000,0.897,0.03,1.787
6488000,0.901,0.041,1.789
6496000,0.904,0.036,1.793
6500000,0.897,0.026,1.788
6504000,0.901,0.033,1.786
6508000,0.904,0.031,1.788
6512000,0.894,0.03,1.783
6516000,0.893,0.024,1.79
6520000,0.902,0.03,1.791
6524000,0.888,0.033,1.801
6532000,0.905,0.03,1.786
6540000,0.897,0.042,1.784
6544000,0.895,0.036,1.786
6552000,0.897,0.024,1.796
6560000,0.896,0.034,1.786
6564000,0.897,0.026,1.78
6568000,0.899,0.037,1.783
6572000,0.895,0.034,1.775
6576000,0.897,0.033,1.795
6580000,0.892,0.037,1.778
6584000,0.894,0.032,1.792
6592000,0.9,0.029,1.777
6596000,0.899,0.036,1.788
6604000,0.902,0.032,1.781
6608000,0.903,0.033,1.781
6612000,0.894,0.032,1.788
6620000,0.9,0.034,1.788
6624000,0.898,0.034,1.79
6628000,0.892,0.035,1.788
6636000,0.894,0.032,1.788
6640000,0.898,0.038,1.79
6644000,0.887,0.033,1.787
6652000,0.896,0.031,1.783
6660000,0.897,0.031,1.785
6664000,0.895,0.028,1.781
6668000,0.896,0.038,1.784
6672000,0.901,0.028,1.796
6676000,0.896,0.037,1.787
6680000,0.896,0.03,1.79
6688000,0.896,0.029,1.792
6692000,0.893,0.04,1.789
6696000,0.901,0.028,1.791
6700000,0.897,0.033,1.773
6704000,0.904,0.041,1.792
6708000,0.896,0.029,1.784
6712000,0.89,0.032,1.791
6716000,0.894,0.03,1.782
6720000,0.894,0.029,1.786
6724000,0.898,0.041,1.782
6732000,0.899,0.036,1.797
6736000,0.886,0.025,1.776
6744000,0.893,0.04,1.779
6748000,0.903,0.033,1.779
6752000,0.903,0.031,1.788
6760000,0.894,0.027,1.788
6764000,0.9,0.024,1.788
6772000,0.894,0.033,1.788
6776000,0.891,0.03,1.795
6784000,0.901,0.031,1.782
6792000,0.893,0.034,1.79
6800000,0.893,0.034,1.778
6804000,0.903,0.029,1.794
6808000,0.905,0.031,1.786
6812000,0.901,0.038,1.802
6820000,0.887,0.036,1.789
6824000,0.894,0.037,1.789
6828000,0.898,0.031,1.782
6832000,0.904,0.029,1.783
6836000,0.89,0.033,1.775
6844000,0.901,0.031,1.787
6848000,0.902,0.039,1.785
6852000,0.899,0.031,1.787
6860000,0.893,0.031,1.787
6864000,0.898,0.026,1.791
6868000,0.9,0.032,1.784
6872000,0.888,0.028,1.793
6876000,0.895,0.032,1.793
6880000,0.906,0.029,1.787
6888000,0.9,0.038,1.781
6892000,0.891,0.041,1.786
6896000,0.889,0.034,1.782
6904000,0.901,0.027,1.789
6908000,0.886,0.04,1.784
6912000,0.901,0.031,1.785
6916000,0.895,0.029,1.795
6920000,0.896,0.03,1.79
6924000,0.904,0.033,1.787
6932000,0.902,0.032,1.792
6936000,0.896,0.036,1.786
6940000,0.896,0.044,1.79
6944000,0.9,0.043,1.779
6952000,0.894,0.029,1.785
6956000,0.892,0.032,1.794
6960000,0.9,0.03,1.788
6964000,0.889,0.045,1.791
6968000,0.9,0.033,1.792
6972000,0.892,0.03,1.79
6980000,0.899,0.031,1.776
6984000,0.892,0.032,1.791
6988000,0.902,0.032,1.794
6992000,0.899,0.037,1.782
6996000,0.891,0.034,1.779
7004000,0.904,0.034,1.793
7008000,0.899,0.034,1.783
7012000,0.899,0.036,1.787
7016000,0.892,0.032,1.787
7020000,0.891,0.038,1.777
7024000,0.901,0.03,1.786
7028000,0.9,0.032,1.785
7032000,0.9,0.033,1.786
7036000,0.892,0.03,1.796
7040000,0.896,0.029,1.785
7048000,0.894,0.028,1.784
7052000,0.899,0.035,1.788
7056000,0.891,0.033,1.786
7064000,0.897,0.036,1.782
7068000,0.899,0.028,1.786
7072000,0.892,0.034,1.787
7076000,0.902,0.03,1.781
7080000,0.901,0.037,1.787
7084000,0.9,0.038,1.781
7088000,0.904,0.042,1.778
7092000,0.899,0.034,1.795
7096000,0.897,0.03,1.786
7104000,0.901,0.038,1.787
7108000,0.887,0.034,1.783
7112000,0.892,0.035,1.784
7116000,0.897,0.031,1.781
7124000,0.896,0.039,1.783
7128000,0.9,0.034,1.787
7136000,0.9,0.029,1.784
7140000,0.893,0.033,1.792
7144000,0.901,0.029,1.786
7148000,0.894,0.036,1.788
7152000,0.891,0.029,1.795
7156000,0.893,0.032,1.782
7160000,0.893,0.034,1.792
7164000,0.897,0.028,1.781
7168000,0.89,0.034,1.788
7172000,0.901,0.031,1.79
7180000,0.895,0.033,1.792
7184000,0.899,0.037,1.784
7188000,0.89,0.026,1.779
7196000,0.9,0.029,1.789
7200000,0.897,0.034,1.783
7204000,0.902,0.03,1.786
7208000,0.896,0.029,1.786
7216000,0.892,0.035,1.789
7224000,0.899,0.019,1.788
7228000,0.889,0.037,1.791
7232000,0.897,0.039,1.78
7236000,0.897,0.027,1.772
7240000,0.895,0.03,1.789
7244000,0.899,0.022,1.794
7248000,0.9,0.036,1.778
7252000,0.902,0.031,1.788
7260000,0.896,0.024,1.786
7264000,0.894,0.028,1.79
7272000,0.89,0.034,1.787
7276000,0.903,0.029,1.791
7280000,0.897,0.025,1.786
7288000,0.902,0.038,1.792
7292000,0.9,0.024,1.783
7296000,0.896,0.032,1.782
7300000,0.899,0.039,1.777
7304000,0.896,0.04,1.786
7308000,0.895,0.041,1.788
7312000,0.904,0.035,1.788
7316000,0.901,0.032,1.789
7320000,0.896,0.03,1.783
7324000,0.897,0.033,1.79
7328000,0.897,0.04,1.786
7336000,0.908,0.039,1.779
7340000,0.899,0.03,1.785
7344000,0.9,0.029,1.78
7348000,0.903,0.036,1.787
7352000,0.902,0.035,1.794
7360000,0.894,0.034,1.78
7364000,0.891,0.033,1.787
7368000,0.902,0.03,1.79
7372000,0.897,0.031,1.781
7376000,0.887,0.037,1.782
7380000,0.895,0.034,1.787
7388000,0.899,0.039,1.79
7392000,0.897,0.035,1.785
7396000,0.892,0.044,1.776
7400000,0.893,0.037,1.79
7404000,0.889,0.029,1.792
7408000,0.893,0.037,1.779
7412000,0.896,0.039,1.785
7416000,0.896,0.036,1.795
7420000,0.899,0.029,1.794
7424000,0.891,0.037,1.79
7428000,0.892,0.036,1.779
7432000,0.885,0.028,1.793
7436000,0.895,0.03,1.791
7440000,0.899,0.029,1.779
7444000,0.897,0.038,1.783
7448000,0.896,0.03,1.791
7452000,0.89,0.027,1.796
7460000,0.895,0.034,1.79
7464000,0.9,0.036,1.78
7472000,0.89,0.026,1.79
7476000,0.896,0.035,1.789
7480000,0.896,0.032,1.782
7484000,0.902,0.035,1.782
7488000,0.894,0.031,1.791
7496000,0.907,0.034,1.781
7500000,0.904,0.026,1.785
7504000,0.896,0.03,1.785
7508000,0.898,0.036,1.786
7516000,0.898,0.033,1.776
7520000,0.897,0.034,1.786
7524000,0.897,0.022,1.793
7528000,0.893,0.031,1.774
7536000,0.902,0.031,1.789
7540000,0.888,0.033,1.778
7548000,0.901,0.032,1.79
7552000,0.891,0.028,1.793
7560000,0.907,0.027,1.787
7564000,0.905,0.031,1.778
7572000,0.895,0.031,1.789
7576000,0.896,0.033,1.792
7580000,0.897,0.035,1.786
7584000,0.898,0.03,1.781
7588000,0.898,0.029,1.782
7592000,0.896,0.032,1.782
7596000,0.898,0.041,1.787
7600000,0.903,0.025,1.789
7608000,0.896,0.024,1.785
7612000,0.894,0.036,1.786
7616000,0.9,0.03,1.792
7620000,0.894,0.033,1.788
7624000,0.899,0.028,1.783
7628000,0.898,0.025,1.784
7632000,0.895,0.032,1.787
7640000,0.895,0.033,1.787
7644000,0.892,0.034,1.797
7648000,0.887,0.038,1.785
7652000,0.897,0.033,1.791
7660000,0.897,0.028,1.783
7668000,0.896,0.035,1.785
7672000,0.893,0.037,1.784
7680000,0.894,0.03,1.788
7684000,0.9,0.039,1.795
7688000,0.894,0.029,1.788
7696000,0.895,0.027,1.785
7700000,0.899,0.029,1.787
7708000,0.897,0.023,1.786
7716000,0.905,0.031,1.796
7720000,0.9,0.04,1.791
7724000,0.897,0.035,1.778
7728000,0.898,0.026,1.788
7732000,0.89,0.036,1.786
7736000,0.9,0.031,1.771
7744000,0.898,0.039,1.787
7748000,0.897,0.025,1.787
7752000,0.898,0.035,1.782
7756000,0.9,0.025,1.787
7760000,0.893,0.035,1.791
7768000,0.898,0.035,1.789
7772000,0.898,0.03,1.786
7776000,0.893,0.031,1.782
7784000,0.9,0.027,1.779
7788000,0.903,0.039,1.789
7792000,0.897,0.03,1.789
7796000,0.898,0.031,1.787
7800000,0.902,0.028,1.788
7804000,0.898,0.028,1.796
7808000,0.895,0.031,1.786
7812000,0.897,0.033,1.782
7816000,0.898,0.029,1.785
7820000,0.901,0.028,1.79
7824000,0.897,0.032,1.793
7828000,0.888,0.031,1.794
7832000,0.895,0.024,1.783
7840000,0.902,0.033,1.788
7848000,0.895,0.03,1.788
7852000,0.894,0.024,1.781
7856000,0.891,0.035,1.784
7860000,0.893,0.031,1.781
7864000,0.9,0.032,1.796
7868000,0.9,0.041,1.792
7872000,0.895,0.042,1.784
7876000,0.896,0.037,1.796
7884000,0.904,0.042,1.788
7888000,0.905,0.04,1.785
7892000,0.887,0.039,1.788
7896000,0.905,0.037,1.78
7904000,0.896,0.033,1.791
7908000,0.892,0.037,1.784
7916000,0.894,0.027,1.801
7920000,0.898,0.028,1.788
7924000,0.896,0.022,1.785
7932000,0.899,0.026,1.781
7936000,0.879,0.039,1.79
7940000,0.902,0.042,1.786
7948000,0.9,0.023,1.782
7952000,0.895,0.024,1.79
7956000,0.901,0.035,1.78
7960000,0.901,0.034,1.784
7964000,0.896,0.032,1.788
7968000,0.901,0.027,1.793
7972000,0.9,0.036,1.781
7976000,0.899,0.034,1.794
7980000,0.897,0.034,1.78
7984000,0.903,0.037,1.787
7992000,0.901,0.03,1.791
7996000,0.9,0.027,1.795
8004000,0.9,0.036,1.787
8008000,0.902,0.036,1.785
8012000,0.895,0.033,1.79
8016000,0.9,0.021,1.778
8020000,0.898,0.039,1.782
8024000,0.888,0.038,1.793
8028000,0.902,0.036,1.791
8032000,0.898,0.035,1.787
8036000,0.904,0.032,1.785
8040000,0.89,0.035,1.793
8044000,0.889,0.038,1.779
8052000,0.898,0.026,1.788
8060000,0.896,0.034,1.796
8064000,0.898,0.031,1.788
8068000,0.893,0.033,1.782
8072000,0.894,0.028,1.788
8076000,0.894,0.034,1.791
8080000,0.893,0.032,1.779
8088000,0.895,0.034,1.775
8092000,0.899,0.03,1.779
8100000,0.901,0.029,1.786
8104000,0.898,0.04,1.785
8108000,0.894,0.039,1.783
8116000,0.892,0.029,1.79
8120000,0.891,0.037,1.789
8124000,0.889,0.034,1.788
8128000,0.903,0.021,1.79
8132000,0.891,0.033,1.786
8136000,0.902,0.027,1.785
8140000,0.896,0.031,1.794
8144000,0.895,0.04,1.777
8148000,0.909,0.038,1.788
8152000,0.9,0.035,1.786
8156000,0.902,0.034,1.789
8160000,0.895,0.034,1.794
8164000,0.902,0.043,1.784
8168000,0.894,0.037,1.787
8172000,0.907,0.025,1.793
8176000,0.904,0.033,1.781
8180000,0.9,0.034,1.782
8184000,0.905,0.035,1.789
8192000,0.89,0.034,1.786
8196000,0.897,0.032,1.787
8200000,0.889,0.033,1.783
8204000,0.904,0.039,1.778
8212000,0.894,0.03,1.792
8216000,0.893,0.028,1.781
8220000,0.904,0.031,1.784
8224000,0.898,0.029,1.777
8232000,0.903,0.03,1.791
8240000,0.909,0.018,1.787
8244000,0.898,0.028,1.789
8248000,0.894,0.03,1.791
8252000,0.895,0.029,1.789
8260000,0.898,0.027,1.784
8264000,0.9,0.031,1.788
8268000,0.891,0.034,1.792
8276000,0.898,0.03,1.795
8280000,0.894,0.031,1.788
8288000,0.9,0.03,1.783
8292000,0.904,0.03,1.787
8296000,0.901,0.036,1.789
8300000,0.898,0.04,1.784
8304000,0.899,0.033,1.793
8308000,0.902,0.026,1.787
8316000,0.893,0.04,1.781
8324000,0.897,0.023,1.78
8328000,0.892,0.041,1.786
8336000,0.901,0.033,1.785
8340000,0.898,0.039,1.783
8348000,0.904,0.033,1.784
8352000,0.893,0.025,1.784
8356000,0.894,0.025,1.777
8364000,0.904,0.034,1.794
8372000,0.895,0.042,1.786
8376000,0.893,0.03,1.795
8380000,0.898,0.036,1.787
8388000,0.894,0.039,1.783
8392000,0.897,0.021,1.785
8396000,0.897,0.036,1.783
8400000,0.902,0.025,1.789
8404000,0.901,0.035,1.787
8408000,0.899,0.03,1.787
8412000,0.892,0.029,1.789
8420000,0.898,0.035,1.785
8424000,0.897,0.027,1.779
8432000,0.904,0.039,1.78
8436000,0.899,0.025,1.784
8440000,0.896,0.038,1.784
8444000,0.893,0.034,1.782
8448000,0.904,0.031,1.79
8456000,0.9,0.031,1.793
8464000,0.898,0.035,1.785
8468000,0.901,0.033,1.783
8472000,0.888,0.033,1.783
8476000,0.892,0.039,1.788
8480000,0.899,0.023,1.779
8484000,0.893,0.04,1.788
8488000,0.9,0.031,1.786
8496000,0.903,0.039,1.783
8500000,0.888,0.022,1.788
8508000,0.892,0.024,1.781
8512000,0.892,0.036,1.776
8520000,0.893,0.033,1.787
8524000,0.894,0.034,1.775
8528000,0.901,0.037,1.78
8532000,0.891,0.032,1.791
8536000,0.896,0.03,1.784
8540000,0.894,0.037,1.788
8548000,0.905,0.031,1.785
8552000,0.903,0.04,1.79
8560000,0.883,0.031,1.804
8564000,0.899,0.026,1.779
8568000,0.888,0.035,1.794
8572000,0.896,0.03,1.784
8576000,0.887,0.032,1.785
8580000,0.898,0.034,1.788
8584000,0.895,0.025,1.783
8588000,0.891,0.031,1.779
8592000,0.901,0.042,1.786
8596000,0.894,0.034,1.787
8604000,0.897,0.044,1.784
8608000,0.903,0.039,1.785
8616000,0.896,0.029,1.787
8624000,0.894,0.033,1.787
8628000,0.898,0.03,1.781
8636000,0.89,0.031,1.79
8640000,0.895,0.034,1.794
8644000,0.897,0.037,1.792
8648000,0.898,0.026,1.784
8652000,0.893,0.034,1.779
8656000,0.901,0.028,1.784
8660000,0.898,0.031,1.798
8664000,0.897,0.034,1.787
8672000,0.894,0.027,1.79
8676000,0.895,0.037,1.788
8680000,0.897,0.031,1.783
8688000,0.9,0.034,1.793
8692000,0.899,0.025,1.777
8696000,0.892,0.04,1.774
8700000,0.902,0.026,1.777
8704000,0.892,0.04,1.786
8708000,0.903,0.033,1.789
8712000,0.9,0.036,1.793
8716000,0.894,0.034,1.787
8724000,0.897,0.035,1.782
8732000,0.895,0.035,1.786
8736000,0.9,0.04,1.79
8740000,0.896,0.029,1.79
8744000,0.898,0.03,1.778
8748000,0.899,0.035,1.78
8752000,0.907,0.026,1.789
8756000,0.891,0.033,1.786
8764000,0.906,0.032,1.787
8768000,0.899,0.029,1.795
8776000,0.897,0.031,1.79
8780000,0.89,0.03,1.786
8784000,0.892,0.031,1.785
8788000,0.895,0.034,1.79
8792000,0.904,0.036,1.788
8796000,0.886,0.029,1.785
8800000,0.896,0.03,1.779
8804000,0.898,0.031,1.784
8812000,0.89,0.035,1.78
8820000,0.891,0.028,1.789
8828000,0.905,0.031,1.779
8832000,0.898,0.039,1.781
8836000,0.899,0.037,1.788
8840000,0.902,0.028,1.788
8848000,0.894,0.034,1.784
8852000,0.888,0.036,1.795
8860000,0.901,0.031,1.792
8864000,0.906,0.025,1.79
8868000,0.898,0.039,1.785
8876000,0.908,0.033,1.79
8880000,0.895,0.035,1.781
8888000,0.908,0.042,1.786
8892000,0.903,0.037,1.79
8896000,0.901,0.031,1.791
8900000,0.897,0.035,1.786
8904000,0.896,0.032,1.785
8908000,0.894,0.039,1.786
8912000,0.885,0.032,1.793
8916000,0.894,0.024,1.786
8924000,0.89,0.031,1.786
8928000,0.9,0.033,1.786
8932000,0.891,0.018,1.785
8936000,0.898,0.031,1.78
8940000,0.902,0.031,1.793
8948000,0.893,0.029,1.789
8956000,0.897,0.035,1.792
8960000,0.902,0.029,1.786
8964000,0.894,0.032,1.783
8972000,0.89,0.033,1.784
8976000,0.897,0.027,1.79
8980000,0.893,0.03,1.784
8984000,0.894,0.027,1.788
8988000,0.899,0.031,1.793
8996000,0.896,0.036,1.78
9000000,0.895,0.043,1.779
9004000,0.899,0.038,1.78
9012000,0.895,0.021,1.785
9016000,0.9,0.02,1.788
9020000,0.897,0.04,1.791
9028000,0.893,0.038,1.792
9032000,0.899,0.032,1.78
9036000,0.9,0.027,1.787
9040000,0.895,0.029,1.788
9044000,0.889,0.038,1.785
9048000,0.907,0.039,1.788
9052000,0.9,0.039,1.78
9056000,0.889,0.028,1.778
9064000,0.899,0.032,1.788
9072000,0.897,0.037,1.797
9080000,0.901,0.035,1.781
9084000,0.891,0.031,1.784
9088000,0.89,0.032,1.794
9092000,0.893,0.027,1.785
9100000,0.906,0.02,1.781
9104000,0.9,0.035,1.791
9108000,0.896,0.043,1.782
9116000,0.899,0.036,1.784
9120000,0.889,0.041,1.784
9124000,0.902,0.039,1.793
9128000,0.895,0.031,1.782
9132000,0.902,0.028,1.792
9140000,0.888,0.038,1.786
9148000,0.897,0.028,1.788
9152000,0.898,0.033,1.789
9156000,0.893,0.028,1.787
9164000,0.893,0.032,1.788
9168000,0.896,0.036,1.78
9172000,0.89,0.032,1.793
9180000,0.899,0.032,1.786
9184000,0.895,0.034,1.792
9188000,0.895,0.036,1.787
9192000,0.897,0.033,1.783
9200000,0.894,0.029,1.777
9204000,0.901,0.034,1.788
9212000,0.896,0.041,1.794
9216000,0.896,0.037,1.781
9220000,0.896,0.041,1.791
9224000,0.899,0.033,1.789
9232000,0.904,0.036,1.79
9236000,0.896,0.031,1.785
9240000,0.897,0.04,1.788
9244000,0.895,0.039,1.779
9248000,0.906,0.026,1.779
9256000,0.895,0.022,1.788
9260000,0.891,0.029,1.792
9264000,0.898,0.03,1.785
9268000,0.895,0.037,1.785
9272000,0.901,0.03,1.79
9276000,0.898,0.026,1.779
9284000,0.899,0.037,1.791
9288000,0.894,0.034,1.783
9292000,0.89,0.034,1.795
9296000,0.891,0.038,1.791
9304000,0.897,0.044,1.787
9308000,0.899,0.033,1.782
9312000,0.893,0.03,1.791
9320000,0.886,0.041,1.784
9328000,0.905,0.037,1.794
9332000,0.897,0.035,1.781
9336000,0.9,0.035,1.783
9344000,0.901,0.032,1.789
9348000,0.903,0.035,1.785
9352000,0.886,0.029,1.786
9356000,0.897,0.034,1.791
9364000,0.893,0.038,1.79
9368000,0.896,0.033,1.795
9376000,0.896,0.04,1.791
9380000,0.892,0.025,1.789
9388000,0.898,0.024,1.788
9392000,0.892,0.028,1.779
9396000,0.899,0.022,1.773
9400000,0.901,0.043,1.788
9404000,0.901,0.035,1.776
9412000,0.897,0.027,1.791
9416000,0.897,0.033,1.783
9420000,0.9,0.034,1.786
9424000,0.897,0.03,1.797
9428000,0.898,0.031,1.787
9436000,0.897,0.031,1.787
9440000,0.897,0.039,1.789
9448000,0.896,0.025,1.783
9452000,0.898,0.033,1.789
9456000,0.9,0.031,1.784
9464000,0.901,0.035,1.782
9468000,0.891,0.033,1.784
9472000,0.899,0.024,1.786
9476000,0.902,0.032,1.791
9480000,0.899,0.035,1.785
9484000,0.894,0.034,1.784
9488000,0.909,0.019,1.784
9492000,0.899,0.031,1.786
9496000,0.896,0.036,1.789
9500000,0.897,0.042,1.798
9504000,0.901,0.027,1.8
9508000,0.903,0.03,1.786
9512000,0.898,0.038,1.785
9516000,0.9,0.035,1.785
9520000,0.905,0.034,1.788
9524000,0.899,0.032,1.781
9528000,0.897,0.029,1.785
9532000,0.902,0.029,1.791
9540000,0.891,0.041,1.79
9548000,0.894,0.029,1.79
9552000,0.904,0.032,1.782
9556000,0.897,0.037,1.793
9560000,0.903,0.023,1.792
9564000,0.902,0.032,1.781
9568000,0.896,0.035,1.788
9576000,0.892,0.027,1.778
9580000,0.893,0.027,1.784
9584000,0.895,0.038,1.788
9588000,0.903,0.033,1.791
9592000,0.891,0.028,1.788
9596000,0.899,0.041,1.786
9600000,0.898,0.029,1.791
9604000,0.898,0.043,1.787
9608000,0.9,0.031,1.783
9612000,0.901,0.034,1.781
9616000,0.896,0.03,1.78
9620000,0.904,0.03,1.786
9628000,0.896,0.03,1.779
9632000,0.892,0.025,1.785
9636000,0.898,0.035,1.777
9640000,0.897,0.03,1.779
9644000,0.904,0.04,1.788
9648000,0.901,0.041,1.778
9652000,0.906,0.031,1.783
9660000,0.89,0.031,1.79
9664000,0.889,0.038,1.791
9668000,0.9,0.026,1.778
9672000,0.891,0.034,1.787
9680000,0.892,0.033,1.785
9688000,0.897,0.031,1.79
9696000,0.898,0.027,1.773
9700000,0.899,0.026,1.791
9708000,0.894,0.038,1.785
9712000,0.895,0.035,1.787
9716000,0.898,0.028,1.796
9724000,0.895,0.034,1.776
9728000,0.901,0.035,1.782
9736000,0.894,0.034,1.798
9744000,0.902,0.027,1.782
9748000,0.889,0.037,1.785
9752000,0.907,0.039,1.783
9756000,0.901,0.036,1.787
9764000,0.893,0.03,1.793
9768000,0.906,0.035,1.786
9772000,0.897,0.039,1.784
9776000,0.89,0.035,1.791
9780000,0.902,0.031,1.783
9784000,0.893,0.034,1.788
9788000,0.895,0.04,1.782
9792000,0.895,0.037,1.775
9796000,0.905,0.026,1.788
9800000,0.903,0.031,1.785
9804000,0.903,0.031,1.781
9812000,0.896,0.034,1.778
9816000,0.888,0.04,1.788
9820000,0.892,0.03,1.784
9824000,0.896,0.039,1.782
9828000,0.901,0.036,1.791
9832000,0.896,0.027,1.778
9836000,0.903,0.032,1.778
9844000,0.894,0.039,1.782
9848000,0.889,0.042,1.793
9856000,0.898,0.029,1.787
9864000,0.893,0.034,1.791
9868000,0.894,0.035,1.781
9872000,0.899,0.036,1.787
9876000,0.9,0.033,1.79
9880000,0.887,0.027,1.79
9884000,0.898,0.038,1.795
9888000,0.897,0.034,1.788
9892000,0.896,0.036,1.782
9896000,0.905,0.035,1.789
9904000,0.898,0.038,1.776
9908000,0.901,0.034,1.785
9916000,0.9,0.031,1.789
9920000,0.895,0.025,1.793
9928000,0.9,0.037,1.78
9932000,0.898,0.044,1.783
9940000,0.903,0.036,1.786
9948000,0.895,0.029,1.795
9952000,0.896,0.038,1.787
9960000,0.902,0.031,1.787
9964000,0.894,0.035,1.783
9968000,0.891,0.034,1.782
9972000,0.902,0.042,1.787
9980000,0.894,0.031,1.792
9984000,0.895,0.026,1.79
9988000,0.893,0.034,1.786
9992000,0.907,0.033,1.788
9996000,0.895,0.032,1.783
10000000,0.891,0.027,1.79
10004000,0.905,0.037,1.782
10012000,0.891,0.032,1.784
10016000,0.898,0.038,1.786
10020000,0.892,0.039,1.799
10024000,0.894,0.032,1.787
10028000,0.889,0.028,1.792
10032000,0.905,0.023,1.789
10036000,0.901,0.033,1.785
10040000,0.901,0.035,1.783
10044000,0.893,0.03,1.782
10052000,0.899,0.037,1.781
10056000,0.891,0.039,1.79
10060000,0.889,0.032,1.785
10068000,0.902,0.03,1.789
10072000,0.898,0.036,1.789
10076000,0.887,0.036,1.793
10080000,0.889,0.033,1.785
10084000,0.9,0.03,1.797
10088000,0.904,0.04,1.786
10092000,0.902,0.033,1.787
10096000,0.892,0.027,1.789
10100000,0.898,0.035,1.787
10104000,0.893,0.029,1.795
10108000,0.895,0.047,1.787
10112000,0.896,0.04,1.786
10116000,0.895,0.036,1.779
10120000,0.893,0.031,1.788
10128000,0.902,0.031,1.79
10132000,0.897,0.026,1.795
10140000,0.906,0.035,1.774
10148000,0.896,0.033,1.78
10152000,0.898,0.03,1.78
10156000,0.899,0.032,1.794
10160000,0.896,0.027,1.786
10164000,0.897,0.039,1.789
10172000,0.897,0.04,1.788
10176000,0.895,0.026,1.779
10180000,0.895,0.036,1.787
10184000,0.897,0.025,1.788
10192000,0.9,0.036,1.776
10196000,0.899,0.039,1.789
10200000,0.896,0.031,1.784
10208000,0.905,0.034,1.787
10212000,0.898,0.039,1.787
10220000,0.898,0.038,1.79
10228000,0.896,0.03,1.786
10232000,0.9,0.039,1.79
10236000,0.896,0.038,1.787
10240000,0.888,0.04,1.782
10244000,0.897,0.034,1.79
10248000,0.889,0.03,1.785
10252000,0.894,0.031,1.784
10256000,0.897,0.025,1.786
10260000,0.905,0.033,1.786
10264000,0.898,0.036,1.781
10272000,0.901,0.022,1.782
10276000,0.893,0.037,1.78
10280000,0.898,0.025,1.784
10284000,0.901,0.03,1.785
10288000,0.897,0.033,1.782
10292000,0.894,0.038,1.785
10300000,0.901,0.034,1.786
10304000,0.888,0.025,1.791
10312000,0.896,0.033,1.783
10316000,0.903,0.032,1.781
10320000,0.902,0.037,1.785
10328000,0.894,0.034,1.777
10332000,0.901,0.038,1.782
10336000,0.896,0.031,1.78
10340000,0.898,0.038,1.778
10344000,0.894,0.027,1.78
10352000,0.902,0.039,1.789
10360000,0.9,0.038,1.795
10364000,0.896,0.033,1.789
10368000,0.885,0.03,1.797
10372000,0.902,0.034,1.787
10376000,0.901,0.034,1.785
10380000,0.901,0.042,1.785
10388000,0.885,0.036,1.787
10392000,0.901,0.037,1.793
10400000,0.894,0.024,1.789
10404000,0.903,0.035,1.792
10408000,0.903,0.03,1.782
10412000,0.894,0.037,1.788
10416000,0.896,0.032,1.792
10420000,0.892,0.035,1.79
10424000,0.898,0.038,1.791
10428000,0.899,0.026,1.789
10436000,0.896,0.04,1.787
10444000,0.896,0.037,1.791
10448000,0.894,0.036,1.78
10452000,0.895,0.036,1.789
10456000,0.894,0.038,1.787
10460000,0.89,0.03,1.786
10464000,0.899,0.027,1.778
10468000,0.901,0.039,1.793
10472000,0.903,0.029,1.784
10480000,0.884,0.028,1.79
10488000,0.901,0.032,1.792
10492000,0.899,0.025,1.787
10496000,0.894,0.03,1.785
10500000,0.886,0.031,1.8
10504000,0.901,0.027,1.791
10508000,0.901,0.034,1.79
10512000,0.9,0.041,1.784
10520000,0.899,0.028,1.789
10524000,0.898,0.037,1.792
10528000,0.899,0.037,1.78
10532000,0.904,0.039,1.789
10536000,0.9,0.03,1.787
10540000,0.901,0.031,1.796
10548000,0.904,0.03,1.786
10552000,0.904,0.035,1.793
10556000,0.891,0.037,1.79
10560000,0.899,0.029,1.794
10564000,0.907,0.033,1.786
10568000,0.895,0.033,1.791
10572000,0.9,0.03,1.78
10580000,0.894,0.031,1.778
10584000,0.892,0.039,1.788
10588000,0.882,0.033,1.785
10596000,0.886,0.034,1.78
10604000,0.9,0.042,1.773
10612000,0.885,0.038,1.788
10616000,0.889,0.032,1.79
10624000,0.893,0.036,1.789
10628000,0.898,0.021,1.788
10632000,0.89,0.026,1.782
10636000,0.89,0.025,1.781
10640000,0.905,0.032,1.788
10644000,0.901,0.032,1.782
10652000,0.899,0.034,1.786
10656000,0.894,0.036,1.788
10660000,0.89,0.028,1.778
10664000,0.894,0.037,1.788
10668000,0.897,0.029,1.783
10672000,0.904,0.027,1.791
10676000,0.899,0.034,1.784
10684000,0.903,0.037,1.792
10692000,0.893,0.027,1.787
10696000,0.9,0.032,1.786
10700000,0.894,0.032,1.788
10708000,0.894,0.037,1.783
10716000,0.906,0.03,1.788
10720000,0.903,0.034,1.784
10724000,0.902,0.036,1.782
10732000,0.896,0.038,1.792
10736000,0.902,0.024,1.793
10740000,0.895,0.03,1.783
10748000,0.905,0.036,1.788
10752000,0.889,0.025,1.784
10756000,0.887,0.03,1.786
10764000,0.897,0.034,1.792
10768000,0.895,0.039,1.8
10772000,0.899,0.035,1.79
10780000,0.898,0.027,1.796
10784000,0.892,0.041,1.786
10792000,0.898,0.029,1.78
10796000,0.902,0.037,1.787
10804000,0.898,0.038,1.786
10808000,0.897,0.039,1.782
10812000,0.9,0.031,1.79
10816000,0.9,0.025,1.786
10820000,0.897,0.039,1.79
10824000,0.893,0.041,1.793
10828000,0.902,0.034,1.794
10832000,0.901,0.032,1.791
10836000,0.903,0.029,1.786
10840000,0.898,0.041,1.788
10844000,0.896,0.038,1.792
10848000,0.894,0.024,1.784
10852000,0.893,0.029,1.784
10860000,0.891,0.036,1.784
10868000,0.893,0.038,1.788
10872000,0.895,0.027,1.791
10876000,0.889,0.036,1.79
10880000,0.89,0.03,1.792
10884000,0.905,0.033,1.792
10892000,0.895,0.037,1.792
10896000,0.897,0.035,1.778
10904000,0.899,0.027,1.785
10908000,0.893,0.028,1.784
10916000,0.9,0.026,1.793
10920000,0.896,0.036,1.785
10928000,0.894,0.025,1.788
10932000,0.891,0.034,1.779
10936000,0.894,0.028,1.791
10940000,0.891,0.03,1.783
10944000,0.891,0.035,1.781
10948000,0.898,0.037,1.786
10952000,0.889,0.035,1.773
10956000,0.907,0.044,1.788
10960000,0.914,0.037,1.783
10968000,0.895,0.029,1.785
10972000,0.897,0.029,1.778
10976000,0.9,0.04,1.792
10980000,0.899,0.029,1.787
10984000,0.894,0.035,1.786
10992000,0.898,0.036,1.79
10996000,0.892,0.027,1.789
11000000,0.894,0.03,1.773
11004000,0.906,0.036,1.788
11008000,0.891,0.035,1.795
11016000,0.894,0.034,1.793
11020000,0.894,0.04,1.783
11028000,0.903,0.031,1.782
11032000,0.901,0.033,1.786
11036000,0.893,0.029,1.79
11040000,0.893,0.028,1.787
11048000,0.893,0.033,1.792
11052000,0.902,0.035,1.785
11060000,0.889,0.032,1.784
11064000,0.892,0.029,1.784
11068000,0.903,0.038,1.783
11072000,0.898,0.026,1.785
11080000,0.89,0.042,1.789
11088000,0.898,0.042,1.79
11092000,0.896,0.039,1.789
11100000,0.891,0.03,1.783
11104000,0.902,0.029,1.788
11108000,0.891,0.03,1.796
11116000,0.895,0.034,1.79
11120000,0.905,0.021,1.785
11128000,0.891,0.035,1.797
11136000,0.901,0.028,1.785
11140000,0.907,0.031,1.777
11144000,0.904,0.031,1.783
11148000,0.902,0.035,1.78
11156000,0.893,0.033,1.785
11160000,0.902,0.027,1.785
11168000,0.892,0.03,1.793
11172000,0.89,0.035,1.793
11176000,0.904,0.031,1.791
11180000,0.899,0.03,1.785
11184000,0.898,0.024,1.776
11188000,0.902,0.025,1.786
11192000,0.897,0.044,1.79
11196000,0.888,0.031,1.79
11200000,0.895,0.033,1.79
11204000,0.89,0.038,1.787
11208000,0.899,0.033,1.796
11212000,0.895,0.035,1.799
11216000,0.899,0.027,1.778
11220000,0.898,0.026,1.779
11228000,0.896,0.032,1.792
11232000,0.892,0.037,1.789
11236000,0.9,0.041,1.787
11240000,0.903,0.026,1.782
11244000,0.893,0.041,1.784
11248000,0.899,0.028,1.794
11252000,0.904,0.021,1.782
11256000,0.9,0.039,1.792
11260000,0.893,0.021,1.798
11264000,0.891,0.032,1.785
11268000,0.894,0.029,1.787
11272000,0.902,0.036,1.778
11276000,0.896,0.03,1.778
11280000,0.887,0.031,1.79
11284000,0.896,0.038,1.776
11288000,0.89,0.03,1.789
11292000,0.904,0.032,1.782
11300000,0.89,0.04,1.785
11304000,0.905,0.037,1.787
11312000,0.906,0.025,1.79
11316000,0.896,0.027,1.784
11320000,0.901,0.043,1.781
11324000,0.899,0.037,1.786
11328000,0.901,0.024,1.784
11332000,0.895,0.03,1.786
11340000,0.888,0.032,1.787
11344000,0.903,0.035,1.786
11348000,0.895,0.032,1.784
11352000,0.894,0.035,1.785
11356000,0.903,0.03,1.788
11364000,0.891,0.038,1.792
11368000,0.895,0.033,1.786
11372000,0.897,0.025,1.798
11376000,0.898,0.034,1.786
11384000,0.896,0.031,1.789
11388000,0.898,0.025,1.788
11392000,0.899,0.032,1.785
11400000,0.904,0.029,1.78
11404000,0.907,0.035,1.781
11408000,0.897,0.043,1.795
11412000,0.898,0.042,1.785
11416000,0.889,0.037,1.785
11420000,0.897,0.036,1.789
11424000,0.907,0.048,1.787
11432000,0.896,0.03,1.785
11436000,0.893,0.029,1.796
11440000,0.894,0.037,1.79
11444000,0.889,0.032,1.787
11448000,0.896,0.037,1.796
11452000,0.891,0.036,1.783
11460000,0.896,0.036,1.789
11464000,0.893,0.028,1.786
11468000,0.897,0.033,1.787
11472000,0.891,0.03,1.782
11480000,0.897,0.036,1.781
11488000,0.893,0.032,1.786
11492000,0.896,0.033,1.786
11496000,0.898,0.037,1.782
11500000,0.9,0.034,1.788
11508000,0.893,0.028,1.789
11516000,0.887,0.029,1.787
11524000,0.895,0.026,1.783
11528000,0.896,0.037,1.787
11532000,0.891,0.031,1.781
11536000,0.895,0.02,1.787
11544000,0.896,0.033,1.785
11548000,0.89,0.028,1.783
11552000,0.892,0.029,1.79
11556000,0.896,0.038,1.784
11560000,0.905,0.034,1.789
11564000,0.893,0.041,1.785
11568000,0.898,0.035,1.788
11572000,0.892,0.025,1.777
11576000,0.893,0.023,1.784
11580000,0.89,0.036,1.785
11588000,0.903,0.04,1.789
11592000,0.907,0.047,1.794
11596000,0.896,0.033,1.782
11604000,0.898,0.027,1.787
11608000,0.888,0.03,1.792
11612000,0.896,0.037,1.784
11616000,0.899,0.029,1.779
11620000,0.908,0.035,1.78
11624000,0.905,0.037,1.786
11632000,0.891,0.031,1.782
11636000,0.9,0.03,1.79
11640000,0.901,0.02,1.79
11648000,0.897,0.023,1.789
11652000,0.897,0.032,1.785
11656000,0.898,0.037,1.789
11660000,0.895,0.035,1.785
11668000,0.902,0.033,1.782
11676000,0.885,0.027,1.787
11680000,0.9,0.03,1.794
11688000,0.885,0.035,1.784
11696000,0.895,0.034,1.785
11704000,0.89,0.025,1.786
11708000,0.893,0.041,1.785
11716000,0.897,0.028,1.787
11720000,0.898,0.033,1.785
11724000,0.9,0.032,1.788
11728000,0.891,0.039,1.791
11732000,0.895,0.037,1.787
11736000,0.898,0.029,1.784
11740000,0.902,0.032,1.787
11744000,0.904,0.032,1.777
11748000,0.894,0.037,1.786
11752000,0.894,0.037,1.789
11756000,0.9,0.036,1.8
11760000,0.9,0.041,1.781
11764000,0.895,0.037,1.78
11768000,0.904,0.034,1.784
11772000,0.893,0.042,1.788
11776000,0.899,0.03,1.791
11780000,0.9,0.026,1.782
11784000,0.898,0.03,1.773
11788000,0.896,0.03,1.785
11792000,0.889,0.032,1.785
11796000,0.899,0.035,1.786
11800000,0.893,0.033,1.79
11804000,0.899,0.035,1.78
11808000,0.886,0.03,1.786
11812000,0.889,0.035,1.777
11816000,0.901,0.029,1.781
11820000,0.896,0.027,1.784
11828000,0.891,0.034,1.787
11836000,0.897,0.037,1.78
11840000,0.896,0.032,1.787
11844000,0.902,0.034,1.78
11848000,0.899,0.02,1.789
11852000,0.902,0.038,1.787
11860000,0.901,0.03,1.784
11868000,0.899,0.037,1.779
11872000,0.908,0.035,1.775
11880000,0.901,0.034,1.787
11884000,0.896,0.034,1.782
11888000,0.893,0.037,1.79
11896000,0.896,0.037,1.78
11900000,0.896,0.04,1.779
11904000,0.898,0.036,1.775
11912000,0.891,0.036,1.781
11920000,0.902,0.026,1.793
