timestamp,heartbeat_time,data_rate,rate_multiplier,rate_rx,rate_tx,rate_txerr,remote_system_id,remote_component_id,remote_type,remote_system_status,type,mode,flow_control,forwarding,mavlink_v2,ftp,streams
1000000,0,4e+06,1.0,0.0,0.0,0.0,0,0,0,0,0,0,0,0,0,1,37
1248000,244000,4e+06,1.0,0.0,0.0,0.0,190,191,6,0,0,2,0,0,1,1,43
1256000,1252000,4e+06,1.0,0.0,0.0,0.0,190,191,6,0,0,2,0,0,1,1,43
2000000,0,4e+06,1.0,0.0,0.0,0.0,0,0,0,0,0,0,0,0,0,1,37
2256000,2252000,4e+06,1.0,2.38048,719.813,0.0,190,191,6,0,0,2,0,0,1,1,43
3000000,0,4e+06,1.0,0.0,395.686,0.0,0,0,0,0,0,0,0,0,0,1,37
3256000,2252000,4e+06,1.0,0.0209163,23.8237,0.0,190,191,6,0,0,2,0,0,1,1,43
4000000,0,4e+06,1.0,0.0,9.72112,0.0,0,0,0,0,0,0,0,0,0,1,37
4256000,3256000,4e+06,1.0,0.0209163,23.6414,0.0,190,191,6,0,0,2,0,0,1,1,43
5000000,0,4e+06,1.0,0.0,9.73705,0.0,0,0,0,0,0,0,0,0,0,1,37
5256000,4256000,4e+06,1.0,0.0209163,23.507,0.0,190,191,6,0,0,2,0,0,1,1,43
5264000,5260000,4e+06,1.0,0.0209163,23.507,0.0,190,191,6,0,0,2,0,0,1,1,43
6000000,0,4e+06,1.0,0.0,9.76095,0.0,0,0,0,0,0,0,0,0,0,1,37
6264000,6260000,4e+06,1.0,0.0209163,23.5827,0.0,190,191,6,0,0,2,0,0,1,1,43
7000000,0,4e+06,1.0,0.0,9.76593,0.0,0,0,0,0,0,0,0,0,0,1,37
7264000,6260000,4e+06,1.0,0.0209163,23.5827,0.0,190,191,6,0,0,2,0,0,1,1,43
8000000,0,4e+06,1.0,0.0,9.76593,0.0,0,0,0,0,0,0,0,0,0,1,37
8264000,7264000,4e+06,1.0,0.0209163,23.5488,0.0,190,191,6,0,0,2,0,0,1,1,43
9000000,0,4e+06,1.0,0.0,9.70119,0.0,0,0,0,0,0,0,0,0,0,1,37
9264000,8264000,4e+06,1.0,0.0209163,23.5528,0.0,190,191,6,0,0,2,0,0,1,1,43
9272000,9268000,4e+06,1.0,0.0209163,23.5528,0.0,190,191,6,0,0,2,0,0,1,1,43
10000000,0,4e+06,1.0,0.0,9.75697,0.0,0,0,0,0,0,0,0,0,0,1,37
10272000,10268000,4e+06,1.0,0.0209163,23.5488,0.0,190,191,6,0,0,2,0,0,1,1,43
11000000,0,4e+06,1.0,0.0,9.76295,0.0,0,0,0,0,0,0,0,0,0,1,37
11272000,10268000,4e+06,1.0,0.0209163,23.5827,0.0,190,191,6,0,0,2,0,0,1,1,43
12000000,0,4e+06,1.0,0.0,9.78586,0.0,0,0,0,0,0,0,0,0,0,1,37
12272000,11272000,4e+06,1.0,0.0209163,23.8237,0.0,190,191,6,0,0,2,0,0,1,1,43
13000000,0,4e+06,1.0,0.0,9.74602,0.0,0,0,0,0,0,0,0,0,0,1,37
13272000,12272000,4e+06,1.0,0.0209163,23.5488,0.0,190,191,6,0,0,2,0,0,1,1,43
14000000,0,4e+06,1.0,0.0,9.72112,0.0,0,0,0,0,0,0,0,0,0,1,37
14272000,13272000,4e+06,1.0,0.0209163,23.5528,0.0,190,191,6,0,0,2,0,0,1,1,43
15000000,0,4e+06,1.0,0.0,9.73705,0.0,0,0,0,0,0,0,0,0,0,1,37
15272000,14272000,4e+06,1.0,0.0209163,24.0926,0.0,190,191,6,0,0,2,0,0,1,1,43
15280000,15276000,4e+06,1.0,0.0209163,24.0926,0.0,190,191,6,0,0,2,0,0,1,1,43
16000000,0,4e+06,1.0,0.0,10.4064,0.0,0,0,0,0,0,0,0,0,0,1,37
16280000,16280000,4e+06,1.0,0.0209163,25.5259,0.0,190,191,6,0,0,2,0,0,1,1,43
17000000,0,4e+06,1.0,0.0,11.5588,0.0,0,0,0,0,0,0,0,0,0,1,37
17280000,16280000,4e+06,1.0,0.143426,25.8207,0.0,190,191,6,0,0,2,0,0,1,1,43
18000000,0,4e+06,1.0,0.0,10.7131,0.0,0,0,0,0,0,0,0,0,0,1,37
18280000,18276000,4e+06,1.0,0.0209163,25.9761,0.0,190,191,6,0,0,2,0,0,1,1,43
19000000,0,4e+06,1.0,0.0,9.72908,0.0,0,0,0,0,0,0,0,0,0,1,37
19280000,18276000,4e+06,1.0,0.0209163,26.8775,0.0,190,191,6,0,0,2,0,0,1,1,43
20000000,0,4e+06,1.0,0.0,14.3127,0.0,0,0,0,0,0,0,0,0,0,1,37
20280000,19280000,4e+06,1.0,0.0209163,26.9781,0.0,190,191,6,0,0,2,0,0,1,1,43
21000000,0,4e+06,1.0,0.0,14.7062,0.0,0,0,0,0,0,0,0,0,0,1,37
21280000,20280000,4e+06,1.0,0.0209163,26.8785,0.0,190,191,6,0,0,2,0,0,1,1,43
21288000,21284000,4e+06,1.0,0.0209163,26.8785,0.0,190,191,6,0,0,2,0,0,1,1,43
22000000,0,4e+06,1.0,0.0,14.6355,0.0,0,0,0,0,0,0,0,0,0,1,37
22288000,21284000,4e+06,1.0,0.0209163,26.8108,0.0,190,191,6,0,0,2,0,0,1,1,43
23000000,0,4e+06,1.0,0.0,14.5946,0.0,0,0,0,0,0,0,0,0,0,1,37
23288000,22288000,4e+06,1.0,0.0209163,26.8835,0.0,190,191,6,0,0,2,0,0,1,1,43
24000000,0,4e+06,1.0,0.0,14.5707,0.0,0,0,0,0,0,0,0,0,0,1,37
24288000,23288000,4e+06,1.0,0.0209163,26.7809,0.0,190,191,6,0,0,2,0,0,1,1,43
24292000,24292000,4e+06,1.0,0.0209163,26.7809,0.0,190,191,6,0,0,2,0,0,1,1,43
25000000,0,4e+06,1.0,0.0,14.5857,0.0,0,0,0,0,0,0,0,0,0,1,37
25292000,24292000,4e+06,1.0,0.0209163,26.8048,0.0,190,191,6,0,0,2,0,0,1,1,43
26000000,0,4e+06,1.0,0.0,14.7052,0.0,0,0,0,0,0,0,0,0,0,1,37
26292000,25292000,4e+06,1.0,0.0209163,26.9343,0.0,190,191,6,0,0,2,0,0,1,1,43
26300000,26296000,4e+06,1.0,0.0209163,26.9343,0.0,190,191,6,0,0,2,0,0,1,1,43
27000000,0,4e+06,1.0,0.0,14.6145,0.0,0,0,0,0,0,0,0,0,0,1,37
27300000,27296000,4e+06,1.0,0.0209163,26.9303,0.0,190,191,6,0,0,2,0,0,1,1,43
28000000,0,4e+06,1.0,0.0,14.6155,0.0,0,0,0,0,0,0,0,0,0,1,37
28300000,28296000,4e+06,1.0,0.0209163,27.0568,0.0,190,191,6,0,0,2,0,0,1,1,43
29000000,0,4e+06,1.0,0.0,14.5498,0.0,0,0,0,0,0,0,0,0,0,1,37
29300000,28296000,4e+06,1.0,0.0209163,26.9472,0.0,190,191,6,0,0,2,0,0,1,1,43
30000000,0,4e+06,1.0,0.0,14.6066,0.0,0,0,0,0,0,0,0,0,0,1,37
30300000,29300000,4e+06,1.0,0.0209163,26.737,0.0,190,191,6,0,0,2,0,0,1,1,43
31000000,0,4e+06,1.0,0.0,14.7062,0.0,0,0,0,0,0,0,0,0,0,1,37
31300000,30300000,4e+06,1.0,0.0209163,26.8785,0.0,190,191,6,0,0,2,0,0,1,1,43
32000000,0,4e+06,1.0,0.0,14.6355,0.0,0,0,0,0,0,0,0,0,0,1,37
32300000,31300000,4e+06,1.0,0.0209163,26.8546,0.0,190,191,6,0,0,2,0,0,1,1,43
33000000,0,4e+06,1.0,0.0,14.5946,0.0,0,0,0,0,0,0,0,0,0,1,37
33292000,33292000,4e+06,1.0,0.0209163,26.8835,0.0,190,191,6,0,0,2,0,0,1,1,43
34000000,0,4e+06,1.0,0.0,14.5707,0.0,0,0,0,0,0,0,0,0,0,1,37
34292000,33292000,4e+06,1.0,0.0209163,26.7809,0.0,190,191,6,0,0,2,0,0,1,1,43
35000000,0,4e+06,1.0,0.0,14.5857,0.0,0,0,0,0,0,0,0,0,0,1,37
35292000,34292000,4e+06,1.0,0.0209163,26.8446,0.0,190,191,6,0,0,2,0,0,1,1,43
35300000,35296000,4e+06,1.0,0.0209163,26.8446,0.0,190,191,6,0,0,2,0,0,1,1,43
36000000,0,4e+06,1.0,0.0,14.7052,0.0,0,0,0,0,0,0,0,0,0,1,37
36300000,36300000,4e+06,1.0,0.0209163,26.8108,0.0,190,191,6,0,0,2,0,0,1,1,43
37000000,0,4e+06,1.0,0.0,14.6145,0.0,0,0,0,0,0,0,0,0,0,1,37
37300000,37296000,4e+06,1.0,0.0209163,27.1195,0.0,190,191,6,0,0,2,0,0,1,1,43
38000000,0,4e+06,1.0,0.0,14.6155,0.0,0,0,0,0,0,0,0,0,0,1,37
38300000,37296000,4e+06,1.0,0.0209163,26.8157,0.0,190,191,6,0,0,2,0,0,1,1,43
39000000,0,4e+06,1.0,0.0,14.5498,0.0,0,0,0,0,0,0,0,0,0,1,37
39300000,38300000,4e+06,1.0,0.0209163,26.8486,0.0,190,191,6,0,0,2,0,0,1,1,43
39308000,39304000,4e+06,1.0,0.0209163,26.8486,0.0,190,191,6,0,0,2,0,0,1,1,43
40000000,0,4e+06,1.0,0.0,14.6066,0.0,0,0,0,0,0,0,0,0,0,1,37
40308000,39304000,4e+06,1.0,0.0209163,26.737,0.0,190,191,6,0,0,2,0,0,1,1,43
41000000,0,4e+06,1.0,0.0,14.7062,0.0,0,0,0,0,0,0,0,0,0,1,37
41308000,40308000,4e+06,1.0,0.0209163,26.9412,0.0,190,191,6,0,0,2,0,0,1,1,43
41316000,41312000,4e+06,1.0,0.0209163,26.9412,0.0,190,191,6,0,0,2,0,0,1,1,43
42000000,0,4e+06,1.0,0.0,14.6355,0.0,0,0,0,0,0,0,0,0,0,1,37
42316000,42312000,4e+06,1.0,0.0209163,26.8108,0.0,190,191,6,0,0,2,0,0,1,1,43
43000000,0,4e+06,1.0,0.0,14.5946,0.0,0,0,0,0,0,0,0,0,0,1,37
43316000,42312000,4e+06,1.0,0.0209163,26.9861,0.0,190,191,6,0,0,2,0,0,1,1,43
44000000,0,4e+06,1.0,0.0,14.5707,0.0,0,0,0,0,0,0,0,0,0,1,37
44316000,43316000,4e+06,1.0,0.0209163,26.7809,0.0,190,191,6,0,0,2,0,0,1,1,43
44324000,44320000,4e+06,1.0,0.0209163,26.7809,0.0,190,191,6,0,0,2,0,0,1,1,43
45000000,0,4e+06,1.0,0.0,14.5857,0.0,0,0,0,0,0,0,0,0,0,1,37
45324000,45320000,4e+06,1.0,0.0209163,27.0458,0.0,190,191,6,0,0,2,0,0,1,1,43
46000000,0,4e+06,1.0,0.0,14.7331,0.0,0,0,0,0,0,0,0,0,0,1,37
46324000,45320000,4e+06,1.0,0.0209163,26.8108,0.0,190,191,6,0,0,2,0,0,1,1,43
47000000,0,4e+06,1.0,0.0,14.6145,0.0,0,0,0,0,0,0,0,0,0,1,37
47324000,46324000,4e+06,1.0,0.129482,26.9004,0.0,190,191,6,0,0,2,0,0,1,1,43
48000000,0,4e+06,1.0,0.0,14.6265,0.0,0,0,0,0,0,0,0,0,0,1,37
48324000,46324000,4e+06,1.0,0.0,26.8157,0.0,190,191,6,0,0,2,0,0,1,1,43
49000000,0,4e+06,1.0,0.0,14.5498,0.0,0,0,0,0,0,0,0,0,0,1,37
49324000,46324000,4e+06,1.0,0.0,26.8486,0.0,190,191,6,0,0,2,0,0,1,1,43
50000000,0,4e+06,1.0,0.0,14.6066,0.0,0,0,0,0,0,0,0,0,0,1,37
50324000,46324000,4e+06,1.0,0.0438247,26.8307,0.0,190,191,6,0,0,2,0,0,1,1,43
50968000,50964000,4e+06,1.0,0.0438247,26.8307,0.0,190,191,6,0,0,2,0,0,1,1,43
51000000,0,4e+06,1.0,0.0,14.7171,0.0,0,0,0,0,0,0,0,0,0,1,37
51968000,50964000,4e+06,1.0,0.170319,27.2619,0.0,190,191,6,0,0,2,0,0,1,1,43
52000000,0,4e+06,1.0,0.0,14.6464,0.0,0,0,0,0,0,0,0,0,0,1,37
52968000,51968000,4e+06,1.0,0.0209163,26.8625,0.0,190,191,6,0,0,2,0,0,1,1,43
53000000,0,4e+06,1.0,0.0,14.5946,0.0,0,0,0,0,0,0,0,0,0,1,37
53968000,52968000,4e+06,1.0,0.453187,27.1464,0.0,190,191,6,0,0,2,0,0,1,1,43
53984000,53980000,4e+06,1.0,0.453187,27.1464,0.0,190,191,6,0,0,2,0,0,1,1,43
54000000,0,4e+06,1.0,0.0,14.5817,0.0,0,0,0,0,0,0,0,0,0,1,37
54984000,53980000,4e+06,1.0,1.31574,26.9034,0.0,190,191,6,0,0,2,0,0,1,1,43
54992000,54988000,4e+06,1.0,1.31574,26.9034,0.0,190,191,6,0,0,2,0,0,1,1,43
55000000,0,4e+06,1.0,0.0,14.5857,0.0,0,0,0,0,0,0,0,0,0,1,37
55992000,55988000,4e+06,1.0,1.31574,26.8247,0.0,190,191,6,0,0,2,0,0,1,1,43
56000000,0,4e+06,1.0,0.0,14.7052,0.0,0,0,0,0,0,0,0,0,0,1,37
56992000,56988000,4e+06,1.0,1.31574,26.7819,0.0,190,191,6,0,0,2,0,0,1,1,43
57000000,0,4e+06,1.0,0.0,14.6145,0.0,0,0,0,0,0,0,0,0,0,1,37
57992000,57988000,4e+06,1.0,1.31574,26.9542,0.0,190,191,6,0,0,2,0,0,1,1,43
58000000,0,4e+06,1.0,0.0,14.6155,0.0,0,0,0,0,0,0,0,0,0,1,37
58992000,57988000,4e+06,1.0,1.31574,26.8108,0.0,190,191,6,0,0,2,0,0,1,1,43
59000000,0,4e+06,1.0,0.0,14.5498,0.0,0,0,0,0,0,0,0,0,0,1,37
59992000,58992000,4e+06,1.0,1.38048,26.8297,0.0,190,191,6,0,0,2,0,0,1,1,43
60000000,0,4e+06,1.0,0.0,14.6066,0.0,0,0,0,0,0,0,0,0,0,1,37
60992000,59992000,4e+06,1.0,1.31574,26.8018,0.0,190,191,6,0,0,2,0,0,1,1,43
61000000,0,4e+06,1.0,0.0,14.7062,0.0,0,0,0,0,0,0,0,0,0,1,37
61992000,60992000,4e+06,1.0,1.31574,26.8914,0.0,190,191,6,0,0,2,0,0,1,1,43
62000000,0,4e+06,1.0,0.0,14.6355,0.0,0,0,0,0,0,0,0,0,0,1,37
62004000,62000000,4e+06,1.0,1.31574,26.8914,0.0,190,191,6,0,0,2,0,0,1,1,43
63000000,0,4e+06,1.0,0.0,14.5946,0.0,0,0,0,0,0,0,0,0,0,1,37
63004000,62000000,4e+06,1.0,1.31574,27.0558,0.0,190,191,6,0,0,2,0,0,1,1,43
63016000,63012000,4e+06,1.0,1.31574,27.0558,0.0,190,191,6,0,0,2,0,0,1,1,43
64000000,0,4e+06,1.0,0.0,14.5707,0.0,0,0,0,0,0,0,0,0,0,1,37
64012000,64008000,4e+06,1.0,1.31574,26.8874,0.0,190,191,6,0,0,2,0,0,1,1,43
65000000,0,4e+06,1.0,0.0,14.5857,0.0,0,0,0,0,0,0,0,0,0,1,37
65012000,64008000,4e+06,1.0,1.31574,26.8217,0.0,190,191,6,0,0,2,0,0,1,1,43
65020000,65016000,4e+06,1.0,1.31574,26.8217,0.0,190,191,6,0,0,2,0,0,1,1,43
66000000,0,4e+06,1.0,0.0,14.7052,0.0,0,0,0,0,0,0,0,0,0,1,37
66020000,65016000,4e+06,1.0,1.31574,26.7898,0.0,190,191,6,0,0,2,0,0,1,1,43
66032000,66028000,4e+06,1.0,1.31574,26.7898,0.0,190,191,6,0,0,2,0,0,1,1,43
67000000,0,4e+06,1.0,0.0,14.6145,0.0,0,0,0,0,0,0,0,0,0,1,37
67032000,67028000,4e+06,1.0,1.31574,26.8964,0.0,190,191,6,0,0,2,0,0,1,1,43
68000000,0,4e+06,1.0,0.0,14.6155,0.0,0,0,0,0,0,0,0,0,0,1,37
68032000,68028000,4e+06,1.0,1.31574,26.8725,0.0,190,191,6,0,0,2,0,0,1,1,43
69000000,0,4e+06,1.0,0.0,14.5498,0.0,0,0,0,0,0,0,0,0,0,1,37
69032000,69028000,4e+06,1.0,1.31574,26.9183,0.0,190,191,6,0,0,2,0,0,1,1,43
70000000,0,4e+06,1.0,0.0,14.6066,0.0,0,0,0,0,0,0,0,0,0,1,37
70032000,69028000,4e+06,1.0,1.31574,26.8127,0.0,190,191,6,0,0,2,0,0,1,1,43
70044000,70040000,4e+06,1.0,1.31574,26.8127,0.0,190,191,6,0,0,2,0,0,1,1,43
71000000,0,4e+06,1.0,0.0,14.7062,0.0,0,0,0,0,0,0,0,0,0,1,37
71044000,71040000,4e+06,1.0,1.31574,26.997,0.0,190,191,6,0,0,2,0,0,1,1,43
72000000,0,4e+06,1.0,0.0,14.6355,0.0,0,0,0,0,0,0,0,0,0,1,37
72044000,72040000,4e+06,1.0,1.31574,26.8815,0.0,190,191,6,0,0,2,0,0,1,1,43
73000000,0,4e+06,1.0,0.0,14.5946,0.0,0,0,0,0,0,0,0,0,0,1,37
73044000,72040000,4e+06,1.0,1.38048,26.7799,0.0,190,191,6,0,0,2,0,0,1,1,43
73056000,73052000,4e+06,1.0,1.38048,26.7799,0.0,190,191,6,0,0,2,0,0,1,1,43
74000000,0,4e+06,1.0,0.0,14.5707,0.0,0,0,0,0,0,0,0,0,0,1,37
74056000,74052000,4e+06,1.0,1.31574,26.8984,0.0,190,191,6,0,0,2,0,0,1,1,43
75000000,0,4e+06,1.0,0.0,14.5857,0.0,0,0,0,0,0,0,0,0,0,1,37
75056000,75052000,4e+06,1.0,1.31574,26.7719,0.0,190,191,6,0,0,2,0,0,1,1,43
76000000,0,4e+06,1.0,0.0,14.7052,0.0,0,0,0,0,0,0,0,0,0,1,37
76056000,76052000,4e+06,1.0,1.31574,26.749,0.0,190,191,6,0,0,2,0,0,1,1,43
77000000,0,4e+06,1.0,0.0,14.6145,0.0,0,0,0,0,0,0,0,0,0,1,37
77056000,77052000,4e+06,1.0,1.31574,26.9412,0.0,190,191,6,0,0,2,0,0,1,1,43
78000000,0,4e+06,1.0,0.0,14.6155,0.0,0,0,0,0,0,0,0,0,0,1,37
78056000,78052000,4e+06,1.0,1.31574,26.9372,0.0,190,191,6,0,0,2,0,0,1,1,43
79000000,0,4e+06,1.0,0.0,14.5498,0.0,0,0,0,0,0,0,0,0,0,1,37
79056000,78052000,4e+06,1.0,1.31574,27.0707,0.0,190,191,6,0,0,2,0,0,1,1,43
80000000,0,4e+06,1.0,0.0,14.6066,0.0,0,0,0,0,0,0,0,0,0,1,37
80056000,80052000,4e+06,1.0,1.31574,26.9223,0.0,190,191,6,0,0,2,0,0,1,1,43
81000000,0,4e+06,1.0,0.0,14.7062,0.0,0,0,0,0,0,0,0,0,0,1,37
81056000,81052000,4e+06,1.0,1.31574,26.7729,0.0,190,191,6,0,0,2,0,0,1,1,43
82000000,0,4e+06,1.0,0.0,14.6355,0.0,0,0,0,0,0,0,0,0,0,1,37
82056000,82052000,4e+06,1.0,1.31574,26.8904,0.0,190,191,6,0,0,2,0,0,1,1,43
83000000,0,4e+06,1.0,0.0,14.5946,0.0,0,0,0,0,0,0,0,0,0,1,37
83056000,82052000,4e+06,1.0,1.31574,26.8715,0.0,190,191,6,0,0,2,0,0,1,1,43
84000000,0,4e+06,1.0,0.0,14.5707,0.0,0,0,0,0,0,0,0,0,0,1,37
84056000,83056000,4e+06,1.0,1.38048,26.8974,0.0,190,191,6,0,0,2,0,0,1,1,43
84064000,84060000,4e+06,1.0,1.38048,26.8974,0.0,190,191,6,0,0,2,0,0,1,1,43
85000000,0,4e+06,1.0,0.0,14.5269,0.0,0,0,0,0,0,0,0,0,0,1,37
85064000,84060000,4e+06,1.0,1.31574,26.5966,0.0,190,191,6,0,0,2,0,0,1,1,43
85072000,85068000,4e+06,1.0,1.31574,26.5966,0.0,190,191,6,0,0,2,0,0,1,1,43
86000000,0,4e+06,1.0,0.0,14.6464,0.0,0,0,0,0,0,0,0,0,0,1,37
86072000,85068000,4e+06,1.0,1.31574,26.256,0.0,190,191,6,0,0,2,0,0,1,1,43
86080000,86076000,4e+06,1.0,1.31574,26.256,0.0,190,191,6,0,0,2,0,0,1,1,43
87000000,0,4e+06,1.0,0.0,14.497,0.0,0,0,0,0,0,0,0,0,0,1,37
87080000,87076000,4e+06,1.0,1.31574,26.2341,0.0,190,191,6,0,0,2,0,0,1,1,43
88000000,0,4e+06,1.0,0.0,14.6265,0.0,0,0,0,0,0,0,0,0,0,1,37
88080000,87076000,4e+06,1.0,1.31574,26.5428,0.0,190,191,6,0,0,2,0,0,1,1,43
89000000,0,4e+06,1.0,0.0,14.3625,0.0,0,0,0,0,0,0,0,0,0,1,37
89080000,88080000,4e+06,1.0,1.31574,26.2112,0.0,190,191,6,0,0,2,0,0,1,1,43
90000000,0,4e+06,1.0,0.0,14.6175,0.0,0,0,0,0,0,0,0,0,0,1,37
90080000,89080000,4e+06,1.0,1.31574,26.2062,0.0,190,191,6,0,0,2,0,0,1,1,43
91000000,0,4e+06,1.0,0.0,14.5189,0.0,0,0,0,0,0,0,0,0,0,1,37
91080000,90080000,4e+06,1.0,1.31574,26.1086,0.0,190,191,6,0,0,2,0,0,1,1,43
91092000,91088000,4e+06,1.0,1.31574,26.1086,0.0,190,191,6,0,0,2,0,0,1,1,43
92000000,0,4e+06,1.0,0.0,14.6863,0.0,0,0,0,0,0,0,0,0,0,1,37
92092000,92088000,4e+06,1.0,1.38048,26.256,0.0,190,191,6,0,0,2,0,0,1,1,43
93000000,0,4e+06,1.0,0.0,14.4074,0.0,0,0,0,0,0,0,0,0,0,1,37
93092000,93088000,4e+06,1.0,1.31574,26.1713,0.0,190,191,6,0,0,2,0,0,1,1,43
94000000,0,4e+06,1.0,0.0,14.5817,0.0,0,0,0,0,0,0,0,0,0,1,37
94092000,93088000,4e+06,1.0,1.31574,26.3446,0.0,190,191,6,0,0,2,0,0,1,1,43
95000000,0,4e+06,1.0,0.0,14.3984,0.0,0,0,0,0,0,0,0,0,0,1,37
95092000,95088000,4e+06,1.0,1.31574,26.1444,0.0,190,191,6,0,0,2,0,0,1,1,43
96000000,0,4e+06,1.0,0.0,14.7161,0.0,0,0,0,0,0,0,0,0,0,1,37
96092000,95088000,4e+06,1.0,1.31574,26.4193,0.0,190,191,6,0,0,2,0,0,1,1,43
96100000,96096000,4e+06,1.0,1.31574,26.4193,0.0,190,191,6,0,0,2,0,0,1,1,43
97000000,0,4e+06,1.0,0.0,14.4273,0.0,0,0,0,0,0,0,0,0,0,1,37
97100000,96096000,4e+06,1.0,1.31574,26.1932,0.0,190,191,6,0,0,2,0,0,1,1,43
97112000,97108000,4e+06,1.0,1.31574,26.1932,0.0,190,191,6,0,0,2,0,0,1,1,43
98000000,0,4e+06,1.0,0.0,14.6265,0.0,0,0,0,0,0,0,0,0,0,1,37
98112000,98108000,4e+06,1.0,1.31574,26.25,0.0,190,191,6,0,0,2,0,0,1,1,43
99000000,0,4e+06,1.0,0.0,14.3625,0.0,0,0,0,0,0,0,0,0,0,1,37
99112000,99108000,4e+06,1.0,1.31574,26.1823,0.0,190,191,6,0,0,2,0,0,1,1,43
100000000,0,4e+06,1.0,0.0,14.6175,0.0,0,0,0,0,0,0,0,0,0,1,37
100112000,100108000,4e+06,1.0,1.31574,26.2201,0.0,190,191,6,0,0,2,0,0,1,1,43
101000000,0,4e+06,1.0,0.0,14.5189,0.0,0,0,0,0,0,0,0,0,0,1,37
101112000,101108000,4e+06,1.0,1.31574,26.0976,0.0,190,191,6,0,0,2,0,0,1,1,43
102000000,0,4e+06,1.0,0.0,14.6464,0.0,0,0,0,0,0,0,0,0,0,1,37
102112000,101108000,4e+06,1.0,1.31574,26.5159,0.0,190,191,6,0,0,2,0,0,1,1,43
103000000,0,4e+06,1.0,0.0,14.4074,0.0,0,0,0,0,0,0,0,0,0,1,37
103112000,102112000,4e+06,1.0,1.38048,26.2839,0.0,190,191,6,0,0,2,0,0,1,1,43
104000000,0,4e+06,1.0,0.0,14.5817,0.0,0,0,0,0,0,0,0,0,0,1,37
104112000,103112000,4e+06,1.0,1.31574,26.5488,0.0,190,191,6,0,0,2,0,0,1,1,43
104124000,104120000,4e+06,1.0,1.31574,26.5488,0.0,190,191,6,0,0,2,0,0,1,1,43
105000000,0,4e+06,1.0,0.0,14.3984,0.0,0,0,0,0,0,0,0,0,0,1,37
105124000,105120000,4e+06,1.0,1.31574,26.3028,0.0,190,191,6,0,0,2,0,0,1,1,43
106000000,0,4e+06,1.0,0.0,14.7161,0.0,0,0,0,0,0,0,0,0,0,1,37
106124000,105120000,4e+06,1.0,1.31574,26.2281,0.0,190,191,6,0,0,2,0,0,1,1,43
107000000,0,4e+06,1.0,0.0,14.4273,0.0,0,0,0,0,0,0,0,0,0,1,37
107124000,106124000,4e+06,1.0,1.31574,26.2341,0.0,190,191,6,0,0,2,0,0,1,1,43
108000000,0,4e+06,1.0,0.0,14.6265,0.0,0,0,0,0,0,0,0,0,0,1,37
108124000,107124000,4e+06,1.0,1.31574,26.3456,0.0,190,191,6,0,0,2,0,0,1,1,43
109000000,0,4e+06,1.0,0.0,14.3904,0.0,0,0,0,0,0,0,0,0,0,1,37
109124000,108124000,4e+06,1.0,1.31574,26.2241,0.0,190,191,6,0,0,2,0,0,1,1,43
110000000,0,4e+06,1.0,0.0,14.6175,0.0,0,0,0,0,0,0,0,0,0,1,37
110124000,110124000,4e+06,1.0,1.31574,26.3118,0.0,190,191,6,0,0,2,0,0,1,1,43
111000000,0,4e+06,1.0,0.0,14.5189,0.0,0,0,0,0,0,0,0,0,0,1,37
111124000,110124000,4e+06,1.0,1.31574,26.1604,0.0,190,191,6,0,0,2,0,0,1,1,43
112000000,0,4e+06,1.0,0.0,14.6464,0.0,0,0,0,0,0,0,0,0,0,1,37
112124000,111124000,4e+06,1.0,1.31574,26.5408,0.0,190,191,6,0,0,2,0,0,1,1,43
113000000,0,4e+06,1.0,0.0,14.4074,0.0,0,0,0,0,0,0,0,0,0,1,37
113124000,112124000,4e+06,1.0,1.38048,26.2191,0.0,190,191,6,0,0,2,0,0,1,1,43
114000000,0,4e+06,1.0,0.0,14.5817,0.0,0,0,0,0,0,0,0,0,0,1,37
114124000,113124000,4e+06,1.0,1.31574,26.3078,0.0,190,191,6,0,0,2,0,0,1,1,43
115000000,0,4e+06,1.0,0.0,14.3984,0.0,0,0,0,0,0,0,0,0,0,1,37
115124000,114124000,4e+06,1.0,1.31574,26.2042,0.0,190,191,6,0,0,2,0,0,1,1,43
116000000,0,4e+06,1.0,0.0,14.7161,0.0,0,0,0,0,0,0,0,0,0,1,37
116124000,115124000,4e+06,1.0,1.31574,26.2281,0.0,190,191,6,0,0,2,0,0,1,1,43
117000000,0,4e+06,1.0,0.0,14.4861,0.0,0,0,0,0,0,0,0,0,0,1,37
117124000,116124000,4e+06,1.0,1.31574,26.3596,0.0,190,191,6,0,0,2,0,0,1,1,43
117132000,117128000,4e+06,1.0,1.31574,26.3596,0.0,190,191,6,0,0,2,0,0,1,1,43
118000000,0,4e+06,1.0,0.0,14.6853,0.0,0,0,0,0,0,0,0,0,0,1,37
118132000,117128000,4e+06,1.0,1.31574,26.9273,0.0,190,191,6,0,0,2,0,0,1,1,43
119000000,0,4e+06,1.0,0.0,14.4801,0.0,0,0,0,0,0,0,0,0,0,1,37
119132000,118132000,4e+06,1.0,1.31574,26.8466,0.0,190,191,6,0,0,2,0,0,1,1,43
120000000,0,4e+06,1.0,0.0,14.6175,0.0,0,0,0,0,0,0,0,0,0,1,37
120132000,119132000,4e+06,1.0,1.31574,26.2689,0.0,190,191,6,0,0,2,0,0,1,1,43
121000000,0,4e+06,1.0,0.0,14.4602,0.0,0,0,0,0,0,0,0,0,0,1,37
121132000,120132000,4e+06,1.0,1.31574,26.4014,0.0,190,191,6,0,0,2,0,0,1,1,43
122000000,0,4e+06,1.0,0.0,14.7052,0.0,0,0,0,0,0,0,0,0,0,1,37
122132000,121132000,4e+06,1.0,1.31574,26.3018,0.0,190,191,6,0,0,2,0,0,1,1,43
123000000,0,4e+06,1.0,0.0,14.4074,0.0,0,0,0,0,0,0,0,0,0,1,37
123132000,122132000,4e+06,1.0,1.31574,26.2341,0.0,190,191,6,0,0,2,0,0,1,1,43
123140000,123136000,4e+06,1.0,1.31574,26.2341,0.0,190,191,6,0,0,2,0,0,1,1,43
124000000,0,4e+06,1.0,0.0,14.5817,0.0,0,0,0,0,0,0,0,0,0,1,37
124140000,123136000,4e+06,1.0,1.38048,26.3078,0.0,190,191,6,0,0,2,0,0,1,1,43
124148000,124144000,4e+06,1.0,1.38048,26.3078,0.0,190,191,6,0,0,2,0,0,1,1,43
125000000,0,4e+06,1.0,0.0,14.3984,0.0,0,0,0,0,0,0,0,0,0,1,37
125148000,125144000,4e+06,1.0,1.31574,26.2042,0.0,190,191,6,0,0,2,0,0,1,1,43
126000000,0,4e+06,1.0,0.0,14.7161,0.0,0,0,0,0,0,0,0,0,0,1,37
126148000,125144000,4e+06,1.0,1.31574,26.2281,0.0,190,191,6,0,0,2,0,0,1,1,43
127000000,0,4e+06,1.0,0.0,14.4273,0.0,0,0,0,0,0,0,0,0,0,1,37
127148000,126148000,4e+06,1.0,1.31574,26.3984,0.0,190,191,6,0,0,2,0,0,1,1,43
128000000,0,4e+06,1.0,0.0,14.6265,0.0,0,0,0,0,0,0,0,0,0,1,37
128148000,127148000,4e+06,1.0,1.31574,26.3536,0.0,190,191,6,0,0,2,0,0,1,1,43
129000000,0,4e+06,1.0,0.0,14.3625,0.0,0,0,0,0,0,0,0,0,0,1,37
129148000,128148000,4e+06,1.0,1.31574,26.4811,0.0,190,191,6,0,0,2,0,0,1,1,43
130000000,0,4e+06,1.0,0.0,14.6175,0.0,0,0,0,0,0,0,0,0,0,1,37
130148000,129148000,4e+06,1.0,1.31574,26.3157,0.0,190,191,6,0,0,2,0,0,1,1,43
130156000,130152000,4e+06,1.0,1.31574,26.3157,0.0,190,191,6,0,0,2,0,0,1,1,43
131000000,0,4e+06,1.0,0.0,14.5189,0.0,0,0,0,0,0,0,0,0,0,1,37
131156000,131152000,4e+06,1.0,1.31574,26.2151,0.0,190,191,6,0,0,2,0,0,1,1,43
132000000,0,4e+06,1.0,0.0,14.6464,0.0,0,0,0,0,0,0,0,0,0,1,37
132156000,132152000,4e+06,1.0,1.31574,26.3018,0.0,190,191,6,0,0,2,0,0,1,1,43
133000000,0,4e+06,1.0,0.0,14.4074,0.0,0,0,0,0,0,0,0,0,0,1,37
133156000,133152000,4e+06,1.0,1.31574,26.2779,0.0,190,191,6,0,0,2,0,0,1,1,43
134000000,0,4e+06,1.0,0.0,14.5817,0.0,0,0,0,0,0,0,0,0,0,1,37
134156000,134152000,4e+06,1.0,1.31574,26.3078,0.0,190,191,6,0,0,2,0,0,1,1,43
135000000,0,4e+06,1.0,0.0,14.3984,0.0,0,0,0,0,0,0,0,0,0,1,37
135156000,134152000,4e+06,1.0,1.31574,26.244,0.0,190,191,6,0,0,2,0,0,1,1,43
136000000,0,4e+06,1.0,0.0,14.7161,0.0,0,0,0,0,0,0,0,0,0,1,37
136156000,135156000,4e+06,1.0,1.31574,26.2281,0.0,190,191,6,0,0,2,0,0,1,1,43
137000000,0,4e+06,1.0,0.0,14.4273,0.0,0,0,0,0,0,0,0,0,0,1,37
137156000,136156000,4e+06,1.0,1.38048,26.4751,0.0,190,191,6,0,0,2,0,0,1,1,43
138000000,0,4e+06,1.0,0.0,14.6265,0.0,0,0,0,0,0,0,0,0,0,1,37
138156000,137156000,4e+06,1.0,1.31574,26.3018,0.0,190,191,6,0,0,2,0,0,1,1,43
138164000,138160000,4e+06,1.0,1.31574,26.3018,0.0,190,191,6,0,0,2,0,0,1,1,43
139000000,0,4e+06,1.0,0.0,14.3625,0.0,0,0,0,0,0,0,0,0,0,1,37
139164000,139160000,4e+06,1.0,1.31574,26.24,0.0,190,191,6,0,0,2,0,0,1,1,43
140000000,0,4e+06,1.0,0.0,14.6175,0.0,0,0,0,0,0,0,0,0,0,1,37
140164000,139160000,4e+06,1.0,1.31574,26.2719,0.0,190,191,6,0,0,2,0,0,1,1,43
140172000,140168000,4e+06,1.0,1.31574,26.2719,0.0,190,191,6,0,0,2,0,0,1,1,43
141000000,0,4e+06,1.0,0.0,14.5189,0.0,0,0,0,0,0,0,0,0,0,1,37
141172000,141168000,4e+06,1.0,1.31574,26.1604,0.0,190,191,6,0,0,2,0,0,1,1,43
142000000,0,4e+06,1.0,0.0,14.6464,0.0,0,0,0,0,0,0,0,0,0,1,37
142172000,142168000,4e+06,1.0,1.31574,26.3018,0.0,190,191,6,0,0,2,0,0,1,1,43
143000000,0,4e+06,1.0,0.0,14.4074,0.0,0,0,0,0,0,0,0,0,0,1,37
143172000,142168000,4e+06,1.0,1.31574,26.2341,0.0,190,191,6,0,0,2,0,0,1,1,43
144000000,0,4e+06,1.0,0.0,14.5817,0.0,0,0,0,0,0,0,0,0,0,1,37
144172000,143172000,4e+06,1.0,1.31574,26.4104,0.0,190,191,6,0,0,2,0,0,1,1,43
145000000,0,4e+06,1.0,0.0,14.3984,0.0,0,0,0,0,0,0,0,0,0,1,37
145172000,144172000,4e+06,1.0,1.31574,26.2042,0.0,190,191,6,0,0,2,0,0,1,1,43
146000000,0,4e+06,1.0,0.0,14.7161,0.0,0,0,0,0,0,0,0,0,0,1,37
146172000,145172000,4e+06,1.0,1.31574,26.4691,0.0,190,191,6,0,0,2,0,0,1,1,43
147000000,0,4e+06,1.0,0.0,14.4273,0.0,0,0,0,0,0,0,0,0,0,1,37
147172000,146172000,4e+06,1.0,1.31574,26.2341,0.0,190,191,6,0,0,2,0,0,1,1,43
147180000,147176000,4e+06,1.0,1.31574,26.2341,0.0,190,191,6,0,0,2,0,0,1,1,43
148000000,0,4e+06,1.0,0.0,14.6265,0.0,0,0,0,0,0,0,0,0,0,1,37
148180000,148176000,4e+06,1.0,1.31574,26.3018,0.0,190,191,6,0,0,2,0,0,1,1,43
149000000,0,4e+06,1.0,0.0,14.3625,0.0,0,0,0,0,0,0,0,0,0,1,37
149180000,148176000,4e+06,1.0,1.38048,26.24,0.0,190,191,6,0,0,2,0,0,1,1,43
149188000,149184000,4e+06,1.0,1.38048,26.24,0.0,190,191,6,0,0,2,0,0,1,1,43
150000000,0,4e+06,1.0,0.0,14.6175,0.0,0,0,0,0,0,0,0,0,0,1,37
150188000,150184000,4e+06,1.0,1.31574,26.2719,0.0,190,191,6,0,0,2,0,0,1,1,43
151000000,0,4e+06,1.0,0.0,14.5189,0.0,0,0,0,0,0,0,0,0,0,1,37
151188000,150184000,4e+06,1.0,1.31574,26.1604,0.0,190,191,6,0,0,2,0,0,1,1,43
152000000,0,4e+06,1.0,0.0,14.7639,0.0,0,0,0,0,0,0,0,0,0,1,37
152188000,151188000,4e+06,1.0,1.31574,27.0747,0.0,190,191,6,0,0,2,0,0,1,1,43
152196000,152192000,4e+06,1.0,1.31574,27.0747,0.0,190,191,6,0,0,2,0,0,1,1,43
153000000,0,4e+06,1.0,0.0,14.5259,0.0,0,0,0,0,0,0,0,0,0,1,37
153196000,153192000,4e+06,1.0,1.31574,26.9382,0.0,190,191,6,0,0,2,0,0,1,1,43
154000000,0,4e+06,1.0,0.0,14.6394,0.0,0,0,0,0,0,0,0,0,0,1,37
154196000,153192000,4e+06,1.0,1.31574,27.0986,0.0,190,191,6,0,0,2,0,0,1,1,43
155000000,0,4e+06,1.0,0.0,14.5169,0.0,0,0,0,0,0,0,0,0,0,1,37
155196000,154196000,4e+06,1.0,1.31574,26.9552,0.0,190,191,6,0,0,2,0,0,1,1,43
156000000,0,4e+06,1.0,0.0,14.7739,0.0,0,0,0,0,0,0,0,0,0,1,37
156196000,155196000,4e+06,1.0,1.31574,26.7679,0.0,190,191,6,0,0,2,0,0,1,1,43
157000000,0,4e+06,1.0,0.0,14.5458,0.0,0,0,0,0,0,0,0,0,0,1,37
157196000,156196000,4e+06,1.0,1.31574,26.8775,0.0,190,191,6,0,0,2,0,0,1,1,43
158000000,0,4e+06,1.0,0.0,14.6843,0.0,0,0,0,0,0,0,0,0,0,1,37
158196000,157196000,4e+06,1.0,1.31574,26.8855,0.0,190,191,6,0,0,2,0,0,1,1,43
159000000,0,4e+06,1.0,0.0,14.4811,0.0,0,0,0,0,0,0,0,0,0,1,37
159196000,158196000,4e+06,1.0,1.31574,26.9163,0.0,190,191,6,0,0,2,0,0,1,1,43
159204000,159204000,4e+06,1.0,1.31574,26.9163,0.0,190,191,6,0,0,2,0,0,1,1,43
160000000,0,4e+06,1.0,0.0,14.6753,0.0,0,0,0,0,0,0,0,0,0,1,37
160204000,159204000,4e+06,1.0,1.31574,26.8187,0.0,190,191,6,0,0,2,0,0,1,1,43
161000000,0,4e+06,1.0,0.0,14.5787,0.0,0,0,0,0,0,0,0,0,0,1,37
161204000,160204000,4e+06,1.0,1.31574,26.3874,0.0,190,191,6,0,0,2,0,0,1,1,43
161212000,161208000,4e+06,1.0,1.31574,26.3874,0.0,190,191,6,0,0,2,0,0,1,1,43
162000000,0,4e+06,1.0,0.0,14.5867,0.0,0,0,0,0,0,0,0,0,0,1,37
162212000,162208000,4e+06,1.0,1.38048,26.4253,0.0,190,191,6,0,0,2,0,0,1,1,43
163000000,0,4e+06,1.0,0.0,14.4671,0.0,0,0,0,0,0,0,0,0,0,1,37
163212000,163208000,4e+06,1.0,1.31574,26.252,0.0,190,191,6,0,0,2,0,0,1,1,43
164000000,0,4e+06,1.0,0.0,14.5219,0.0,0,0,0,0,0,0,0,0,0,1,37
164212000,164208000,4e+06,1.0,1.31574,26.1892,0.0,190,191,6,0,0,2,0,0,1,1,43
165000000,0,4e+06,1.0,0.0,14.4582,0.0,0,0,0,0,0,0,0,0,0,1,37
165212000,165208000,4e+06,1.0,1.31574,26.2221,0.0,190,191,6,0,0,2,0,0,1,1,43
166000000,0,4e+06,1.0,0.0,14.6564,0.0,0,0,0,0,0,0,0,0,0,1,37
166212000,166208000,4e+06,1.0,1.31574,26.1106,0.0,190,191,6,0,0,2,0,0,1,1,43
167000000,0,4e+06,1.0,0.0,14.4871,0.0,0,0,0,0,0,0,0,0,0,1,37
167212000,167212000,4e+06,1.0,1.31574,26.252,0.0,190,191,6,0,0,2,0,0,1,1,43
168000000,0,4e+06,1.0,0.0,14.5667,0.0,0,0,0,0,0,0,0,0,0,1,37
168212000,167212000,4e+06,1.0,1.31574,26.1843,0.0,190,191,6,0,0,2,0,0,1,1,43
169000000,0,4e+06,1.0,0.0,14.4223,0.0,0,0,0,0,0,0,0,0,0,1,37
169212000,168212000,4e+06,1.0,1.31574,26.3596,0.0,190,191,6,0,0,2,0,0,1,1,43
169224000,169220000,4e+06,1.0,1.31574,26.3596,0.0,190,191,6,0,0,2,0,0,1,1,43
170000000,0,4e+06,1.0,0.0,14.5578,0.0,0,0,0,0,0,0,0,0,0,1,37
170224000,169220000,4e+06,1.0,1.31574,26.1544,0.0,190,191,6,0,0,2,0,0,1,1,43
171000000,0,4e+06,1.0,0.0,14.7938,0.0,0,0,0,0,0,0,0,0,0,1,37
171224000,170224000,4e+06,1.0,1.38048,26.9223,0.0,190,191,6,0,0,2,0,0,1,1,43
171232000,171228000,4e+06,1.0,1.38048,26.9223,0.0,190,191,6,0,0,2,0,0,1,1,43
172000000,0,4e+06,1.0,0.0,14.5757,0.0,0,0,0,0,0,0,0,0,0,1,37
172232000,171228000,4e+06,1.0,1.31574,26.8576,0.0,190,191,6,0,0,2,0,0,1,1,43
173000000,0,4e+06,1.0,0.0,14.6544,0.0,0,0,0,0,0,0,0,0,0,1,37
173232000,172232000,4e+06,1.0,1.31574,26.8765,0.0,190,191,6,0,0,2,0,0,1,1,43
174000000,0,4e+06,1.0,0.0,14.511,0.0,0,0,0,0,0,0,0,0,0,1,37
174232000,173232000,4e+06,1.0,1.31574,26.8675,0.0,190,191,6,0,0,2,0,0,1,1,43
175000000,0,4e+06,1.0,0.0,14.6454,0.0,0,0,0,0,0,0,0,0,0,1,37
175232000,174232000,4e+06,1.0,1.31574,26.8635,0.0,190,191,6,0,0,2,0,0,1,1,43
175240000,175236000,4e+06,1.0,1.31574,26.8635,0.0,190,191,6,0,0,2,0,0,1,1,43
176000000,0,4e+06,1.0,0.0,14.6454,0.0,0,0,0,0,0,0,0,0,0,1,37
176240000,175236000,4e+06,1.0,1.31574,26.7261,0.0,190,191,6,0,0,2,0,0,1,1,43
176248000,176244000,4e+06,1.0,1.31574,26.7261,0.0,190,191,6,0,0,2,0,0,1,1,43
177000000,0,4e+06,1.0,0.0,14.6743,0.0,0,0,0,0,0,0,0,0,0,1,37
177248000,177244000,4e+06,1.0,1.31574,27.0498,0.0,190,191,6,0,0,2,0,0,1,1,43
178000000,0,4e+06,1.0,0.0,14.5558,0.0,0,0,0,0,0,0,0,0,0,1,37
178248000,178244000,4e+06,1.0,1.31574,26.8725,0.0,190,191,6,0,0,2,0,0,1,1,43
179000000,0,4e+06,1.0,0.0,14.6096,0.0,0,0,0,0,0,0,0,0,0,1,37
179248000,179244000,4e+06,1.0,1.31574,27.1992,0.0,190,191,6,0,0,2,0,0,1,1,43
180000000,0,4e+06,1.0,0.0,14.5468,0.0,0,0,0,0,0,0,0,0,0,1,37
180248000,180244000,4e+06,1.0,1.38048,26.8317,0.0,190,191,6,0,0,2,0,0,1,1,43
181000000,0,4e+06,1.0,0.0,14.7659,0.0,0,0,0,0,0,0,0,0,0,1,37
181248000,181244000,4e+06,1.0,1.31574,26.8317,0.0,190,191,6,0,0,2,0,0,1,1,43
182000000,0,4e+06,1.0,0.0,14.5757,0.0,0,0,0,0,0,0,0,0,0,1,37
182248000,182244000,4e+06,1.0,1.31574,26.8227,0.0,190,191,6,0,0,2,0,0,1,1,43
183000000,0,4e+06,1.0,0.0,14.6544,0.0,0,0,0,0,0,0,0,0,0,1,37
183248000,182244000,4e+06,1.0,1.31574,26.9143,0.0,190,191,6,0,0,2,0,0,1,1,43
183256000,183252000,4e+06,1.0,1.31574,26.9143,0.0,190,191,6,0,0,2,0,0,1,1,43
184000000,0,4e+06,1.0,0.0,14.511,0.0,0,0,0,0,0,0,0,0,0,1,37
184256000,184252000,4e+06,1.0,1.31574,26.8217,0.0,190,191,6,0,0,2,0,0,1,1,43
185000000,0,4e+06,1.0,0.0,14.6454,0.0,0,0,0,0,0,0,0,0,0,1,37
185256000,184252000,4e+06,1.0,1.31574,26.8785,0.0,190,191,6,0,0,2,0,0,1,1,43
185268000,185264000,4e+06,1.0,1.31574,26.8785,0.0,190,191,6,0,0,2,0,0,1,1,43
186000000,0,4e+06,1.0,0.0,14.6454,0.0,0,0,0,0,0,0,0,0,0,1,37
186268000,186264000,4e+06,1.0,1.31574,26.74,0.0,190,191,6,0,0,2,0,0,1,1,43
187000000,0,4e+06,1.0,0.0,14.6743,0.0,0,0,0,0,0,0,0,0,0,1,37
187268000,186264000,4e+06,1.0,1.31574,27.1275,0.0,190,191,6,0,0,2,0,0,1,1,43
188000000,0,4e+06,1.0,0.0,14.5558,0.0,0,0,0,0,0,0,0,0,0,1,37
188268000,187268000,4e+06,1.0,1.31574,26.8217,0.0,190,191,6,0,0,2,0,0,1,1,43
189000000,0,4e+06,1.0,0.0,14.5508,0.0,0,0,0,0,0,0,0,0,0,1,37
189268000,188268000,4e+06,1.0,1.38048,26.3566,0.0,190,191,6,0,0,2,0,0,1,1,43
190000000,0,4e+06,1.0,0.0,14.488,0.0,0,0,0,0,0,0,0,0,0,1,37
190268000,189268000,4e+06,1.0,1.31574,26.1544,0.0,190,191,6,0,0,2,0,0,1,1,43
191000000,0,4e+06,1.0,0.0,14.6484,0.0,0,0,0,0,0,0,0,0,0,1,37
191268000,190268000,4e+06,1.0,1.31574,26.1783,0.0,190,191,6,0,0,2,0,0,1,1,43
192000000,0,4e+06,1.0,0.0,14.5169,0.0,0,0,0,0,0,0,0,0,0,1,37
192268000,191268000,4e+06,1.0,1.31574,26.1843,0.0,190,191,6,0,0,2,0,0,1,1,43
193000000,0,4e+06,1.0,0.0,14.5369,0.0,0,0,0,0,0,0,0,0,0,1,37
193268000,192268000,4e+06,1.0,1.31574,26.252,0.0,190,191,6,0,0,2,0,0,1,1,43
194000000,0,4e+06,1.0,0.0,14.4522,0.0,0,0,0,0,0,0,0,0,0,1,37
194268000,194264000,4e+06,1.0,1.31574,26.2918,0.0,190,191,6,0,0,2,0,0,1,1,43
195000000,0,4e+06,1.0,0.0,14.5279,0.0,0,0,0,0,0,0,0,0,0,1,37
195268000,195264000,4e+06,1.0,1.31574,26.2221,0.0,190,191,6,0,0,2,0,0,1,1,43
196000000,0,4e+06,1.0,0.0,14.5867,0.0,0,0,0,0,0,0,0,0,0,1,37
196268000,196264000,4e+06,1.0,1.31574,26.3516,0.0,190,191,6,0,0,2,0,0,1,1,43
197000000,0,4e+06,1.0,0.0,14.5568,0.0,0,0,0,0,0,0,0,0,0,1,37
197268000,196264000,4e+06,1.0,1.38048,26.252,0.0,190,191,6,0,0,2,0,0,1,1,43
198000000,0,4e+06,1.0,0.0,14.497,0.0,0,0,0,0,0,0,0,0,0,1,37
198268000,197268000,4e+06,1.0,1.31574,26.1843,0.0,190,191,6,0,0,2,0,0,1,1,43
199000000,0,4e+06,1.0,0.0,14.492,0.0,0,0,0,0,0,0,0,0,0,1,37
199268000,198268000,4e+06,1.0,1.31574,26.257,0.0,190,191,6,0,0,2,0,0,1,1,43
200000000,0,4e+06,1.0,0.0,14.488,0.0,0,0,0,0,0,0,0,0,0,1,37
200268000,199268000,4e+06,1.0,1.31574,26.1544,0.0,190,191,6,0,0,2,0,0,1,1,43
201000000,0,4e+06,1.0,0.0,14.6484,0.0,0,0,0,0,0,0,0,0,0,1,37
201268000,200268000,4e+06,1.0,1.31574,26.1783,0.0,190,191,6,0,0,2,0,0,1,1,43
201280000,201276000,4e+06,1.0,1.31574,26.1783,0.0,190,191,6,0,0,2,0,0,1,1,43
202000000,0,4e+06,1.0,0.0,14.5169,0.0,0,0,0,0,0,0,0,0,0,1,37
202280000,202280000,4e+06,1.0,1.31574,26.4841,0.0,190,191,6,0,0,2,0,0,1,1,43
203000000,0,4e+06,1.0,0.0,14.6265,0.0,0,0,0,0,0,0,0,0,0,1,37
203280000,202280000,4e+06,1.0,1.31574,26.3038,0.0,190,191,6,0,0,2,0,0,1,1,43
203292000,203288000,4e+06,1.0,1.31574,26.3038,0.0,190,191,6,0,0,2,0,0,1,1,43
204000000,0,4e+06,1.0,0.0,14.3625,0.0,0,0,0,0,0,0,0,0,0,1,37
204292000,203288000,4e+06,1.0,1.31574,26.4303,0.0,190,191,6,0,0,2,0,0,1,1,43
204300000,204296000,4e+06,1.0,1.31574,26.4303,0.0,190,191,6,0,0,2,0,0,1,1,43
205000000,0,4e+06,1.0,0.0,14.6175,0.0,0,0,0,0,0,0,0,0,0,1,37
205300000,204296000,4e+06,1.0,1.31574,26.3207,0.0,190,191,6,0,0,2,0,0,1,1,43
205312000,205308000,4e+06,1.0,1.31574,26.3207,0.0,190,191,6,0,0,2,0,0,1,1,43
206000000,0,4e+06,1.0,0.0,14.497,0.0,0,0,0,0,0,0,0,0,0,1,37
206312000,206308000,4e+06,1.0,1.31574,26.1106,0.0,190,191,6,0,0,2,0,0,1,1,43
207000000,0,4e+06,1.0,0.0,14.6464,0.0,0,0,0,0,0,0,0,0,0,1,37
207308000,207304000,4e+06,1.0,1.31574,26.252,0.0,190,191,6,0,0,2,0,0,1,1,43
208000000,0,4e+06,1.0,0.0,14.4074,0.0,0,0,0,0,0,0,0,0,0,1,37
208308000,208304000,4e+06,1.0,1.31574,26.2281,0.0,190,191,6,0,0,2,0,0,1,1,43
209000000,0,4e+06,1.0,0.0,14.5817,0.0,0,0,0,0,0,0,0,0,0,1,37
209308000,209304000,4e+06,1.0,1.31574,26.257,0.0,190,191,6,0,0,2,0,0,1,1,43
210000000,0,4e+06,1.0,0.0,14.3984,0.0,0,0,0,0,0,0,0,0,0,1,37
210308000,209304000,4e+06,1.0,1.38048,26.1942,0.0,190,191,6,0,0,2,0,0,1,1,43
211000000,0,4e+06,1.0,0.0,14.738,0.0,0,0,0,0,0,0,0,0,0,1,37
211308000,210308000,4e+06,1.0,1.31574,26.1783,0.0,190,191,6,0,0,2,0,0,1,1,43
212000000,0,4e+06,1.0,0.0,14.4273,0.0,0,0,0,0,0,0,0,0,0,1,37
212308000,211308000,4e+06,1.0,1.31574,26.4253,0.0,190,191,6,0,0,2,0,0,1,1,43
212320000,212316000,4e+06,1.0,1.31574,26.4253,0.0,190,191,6,0,0,2,0,0,1,1,43
213000000,0,4e+06,1.0,0.0,14.6265,0.0,0,0,0,0,0,0,0,0,0,1,37
213320000,213316000,4e+06,1.0,1.31574,26.252,0.0,190,191,6,0,0,2,0,0,1,1,43
214000000,0,4e+06,1.0,0.0,14.3625,0.0,0,0,0,0,0,0,0,0,0,1,37
214320000,214316000,4e+06,1.0,1.31574,26.1892,0.0,190,191,6,0,0,2,0,0,1,1,43
215000000,0,4e+06,1.0,0.0,14.6175,0.0,0,0,0,0,0,0,0,0,0,1,37
215320000,215316000,4e+06,1.0,1.31574,26.2221,0.0,190,191,6,0,0,2,0,0,1,1,43
216000000,0,4e+06,1.0,0.0,14.497,0.0,0,0,0,0,0,0,0,0,0,1,37
216320000,216320000,4e+06,1.0,1.31574,26.1106,0.0,190,191,6,0,0,2,0,0,1,1,43
217000000,0,4e+06,1.0,0.0,14.7052,0.0,0,0,0,0,0,0,0,0,0,1,37
217320000,216320000,4e+06,1.0,1.38048,26.3147,0.0,190,191,6,0,0,2,0,0,1,1,43
218000000,0,4e+06,1.0,0.0,14.4661,0.0,0,0,0,0,0,0,0,0,0,1,37
218320000,217320000,4e+06,1.0,1.31574,26.8177,0.0,190,191,6,0,0,2,0,0,1,1,43
218328000,218324000,4e+06,1.0,1.31574,26.8177,0.0,190,191,6,0,0,2,0,0,1,1,43
219000000,0,4e+06,1.0,0.0,14.6404,0.0,0,0,0,0,0,0,0,0,0,1,37
219324000,219320000,4e+06,1.0,200.589,26.9631,0.0,190,191,6,0,0,2,0,0,1,1,43
220000000,0,4e+06,1.0,0.0,14.3984,0.0,0,0,0,0,0,0,0,0,0,1,37
220324000,219320000,4e+06,1.0,13329.2,26.1882,0.0,190,191,6,0,0,2,0,0,1,1,43
220336000,220332000,4e+06,1.0,13329.2,26.1882,0.0,190,191,6,0,0,2,0,0,1,1,43
221000000,0,4e+06,1.0,0.0,14.738,0.0,0,0,0,0,0,0,0,0,0,1,37
221336000,220332000,4e+06,1.0,12677.5,26.4691,0.0,190,191,6,0,0,2,0,0,1,1,43
221344000,221340000,4e+06,1.0,12677.5,26.4691,0.0,190,191,6,0,0,2,0,0,1,1,43
222000000,0,4e+06,1.0,0.0,14.4273,0.0,0,0,0,0,0,0,0,0,0,1,37
222344000,221340000,4e+06,1.0,12026.3,26.2341,0.0,190,191,6,0,0,2,0,0,1,1,43
222352000,222348000,4e+06,1.0,12026.3,26.2341,0.0,190,191,6,0,0,2,0,0,1,1,43
223000000,0,4e+06,1.0,0.0,14.6265,0.0,0,0,0,0,0,0,0,0,0,1,37
223352000,222348000,4e+06,1.0,11851.8,26.3018,0.0,190,191,6,0,0,2,0,0,1,1,43
223360000,223356000,4e+06,1.0,11851.8,26.3018,0.0,190,191,6,0,0,2,0,0,1,1,43
224000000,0,4e+06,1.0,0.0,14.3625,0.0,0,0,0,0,0,0,0,0,0,1,37
224360000,223356000,4e+06,1.0,11306.7,26.24,0.0,190,191,6,0,0,2,0,0,1,1,43
224372000,224368000,4e+06,1.0,11306.7,26.24,0.0,190,191,6,0,0,2,0,0,1,1,43
225000000,0,4e+06,1.0,0.0,14.6175,0.0,0,0,0,0,0,0,0,0,0,1,37
225372000,224368000,4e+06,1.0,12189.3,26.2719,0.0,190,191,6,0,0,2,0,0,1,1,43
225380000,225376000,4e+06,1.0,12189.3,26.2719,0.0,190,191,6,0,0,2,0,0,1,1,43
226000000,0,4e+06,1.0,0.0,14.497,0.0,0,0,0,0,0,0,0,0,0,1,37
226380000,225376000,4e+06,1.0,11500.3,26.1604,0.0,190,191,6,0,0,2,0,0,1,1,43
226388000,226384000,4e+06,1.0,11500.3,26.1604,0.0,190,191,6,0,0,2,0,0,1,1,43
227000000,0,4e+06,1.0,0.0,14.6464,0.0,0,0,0,0,0,0,0,0,0,1,37
227388000,226384000,4e+06,1.0,12147.8,26.4253,0.0,190,191,6,0,0,2,0,0,1,1,43
227396000,227392000,4e+06,1.0,12147.8,26.4253,0.0,190,191,6,0,0,2,0,0,1,1,43
228000000,0,4e+06,1.0,0.0,14.4074,0.0,0,0,0,0,0,0,0,0,0,1,37
228396000,227392000,4e+06,1.0,11384.5,26.2859,0.0,190,191,6,0,0,2,0,0,1,1,43
228404000,228404000,4e+06,1.0,11384.5,26.2859,0.0,190,191,6,0,0,2,0,0,1,1,43
229000000,0,4e+06,1.0,0.0,14.5817,0.0,0,0,0,0,0,0,0,0,0,1,37
229404000,228404000,4e+06,1.0,12235.1,26.5488,0.0,190,191,6,0,0,2,0,0,1,1,43
229416000,229412000,4e+06,1.0,12235.1,26.5488,0.0,190,191,6,0,0,2,0,0,1,1,43
230000000,0,4e+06,1.0,0.0,14.3984,0.0,0,0,0,0,0,0,0,0,0,1,37
230416000,229412000,4e+06,1.0,12373.2,26.3028,0.0,190,191,6,0,0,2,0,0,1,1,43
230424000,230420000,4e+06,1.0,12373.2,26.3028,0.0,190,191,6,0,0,2,0,0,1,1,43
231000000,0,4e+06,1.0,0.0,14.738,0.0,0,0,0,0,0,0,0,0,0,1,37
231424000,230420000,4e+06,1.0,11506.0,26.2281,0.0,190,191,6,0,0,2,0,0,1,1,43
231432000,231428000,4e+06,1.0,11506.0,26.2281,0.0,190,191,6,0,0,2,0,0,1,1,43
232000000,0,4e+06,1.0,0.0,14.4273,0.0,0,0,0,0,0,0,0,0,0,1,37
232432000,231428000,4e+06,1.0,12697.1,26.2341,0.0,190,191,6,0,0,2,0,0,1,1,43
232440000,232436000,4e+06,1.0,12697.1,26.2341,0.0,190,191,6,0,0,2,0,0,1,1,43
233000000,0,4e+06,1.0,0.0,14.6265,0.0,0,0,0,0,0,0,0,0,0,1,37
233440000,232436000,4e+06,1.0,11789.2,26.3456,0.0,190,191,6,0,0,2,0,0,1,1,43
233448000,233444000,4e+06,1.0,11789.2,26.3456,0.0,190,191,6,0,0,2,0,0,1,1,43
234000000,0,4e+06,1.0,0.0,14.3904,0.0,0,0,0,0,0,0,0,0,0,1,37
234448000,233444000,4e+06,1.0,11694.3,26.24,0.0,190,191,6,0,0,2,0,0,1,1,43
234456000,234456000,4e+06,1.0,11694.3,26.24,0.0,190,191,6,0,0,2,0,0,1,1,43
235000000,0,4e+06,1.0,0.0,14.6763,0.0,0,0,0,0,0,0,0,0,0,1,37
235456000,234456000,4e+06,1.0,4090.68,26.751,0.0,190,191,6,0,0,2,0,0,1,1,43
235460000,235460000,4e+06,1.0,4090.68,26.751,0.0,190,191,6,0,0,2,0,0,1,1,43
236000000,0,4e+06,1.0,0.0,14.6145,0.0,0,0,0,0,0,0,0,0,0,1,37
236460000,235460000,4e+06,1.0,1.31574,26.7799,0.0,190,191,6,0,0,2,0,0,1,1,43
237000000,0,4e+06,1.0,0.0,14.6464,0.0,0,0,0,0,0,0,0,0,0,1,37
237460000,236460000,4e+06,1.0,8381.91,26.7719,0.0,190,191,6,0,0,2,0,0,1,1,43
237476000,237472000,4e+06,1.0,8381.91,26.7719,0.0,190,191,6,0,0,2,0,0,1,1,43
238000000,0,4e+06,1.0,0.0,14.4074,0.0,0,0,0,0,0,0,0,0,0,1,37
238476000,237472000,4e+06,1.0,13637.5,26.2341,0.0,190,191,6,0,0,2,0,0,1,1,43
238484000,238480000,4e+06,1.0,13637.5,26.2341,0.0,190,191,6,0,0,2,0,0,1,1,43
239000000,0,4e+06,1.0,0.0,14.5817,0.0,0,0,0,0,0,0,0,0,0,1,37
239484000,238480000,4e+06,1.0,13553.4,26.3078,0.0,190,191,6,0,0,2,0,0,1,1,43
240000000,0,4e+06,1.0,0.0,14.3984,0.0,0,0,0,0,0,0,0,0,0,1,37
240484000,239484000,4e+06,1.0,11384.7,26.2042,0.0,190,191,6,0,0,2,0,0,1,1,43
240496000,240492000,4e+06,1.0,11384.7,26.2042,0.0,190,191,6,0,0,2,0,0,1,1,43
241000000,0,4e+06,1.0,0.0,14.738,0.0,0,0,0,0,0,0,0,0,0,1,37
241496000,240492000,4e+06,1.0,12164.5,26.2281,0.0,190,191,6,0,0,2,0,0,1,1,43
241508000,241504000,4e+06,1.0,12164.5,26.2281,0.0,190,191,6,0,0,2,0,0,1,1,43
242000000,0,4e+06,1.0,0.0,14.4273,0.0,0,0,0,0,0,0,0,0,0,1,37
242508000,241504000,4e+06,1.0,11473.8,26.2341,0.0,190,191,6,0,0,2,0,0,1,1,43
242516000,242512000,4e+06,1.0,11473.8,26.2341,0.0,190,191,6,0,0,2,0,0,1,1,43
243000000,0,4e+06,1.0,0.0,14.6265,0.0,0,0,0,0,0,0,0,0,0,1,37
243516000,242512000,4e+06,1.0,11052.9,26.3416,0.0,190,191,6,0,0,2,0,0,1,1,43
243524000,243520000,4e+06,1.0,11052.9,26.3416,0.0,190,191,6,0,0,2,0,0,1,1,43
244000000,0,4e+06,1.0,0.0,14.3625,0.0,0,0,0,0,0,0,0,0,0,1,37
244524000,243520000,4e+06,1.0,11828.3,26.3028,0.0,190,191,6,0,0,2,0,0,1,1,43
245000000,0,4e+06,1.0,0.0,14.6175,0.0,0,0,0,0,0,0,0,0,0,1,37
245524000,244524000,4e+06,1.0,12271.0,26.489,0.0,190,191,6,0,0,2,0,0,1,1,43
245540000,245536000,4e+06,1.0,12271.0,26.489,0.0,190,191,6,0,0,2,0,0,1,1,43
246000000,0,4e+06,1.0,0.0,14.497,0.0,0,0,0,0,0,0,0,0,0,1,37
246540000,245536000,4e+06,1.0,12187.3,26.0926,0.0,190,191,6,0,0,2,0,0,1,1,43
246548000,246544000,4e+06,1.0,12187.3,26.0926,0.0,190,191,6,0,0,2,0,0,1,1,43
247000000,0,4e+06,1.0,0.0,14.6464,0.0,0,0,0,0,0,0,0,0,0,1,37
247548000,246544000,4e+06,1.0,12084.6,26.2241,0.0,190,191,6,0,0,2,0,0,1,1,43
247556000,247552000,4e+06,1.0,12084.6,26.2241,0.0,190,191,6,0,0,2,0,0,1,1,43
248000000,0,4e+06,1.0,0.0,14.4074,0.0,0,0,0,0,0,0,0,0,0,1,37
248556000,247552000,4e+06,1.0,11561.2,26.1514,0.0,190,191,6,0,0,2,0,0,1,1,43
248564000,248560000,4e+06,1.0,11561.2,26.1514,0.0,190,191,6,0,0,2,0,0,1,1,43
249000000,0,4e+06,1.0,0.0,14.5817,0.0,0,0,0,0,0,0,0,0,0,1,37
249564000,248560000,4e+06,1.0,11677.2,26.2649,0.0,190,191,6,0,0,2,0,0,1,1,43
249572000,249568000,4e+06,1.0,11677.2,26.2649,0.0,190,191,6,0,0,2,0,0,1,1,43
250000000,0,4e+06,1.0,0.0,14.3984,0.0,0,0,0,0,0,0,0,0,0,1,37
250572000,249568000,4e+06,1.0,11925.8,26.1384,0.0,190,191,6,0,0,2,0,0,1,1,43
250584000,250580000,4e+06,1.0,11925.8,26.1384,0.0,190,191,6,0,0,2,0,0,1,1,43
251000000,0,4e+06,1.0,0.0,14.738,0.0,0,0,0,0,0,0,0,0,0,1,37
251584000,250580000,4e+06,1.0,12124.7,26.1683,0.0,190,191,6,0,0,2,0,0,1,1,43
251592000,251588000,4e+06,1.0,12124.7,26.1683,0.0,190,191,6,0,0,2,0,0,1,1,43
252000000,0,4e+06,1.0,0.0,14.738,0.0,0,0,0,0,0,0,0,0,0,1,37
252592000,251588000,4e+06,1.0,11809.4,26.6106,0.0,190,191,6,0,0,2,0,0,1,1,43
252600000,252596000,4e+06,1.0,11809.4,26.6106,0.0,190,191,6,0,0,2,0,0,1,1,43
253000000,0,4e+06,1.0,0.0,14.5747,0.0,0,0,0,0,0,0,0,0,0,1,37
253600000,252596000,4e+06,1.0,11866.5,26.3118,0.0,190,191,6,0,0,2,0,0,1,1,43
253608000,253604000,4e+06,1.0,11866.5,26.3118,0.0,190,191,6,0,0,2,0,0,1,1,43
254000000,0,4e+06,1.0,0.0,14.6265,0.0,0,0,0,0,0,0,0,0,0,1,37
254608000,253604000,4e+06,1.0,12171.7,26.4213,0.0,190,191,6,0,0,2,0,0,1,1,43
254616000,254612000,4e+06,1.0,12171.7,26.4213,0.0,190,191,6,0,0,2,0,0,1,1,43
255000000,0,4e+06,1.0,0.0,14.4323,0.0,0,0,0,0,0,0,0,0,0,1,37
255616000,254612000,4e+06,1.0,12294.3,26.3127,0.0,190,191,6,0,0,2,0,0,1,1,43
255628000,255624000,4e+06,1.0,12294.3,26.3127,0.0,190,191,6,0,0,2,0,0,1,1,43
256000000,0,4e+06,1.0,0.0,14.5478,0.0,0,0,0,0,0,0,0,0,0,1,37
256628000,255624000,4e+06,1.0,12220.7,26.1066,0.0,190,191,6,0,0,2,0,0,1,1,43
256636000,256636000,4e+06,1.0,12220.7,26.1066,0.0,190,191,6,0,0,2,0,0,1,1,43
257000000,0,4e+06,1.0,0.0,14.5667,0.0,0,0,0,0,0,0,0,0,0,1,37
257636000,256636000,4e+06,1.0,11511.6,26.252,0.0,190,191,6,0,0,2,0,0,1,1,43
257648000,257644000,4e+06,1.0,11511.6,26.252,0.0,190,191,6,0,0,2,0,0,1,1,43
258000000,0,4e+06,1.0,0.0,14.5767,0.0,0,0,0,0,0,0,0,0,0,1,37
258648000,257644000,4e+06,1.0,12349.0,26.2281,0.0,190,191,6,0,0,2,0,0,1,1,43
258656000,258652000,4e+06,1.0,12349.0,26.2281,0.0,190,191,6,0,0,2,0,0,1,1,43
259000000,0,4e+06,1.0,0.0,14.4771,0.0,0,0,0,0,0,0,0,0,0,1,37
259656000,258652000,4e+06,1.0,11345.4,26.257,0.0,190,191,6,0,0,2,0,0,1,1,43
259664000,259660000,4e+06,1.0,11345.4,26.257,0.0,190,191,6,0,0,2,0,0,1,1,43
260000000,0,4e+06,1.0,0.0,14.512,0.0,0,0,0,0,0,0,0,0,0,1,37
260664000,259660000,4e+06,1.0,11853.4,26.1942,0.0,190,191,6,0,0,2,0,0,1,1,43
260676000,260672000,4e+06,1.0,11853.4,26.1942,0.0,190,191,6,0,0,2,0,0,1,1,43
261000000,0,4e+06,1.0,0.0,14.49,0.0,0,0,0,0,0,0,0,0,0,1,37
261676000,260672000,4e+06,1.0,11370.4,26.1783,0.0,190,191,6,0,0,2,0,0,1,1,43
261684000,261680000,4e+06,1.0,11370.4,26.1783,0.0,190,191,6,0,0,2,0,0,1,1,43
262000000,0,4e+06,1.0,0.0,14.6464,0.0,0,0,0,0,0,0,0,0,0,1,37
262684000,261680000,4e+06,1.0,11872.4,26.4253,0.0,190,191,6,0,0,2,0,0,1,1,43
262692000,262688000,4e+06,1.0,11872.4,26.4253,0.0,190,191,6,0,0,2,0,0,1,1,43
263000000,0,4e+06,1.0,0.0,14.497,0.0,0,0,0,0,0,0,0,0,0,1,37
263692000,262688000,4e+06,1.0,11939.8,26.252,0.0,190,191,6,0,0,2,0,0,1,1,43
263700000,263696000,4e+06,1.0,11939.8,26.252,0.0,190,191,6,0,0,2,0,0,1,1,43
264000000,0,4e+06,1.0,0.0,14.5568,0.0,0,0,0,0,0,0,0,0,0,1,37
264700000,263696000,4e+06,1.0,11917.7,26.1892,0.0,190,191,6,0,0,2,0,0,1,1,43
264712000,264708000,4e+06,1.0,11917.7,26.1892,0.0,190,191,6,0,0,2,0,0,1,1,43
265000000,0,4e+06,1.0,0.0,14.4323,0.0,0,0,0,0,0,0,0,0,0,1,37
265712000,264708000,4e+06,1.0,12227.7,26.2052,0.0,190,191,6,0,0,2,0,0,1,1,43
265720000,265716000,4e+06,1.0,12227.7,26.2052,0.0,190,191,6,0,0,2,0,0,1,1,43
266000000,0,4e+06,1.0,0.0,14.5478,0.0,0,0,0,0,0,0,0,0,0,1,37
266720000,265716000,4e+06,1.0,11696.8,26.1265,0.0,190,191,6,0,0,2,0,0,1,1,43
266728000,266724000,4e+06,1.0,11696.8,26.1265,0.0,190,191,6,0,0,2,0,0,1,1,43
267000000,0,4e+06,1.0,0.0,14.5667,0.0,0,0,0,0,0,0,0,0,0,1,37
267728000,267724000,4e+06,1.0,12283.7,26.254,0.0,190,191,6,0,0,2,0,0,1,1,43
268000000,0,4e+06,1.0,0.0,14.5767,0.0,0,0,0,0,0,0,0,0,0,1,37
268728000,267724000,4e+06,1.0,2749.77,26.74,0.0,190,191,6,0,0,2,0,0,1,1,43
269000000,0,4e+06,1.0,0.0,14.5946,0.0,0,0,0,0,0,0,0,0,0,1,37
269728000,268728000,4e+06,1.0,1.31574,26.9631,0.0,190,191,6,0,0,2,0,0,1,1,43
270000000,0,4e+06,1.0,0.0,14.5707,0.0,0,0,0,0,0,0,0,0,0,1,37
270728000,269728000,4e+06,1.0,1.31574,27.0528,0.0,190,191,6,0,0,2,0,0,1,1,43
271000000,0,4e+06,1.0,0.0,14.6076,0.0,0,0,0,0,0,0,0,0,0,1,37
271728000,270728000,4e+06,1.0,1.31574,26.8466,0.0,190,191,6,0,0,2,0,0,1,1,43
272000000,0,4e+06,1.0,0.0,14.7052,0.0,0,0,0,0,0,0,0,0,0,1,37
272728000,271728000,4e+06,1.0,1.31574,26.8426,0.0,190,191,6,0,0,2,0,0,1,1,43
272736000,272732000,4e+06,1.0,1.31574,26.8426,0.0,190,191,6,0,0,2,0,0,1,1,43
273000000,0,4e+06,1.0,0.0,14.6145,0.0,0,0,0,0,0,0,0,0,0,1,37
273736000,273732000,4e+06,1.0,1.31574,26.9183,0.0,190,191,6,0,0,2,0,0,1,1,43
274000000,0,4e+06,1.0,0.0,14.6155,0.0,0,0,0,0,0,0,0,0,0,1,37
274736000,274732000,4e+06,1.0,1.31574,26.8416,0.0,190,191,6,0,0,2,0,0,1,1,43
275000000,0,4e+06,1.0,0.0,14.5498,0.0,0,0,0,0,0,0,0,0,0,1,37
275736000,275732000,4e+06,1.0,1.31574,26.8436,0.0,190,191,6,0,0,2,0,0,1,1,43
276000000,0,4e+06,1.0,0.0,14.6066,0.0,0,0,0,0,0,0,0,0,0,1,37
276736000,275732000,4e+06,1.0,1.31574,26.7749,0.0,190,191,6,0,0,2,0,0,1,1,43
276748000,276744000,4e+06,1.0,1.31574,26.7749,0.0,190,191,6,0,0,2,0,0,1,1,43
277000000,0,4e+06,1.0,0.0,14.6843,0.0,0,0,0,0,0,0,0,0,0,1,37
277748000,277744000,4e+06,1.0,1.31574,27.0329,0.0,190,191,6,0,0,2,0,0,1,1,43
278000000,0,4e+06,1.0,0.0,14.6355,0.0,0,0,0,0,0,0,0,0,0,1,37
278748000,278744000,4e+06,1.0,1.31574,26.8625,0.0,190,191,6,0,0,2,0,0,1,1,43
279000000,0,4e+06,1.0,0.0,14.5498,0.0,0,0,0,0,0,0,0,0,0,1,37
279748000,279744000,4e+06,1.0,1.38048,27.2102,0.0,190,191,6,0,0,2,0,0,1,1,43
280000000,0,4e+06,1.0,0.0,14.6155,0.0,0,0,0,0,0,0,0,0,0,1,37
280748000,280748000,4e+06,1.0,1.31574,26.8436,0.0,190,191,6,0,0,2,0,0,1,1,43
281000000,0,4e+06,1.0,0.0,14.6076,0.0,0,0,0,0,0,0,0,0,0,1,37
281748000,280748000,4e+06,1.0,1.31574,26.9034,0.0,190,191,6,0,0,2,0,0,1,1,43
282000000,0,4e+06,1.0,0.0,14.7052,0.0,0,0,0,0,0,0,0,0,0,1,37
282748000,281748000,4e+06,1.0,1.31574,26.8287,0.0,190,191,6,0,0,2,0,0,1,1,43
283000000,0,4e+06,1.0,0.0,14.6145,0.0,0,0,0,0,0,0,0,0,0,1,37
283748000,282748000,4e+06,1.0,11573.3,26.3924,0.0,190,191,6,0,0,2,0,0,1,1,43
283760000,283756000,4e+06,1.0,11573.3,26.3924,0.0,190,191,6,0,0,2,0,0,1,1,43
284000000,0,4e+06,1.0,0.0,14.5568,0.0,0,0,0,0,0,0,0,0,0,1,37
284760000,283756000,4e+06,1.0,13516.8,26.24,0.0,190,191,6,0,0,2,0,0,1,1,43
284768000,284768000,4e+06,1.0,13516.8,26.24,0.0,190,191,6,0,0,2,0,0,1,1,43
285000000,0,4e+06,1.0,0.0,14.4323,0.0,0,0,0,0,0,0,0,0,0,1,37
285768000,284768000,4e+06,1.0,11997.1,26.3118,0.0,190,191,6,0,0,2,0,0,1,1,43
285780000,285776000,4e+06,1.0,11997.1,26.3118,0.0,190,191,6,0,0,2,0,0,1,1,43
286000000,0,4e+06,1.0,0.0,14.5478,0.0,0,0,0,0,0,0,0,0,0,1,37
286780000,285776000,4e+06,1.0,11772.6,26.1604,0.0,190,191,6,0,0,2,0,0,1,1,43
286788000,286784000,4e+06,1.0,11772.6,26.1604,0.0,190,191,6,0,0,2,0,0,1,1,43
287000000,0,4e+06,1.0,0.0,14.5667,0.0,0,0,0,0,0,0,0,0,0,1,37
287788000,286784000,4e+06,1.0,11513.4,26.5428,0.0,190,191,6,0,0,2,0,0,1,1,43
287796000,287792000,4e+06,1.0,11513.4,26.5428,0.0,190,191,6,0,0,2,0,0,1,1,43
288000000,0,4e+06,1.0,0.0,14.5767,0.0,0,0,0,0,0,0,0,0,0,1,37
288796000,287792000,4e+06,1.0,11379.7,26.2341,0.0,190,191,6,0,0,2,0,0,1,1,43
289000000,0,4e+06,1.0,0.0,14.4771,0.0,0,0,0,0,0,0,0,0,0,1,37
289796000,288796000,4e+06,1.0,11446.8,26.3078,0.0,190,191,6,0,0,2,0,0,1,1,43
289808000,289808000,4e+06,1.0,11446.8,26.3078,0.0,190,191,6,0,0,2,0,0,1,1,43
290000000,0,4e+06,1.0,0.0,14.512,0.0,0,0,0,0,0,0,0,0,0,1,37
290808000,289808000,4e+06,1.0,11759.3,26.2042,0.0,190,191,6,0,0,2,0,0,1,1,43
290820000,290816000,4e+06,1.0,11759.3,26.2042,0.0,190,191,6,0,0,2,0,0,1,1,43
291000000,0,4e+06,1.0,0.0,14.49,0.0,0,0,0,0,0,0,0,0,0,1,37
291820000,290816000,4e+06,1.0,11511.6,26.2281,0.0,190,191,6,0,0,2,0,0,1,1,43
291828000,291824000,4e+06,1.0,11511.6,26.2281,0.0,190,191,6,0,0,2,0,0,1,1,43
292000000,0,4e+06,1.0,0.0,14.6464,0.0,0,0,0,0,0,0,0,0,0,1,37
292828000,291824000,4e+06,1.0,11765.7,26.2341,0.0,190,191,6,0,0,2,0,0,1,1,43
292836000,292832000,4e+06,1.0,11765.7,26.2341,0.0,190,191,6,0,0,2,0,0,1,1,43
293000000,0,4e+06,1.0,0.0,14.497,0.0,0,0,0,0,0,0,0,0,0,1,37
293836000,292832000,4e+06,1.0,11629.1,26.3416,0.0,190,191,6,0,0,2,0,0,1,1,43
293848000,293844000,4e+06,1.0,11629.1,26.3416,0.0,190,191,6,0,0,2,0,0,1,1,43
294000000,0,4e+06,1.0,0.0,14.5568,0.0,0,0,0,0,0,0,0,0,0,1,37
294848000,293844000,4e+06,1.0,11347.2,26.3028,0.0,190,191,6,0,0,2,0,0,1,1,43
294856000,294852000,4e+06,1.0,11347.2,26.3028,0.0,190,191,6,0,0,2,0,0,1,1,43
295000000,0,4e+06,1.0,0.0,14.4323,0.0,0,0,0,0,0,0,0,0,0,1,37
295856000,294852000,4e+06,1.0,11443.3,26.5129,0.0,190,191,6,0,0,2,0,0,1,1,43
295864000,295860000,4e+06,1.0,11443.3,26.5129,0.0,190,191,6,0,0,2,0,0,1,1,43
296000000,0,4e+06,1.0,0.0,14.5478,0.0,0,0,0,0,0,0,0,0,0,1,37
296864000,295860000,4e+06,1.0,11385.2,26.1604,0.0,190,191,6,0,0,2,0,0,1,1,43
296872000,296868000,4e+06,1.0,11385.2,26.1604,0.0,190,191,6,0,0,2,0,0,1,1,43
297000000,0,4e+06,1.0,0.0,14.5946,0.0,0,0,0,0,0,0,0,0,0,1,37
297872000,296868000,4e+06,1.0,11080.7,26.3018,0.0,190,191,6,0,0,2,0,0,1,1,43
297884000,297880000,4e+06,1.0,11080.7,26.3018,0.0,190,191,6,0,0,2,0,0,1,1,43
298000000,0,4e+06,1.0,0.0,14.5767,0.0,0,0,0,0,0,0,0,0,0,1,37
298884000,297880000,4e+06,1.0,11853.3,26.2341,0.0,190,191,6,0,0,2,0,0,1,1,43
298892000,298888000,4e+06,1.0,11853.3,26.2341,0.0,190,191,6,0,0,2,0,0,1,1,43
299000000,0,4e+06,1.0,0.0,14.4771,0.0,0,0,0,0,0,0,0,0,0,1,37
299892000,298888000,4e+06,1.0,12200.6,26.26,0.0,190,191,6,0,0,2,0,0,1,1,43
299900000,299896000,4e+06,1.0,12200.6,26.26,0.0,190,191,6,0,0,2,0,0,1,1,43
300000000,0,4e+06,1.0,0.0,14.512,0.0,0,0,0,0,0,0,0,0,0,1,37
300900000,299896000,4e+06,1.0,12317.2,26.1464,0.0,190,191,6,0,0,2,0,0,1,1,43
300912000,300908000,4e+06,1.0,12317.2,26.1464,0.0,190,191,6,0,0,2,0,0,1,1,43
301000000,0,4e+06,1.0,0.0,14.49,0.0,0,0,0,0,0,0,0,0,0,1,37
301912000,300908000,4e+06,1.0,11730.3,26.1574,0.0,190,191,6,0,0,2,0,0,1,1,43
301920000,301916000,4e+06,1.0,11730.3,26.1574,0.0,190,191,6,0,0,2,0,0,1,1,43
302000000,0,4e+06,1.0,0.0,14.6464,0.0,0,0,0,0,0,0,0,0,0,1,37
302920000,301916000,4e+06,1.0,11923.9,26.3904,0.0,190,191,6,0,0,2,0,0,1,1,43
302928000,302924000,4e+06,1.0,11923.9,26.3904,0.0,190,191,6,0,0,2,0,0,1,1,43
303000000,0,4e+06,1.0,0.0,14.497,0.0,0,0,0,0,0,0,0,0,0,1,37
303928000,302924000,4e+06,1.0,12067.4,26.2868,0.0,190,191,6,0,0,2,0,0,1,1,43
303936000,303932000,4e+06,1.0,12067.4,26.2868,0.0,190,191,6,0,0,2,0,0,1,1,43
304000000,0,4e+06,1.0,0.0,14.5568,0.0,0,0,0,0,0,0,0,0,0,1,37
304936000,303932000,4e+06,1.0,11314.7,26.3954,0.0,190,191,6,0,0,2,0,0,1,1,43
304948000,304944000,4e+06,1.0,11314.7,26.3954,0.0,190,191,6,0,0,2,0,0,1,1,43
305000000,0,4e+06,1.0,0.0,14.4323,0.0,0,0,0,0,0,0,0,0,0,1,37
305948000,304944000,4e+06,1.0,11676.6,26.254,0.0,190,191,6,0,0,2,0,0,1,1,43
305956000,305952000,4e+06,1.0,11676.6,26.254,0.0,190,191,6,0,0,2,0,0,1,1,43
306000000,0,4e+06,1.0,0.0,14.5478,0.0,0,0,0,0,0,0,0,0,0,1,37
306956000,305952000,4e+06,1.0,12546.6,26.1653,0.0,190,191,6,0,0,2,0,0,1,1,43
306964000,306960000,4e+06,1.0,12546.6,26.1653,0.0,190,191,6,0,0,2,0,0,1,1,43
307000000,0,4e+06,1.0,0.0,14.5667,0.0,0,0,0,0,0,0,0,0,0,1,37
307964000,306960000,4e+06,1.0,12348.7,26.25,0.0,190,191,6,0,0,2,0,0,1,1,43
307972000,307972000,4e+06,1.0,12348.7,26.25,0.0,190,191,6,0,0,2,0,0,1,1,43
308000000,0,4e+06,1.0,0.0,14.5767,0.0,0,0,0,0,0,0,0,0,0,1,37
308972000,307972000,4e+06,1.0,11814.4,26.2281,0.0,190,191,6,0,0,2,0,0,1,1,43
308984000,308980000,4e+06,1.0,11814.4,26.2281,0.0,190,191,6,0,0,2,0,0,1,1,43
309000000,0,4e+06,1.0,0.0,14.4771,0.0,0,0,0,0,0,0,0,0,0,1,37
309984000,308980000,4e+06,1.0,11864.0,26.257,0.0,190,191,6,0,0,2,0,0,1,1,43
309992000,309988000,4e+06,1.0,11864.0,26.257,0.0,190,191,6,0,0,2,0,0,1,1,43
310000000,0,4e+06,1.0,0.0,14.512,0.0,0,0,0,0,0,0,0,0,0,1,37
310992000,309988000,4e+06,1.0,11339.5,26.1942,0.0,190,191,6,0,0,2,0,0,1,1,43
311000000,0,4e+06,1.0,0.0,14.49,0.0,0,0,0,0,0,0,0,0,0,1,37
311992000,310992000,4e+06,1.0,11880.7,26.1783,0.0,190,191,6,0,0,2,0,0,1,1,43
312000000,0,4e+06,1.0,0.0,14.6464,0.0,0,0,0,0,0,0,0,0,0,1,37
312008000,312004000,4e+06,1.0,11880.7,26.1783,0.0,190,191,6,0,0,2,0,0,1,1,43
313000000,0,4e+06,1.0,0.0,14.497,0.0,0,0,0,0,0,0,0,0,0,1,37
313008000,312004000,4e+06,1.0,11472.9,26.4253,0.0,190,191,6,0,0,2,0,0,1,1,43
313016000,313012000,4e+06,1.0,11472.9,26.4253,0.0,190,191,6,0,0,2,0,0,1,1,43
314000000,0,4e+06,1.0,0.0,14.5568,0.0,0,0,0,0,0,0,0,0,0,1,37
314016000,313012000,4e+06,1.0,11863.2,26.252,0.0,190,191,6,0,0,2,0,0,1,1,43
314024000,314020000,4e+06,1.0,11863.2,26.252,0.0,190,191,6,0,0,2,0,0,1,1,43
315000000,0,4e+06,1.0,0.0,14.4323,0.0,0,0,0,0,0,0,0,0,0,1,37
315024000,315020000,4e+06,1.0,11806.3,26.1892,0.0,190,191,6,0,0,2,0,0,1,1,43
316000000,0,4e+06,1.0,0.0,14.5478,0.0,0,0,0,0,0,0,0,0,0,1,37
316024000,315020000,4e+06,1.0,11914.2,26.2221,0.0,190,191,6,0,0,2,0,0,1,1,43
316036000,316032000,4e+06,1.0,11914.2,26.2221,0.0,190,191,6,0,0,2,0,0,1,1,43
317000000,0,4e+06,1.0,0.0,14.5667,0.0,0,0,0,0,0,0,0,0,0,1,37
317036000,316032000,4e+06,1.0,11507.9,26.1106,0.0,190,191,6,0,0,2,0,0,1,1,43
317044000,317040000,4e+06,1.0,11507.9,26.1106,0.0,190,191,6,0,0,2,0,0,1,1,43
318000000,0,4e+06,1.0,0.0,14.5767,0.0,0,0,0,0,0,0,0,0,0,1,37
318044000,317040000,4e+06,1.0,12247.4,26.252,0.0,190,191,6,0,0,2,0,0,1,1,43
318052000,318048000,4e+06,1.0,12247.4,26.252,0.0,190,191,6,0,0,2,0,0,1,1,43
319000000,0,4e+06,1.0,0.0,14.4771,0.0,0,0,0,0,0,0,0,0,0,1,37
319052000,318048000,4e+06,1.0,11869.3,26.2241,0.0,190,191,6,0,0,2,0,0,1,1,43
319064000,319060000,4e+06,1.0,11869.3,26.2241,0.0,190,191,6,0,0,2,0,0,1,1,43
320000000,0,4e+06,1.0,0.0,14.512,0.0,0,0,0,0,0,0,0,0,0,1,37
320064000,319060000,4e+06,1.0,12217.1,26.3197,0.0,190,191,6,0,0,2,0,0,1,1,43
320072000,320068000,4e+06,1.0,12217.1,26.3197,0.0,190,191,6,0,0,2,0,0,1,1,43
321000000,0,4e+06,1.0,0.0,14.49,0.0,0,0,0,0,0,0,0,0,0,1,37
321072000,321068000,4e+06,1.0,11878.4,26.3954,0.0,190,191,6,0,0,2,0,0,1,1,43
322000000,0,4e+06,1.0,0.0,14.6464,0.0,0,0,0,0,0,0,0,0,0,1,37
322072000,321068000,4e+06,1.0,11781.7,26.1783,0.0,190,191,6,0,0,2,0,0,1,1,43
322080000,322076000,4e+06,1.0,11781.7,26.1783,0.0,190,191,6,0,0,2,0,0,1,1,43
323000000,0,4e+06,1.0,0.0,14.497,0.0,0,0,0,0,0,0,0,0,0,1,37
323080000,322076000,4e+06,1.0,12016.9,26.1843,0.0,190,191,6,0,0,2,0,0,1,1,43
323088000,323084000,4e+06,1.0,12016.9,26.1843,0.0,190,191,6,0,0,2,0,0,1,1,43
324000000,0,4e+06,1.0,0.0,14.5568,0.0,0,0,0,0,0,0,0,0,0,1,37
324088000,323084000,4e+06,1.0,11967.3,26.252,0.0,190,191,6,0,0,2,0,0,1,1,43
325000000,0,4e+06,1.0,0.0,14.4323,0.0,0,0,0,0,0,0,0,0,0,1,37
325088000,324088000,4e+06,1.0,11565.6,26.1892,0.0,190,191,6,0,0,2,0,0,1,1,43
325100000,325096000,4e+06,1.0,11565.6,26.1892,0.0,190,191,6,0,0,2,0,0,1,1,43
326000000,0,4e+06,1.0,0.0,14.5478,0.0,0,0,0,0,0,0,0,0,0,1,37
326100000,325096000,4e+06,1.0,11573.2,26.2221,0.0,190,191,6,0,0,2,0,0,1,1,43
326108000,326108000,4e+06,1.0,11573.2,26.2221,0.0,190,191,6,0,0,2,0,0,1,1,43
327000000,0,4e+06,1.0,0.0,14.5667,0.0,0,0,0,0,0,0,0,0,0,1,37
327108000,326108000,4e+06,1.0,11994.6,26.1106,0.0,190,191,6,0,0,2,0,0,1,1,43
327120000,327116000,4e+06,1.0,11994.6,26.1106,0.0,190,191,6,0,0,2,0,0,1,1,43
328000000,0,4e+06,1.0,0.0,14.5767,0.0,0,0,0,0,0,0,0,0,0,1,37
328112000,328108000,4e+06,1.0,12143.8,26.3755,0.0,190,191,6,0,0,2,0,0,1,1,43
329000000,0,4e+06,1.0,0.0,14.5359,0.0,0,0,0,0,0,0,0,0,0,1,37
329112000,328108000,4e+06,1.0,4699.44,26.6843,0.0,190,191,6,0,0,2,0,0,1,1,43
330000000,0,4e+06,1.0,0.0,14.6295,0.0,0,0,0,0,0,0,0,0,0,1,37
330112000,329112000,4e+06,1.0,1.31574,27.1534,0.0,190,191,6,0,0,2,0,0,1,1,43
331000000,0,4e+06,1.0,0.0,14.5488,0.0,0,0,0,0,0,0,0,0,0,1,37
331112000,330112000,4e+06,1.0,1.31574,26.8884,0.0,190,191,6,0,0,2,0,0,1,1,43
332000000,0,4e+06,1.0,0.0,14.7639,0.0,0,0,0,0,0,0,0,0,0,1,37
332112000,331112000,4e+06,1.0,1.31574,26.8257,0.0,190,191,6,0,0,2,0,0,1,1,43
332128000,332124000,4e+06,1.0,1.31574,26.8257,0.0,190,191,6,0,0,2,0,0,1,1,43
333000000,0,4e+06,1.0,0.0,14.5558,0.0,0,0,0,0,0,0,0,0,0,1,37
333128000,333124000,4e+06,1.0,1.31574,26.8147,0.0,190,191,6,0,0,2,0,0,1,1,43
334000000,0,4e+06,1.0,0.0,14.6743,0.0,0,0,0,0,0,0,0,0,0,1,37
334128000,334124000,4e+06,1.0,1.31574,26.9223,0.0,190,191,6,0,0,2,0,0,1,1,43
335000000,0,4e+06,1.0,0.0,14.491,0.0,0,0,0,0,0,0,0,0,0,1,37
335128000,334124000,4e+06,1.0,1.31574,26.8645,0.0,190,191,6,0,0,2,0,0,1,1,43
336000000,0,4e+06,1.0,0.0,14.6653,0.0,0,0,0,0,0,0,0,0,0,1,37
336128000,335128000,4e+06,1.0,1.31574,26.9243,0.0,190,191,6,0,0,2,0,0,1,1,43
336136000,336132000,4e+06,1.0,1.31574,26.9243,0.0,190,191,6,0,0,2,0,0,1,1,43
337000000,0,4e+06,1.0,0.0,14.5667,0.0,0,0,0,0,0,0,0,0,0,1,37
337136000,337132000,4e+06,1.0,1.31574,26.3217,0.0,190,191,6,0,0,2,0,0,1,1,43
338000000,0,4e+06,1.0,0.0,14.6464,0.0,0,0,0,0,0,0,0,0,0,1,37
338136000,337132000,4e+06,1.0,1.31574,26.4751,0.0,190,191,6,0,0,2,0,0,1,1,43
338144000,338140000,4e+06,1.0,1.31574,26.4751,0.0,190,191,6,0,0,2,0,0,1,1,43
339000000,0,4e+06,1.0,0.0,14.4074,0.0,0,0,0,0,0,0,0,0,0,1,37
339144000,339140000,4e+06,1.0,1.38048,26.2121,0.0,190,191,6,0,0,2,0,0,1,1,43
340000000,0,4e+06,1.0,0.0,14.5817,0.0,0,0,0,0,0,0,0,0,0,1,37
340144000,339140000,4e+06,1.0,1.31574,26.2809,0.0,190,191,6,0,0,2,0,0,1,1,43
340156000,340152000,4e+06,1.0,1.31574,26.2809,0.0,190,191,6,0,0,2,0,0,1,1,43
341000000,0,4e+06,1.0,0.0,14.4203,0.0,0,0,0,0,0,0,0,0,0,1,37
341156000,340152000,4e+06,1.0,1.31574,26.2042,0.0,190,191,6,0,0,2,0,0,1,1,43
341164000,341160000,4e+06,1.0,1.31574,26.2042,0.0,190,191,6,0,0,2,0,0,1,1,43
342000000,0,4e+06,1.0,0.0,14.7161,0.0,0,0,0,0,0,0,0,0,0,1,37
342164000,341160000,4e+06,1.0,1.31574,26.2281,0.0,190,191,6,0,0,2,0,0,1,1,43
342176000,342172000,4e+06,1.0,1.31574,26.2281,0.0,190,191,6,0,0,2,0,0,1,1,43
343000000,0,4e+06,1.0,0.0,14.4671,0.0,0,0,0,0,0,0,0,0,0,1,37
343176000,342172000,4e+06,1.0,1.31574,26.2341,0.0,190,191,6,0,0,2,0,0,1,1,43
343184000,343180000,4e+06,1.0,1.31574,26.2341,0.0,190,191,6,0,0,2,0,0,1,1,43
344000000,0,4e+06,1.0,0.0,14.6265,0.0,0,0,0,0,0,0,0,0,0,1,37
344184000,343180000,4e+06,1.0,1.31574,26.3416,0.0,190,191,6,0,0,2,0,0,1,1,43
344196000,344192000,4e+06,1.0,1.31574,26.3416,0.0,190,191,6,0,0,2,0,0,1,1,43
345000000,0,4e+06,1.0,0.0,14.3625,0.0,0,0,0,0,0,0,0,0,0,1,37
345196000,344192000,4e+06,1.0,1.31574,26.3028,0.0,190,191,6,0,0,2,0,0,1,1,43
345204000,345200000,4e+06,1.0,1.31574,26.3028,0.0,190,191,6,0,0,2,0,0,1,1,43
346000000,0,4e+06,1.0,0.0,14.6175,0.0,0,0,0,0,0,0,0,0,0,1,37
346204000,346200000,4e+06,1.0,1.31574,26.5129,0.0,190,191,6,0,0,2,0,0,1,1,43
347000000,0,4e+06,1.0,0.0,14.497,0.0,0,0,0,0,0,0,0,0,0,1,37
347204000,347204000,4e+06,1.0,1.31574,26.1604,0.0,190,191,6,0,0,2,0,0,1,1,43
348000000,0,4e+06,1.0,0.0,14.6464,0.0,0,0,0,0,0,0,0,0,0,1,37
348204000,347204000,4e+06,1.0,1.31574,26.3018,0.0,190,191,6,0,0,2,0,0,1,1,43
349000000,0,4e+06,1.0,0.0,14.4074,0.0,0,0,0,0,0,0,0,0,0,1,37
349204000,348204000,4e+06,1.0,1.31574,26.2341,0.0,190,191,6,0,0,2,0,0,1,1,43
349216000,349212000,4e+06,1.0,1.31574,26.2341,0.0,190,191,6,0,0,2,0,0,1,1,43
350000000,0,4e+06,1.0,0.0,14.5817,0.0,0,0,0,0,0,0,0,0,0,1,37
350216000,350212000,4e+06,1.0,1.31574,26.3078,0.0,190,191,6,0,0,2,0,0,1,1,43
351000000,0,4e+06,1.0,0.0,14.4203,0.0,0,0,0,0,0,0,0,0,0,1,37
351216000,351212000,4e+06,1.0,1.31574,26.2042,0.0,190,191,6,0,0,2,0,0,1,1,43
352000000,0,4e+06,1.0,0.0,14.7161,0.0,0,0,0,0,0,0,0,0,0,1,37
352216000,351212000,4e+06,1.0,1.38048,26.2281,0.0,190,191,6,0,0,2,0,0,1,1,43
352228000,352224000,4e+06,1.0,1.38048,26.2281,0.0,190,191,6,0,0,2,0,0,1,1,43
353000000,0,4e+06,1.0,0.0,14.4273,0.0,0,0,0,0,0,0,0,0,0,1,37
353228000,353224000,4e+06,1.0,1.31574,26.4482,0.0,190,191,6,0,0,2,0,0,1,1,43
354000000,0,4e+06,1.0,0.0,14.6265,0.0,0,0,0,0,0,0,0,0,0,1,37
354228000,353224000,4e+06,1.0,1.31574,26.3536,0.0,190,191,6,0,0,2,0,0,1,1,43
354236000,354232000,4e+06,1.0,1.31574,26.3536,0.0,190,191,6,0,0,2,0,0,1,1,43
355000000,0,4e+06,1.0,0.0,14.3625,0.0,0,0,0,0,0,0,0,0,0,1,37
355236000,354232000,4e+06,1.0,1.31574,26.4811,0.0,190,191,6,0,0,2,0,0,1,1,43
