timestamp,lat,lon,alt,alt_ellipsoid,delta_alt,vel_n,vel_e,vel_d,yaw,eph,epv,terrain_alt,lat_lon_reset_counter,alt_reset_counter,terrain_alt_valid,dead_reckoning
176000,47.397742,8.5455939,0.0,0.0,0.0,0.0,0.0,0.0,0.0,0.0,0.0,0.0,0,0,0,0
272000,47.397742,8.5455939,0.0,0.0,0.0,0.0,0.0,0.0,0.0,0.0,0.0,0.0,0,0,0,0
368000,47.3977419,8.545594,0.0,0.0,0.0,0.0,0.0,0.0,0.0,0.0,0.0,0.0,0,0,0,0
464000,47.3977418,8.5455938,0.0,0.0,0.0,0.0,0.0,0.0,0.0,0.0,0.0,0.0,0,0,0,0
560000,47.3977419,8.5455939,0.0,0.0,0.0,0.0,0.0,0.0,0.0,0.0,0.0,0.0,0,0,0,0
656000,47.3977419,8.5455943,0.0,0.0,0.0,0.0,0.0,0.0,0.0,0.0,0.0,0.0,0,0,0,0
752000,47.3977418,8.5455943,0.0,0.0,0.0,0.0,0.0,0.0,0.0,0.0,0.0,0.0,0,0,0,0
848000,47.3977418,8.5455942,0.0,0.0,0.0,0.0,0.0,0.0,0.0,0.0,0.0,0.0,0,0,0,0
944000,47.397742,8.5455943,0.0,0.0,0.0,0.0,0.0,0.0,0.0,0.0,0.0,0.0,0,0,0,0
1040000,47.3977418,8.5455943,0.0,0.0,0.0,0.0,0.0,0.0,0.0,0.0,0.0,0.0,0,0,0,0
1136000,47.3977419,8.5455942,0.0,0.0,0.0,0.0,0.0,0.0,0.0,0.0,0.0,0.0,0,0,0,0
1232000,47.3977419,8.5455941,0.0,0.0,0.0,0.0,0.0,0.0,0.0,0.0,0.0,0.0,0,0,0,0
1328000,47.3977419,8.5455941,0.0,0.0,0.0,0.0,0.0,0.0,0.0,0.0,0.0,0.0,0,0,0,0
1424000,47.3977418,8.545594,0.0,0.0,0.0,0.0,0.0,0.0,0.0,0.0,0.0,0.0,0,0,0,0
1520000,47.397742,8.545594,0.0,0.0,0.0,0.0,0.0,0.0,0.0,0.0,0.0,0.0,0,0,0,0
1616000,47.397742,8.5455939,0.0,0.0,0.0,0.0,0.0,0.0,0.0,0.0,0.0,0.0,0,0,0,0
1712000,47.3977419,8.545594,0.0,0.0,0.0,0.0,0.0,0.0,0.0,0.0,0.0,0.0,0,0,0,0
1808000,47.3977419,8.5455941,0.0,0.0,0.0,0.0,0.0,0.0,0.0,0.0,0.0,0.0,0,0,0,0
1904000,47.397742,8.5455941,0.0,0.0,0.0,0.0,0.0,0.0,0.0,0.0,0.0,0.0,0,0,0,0
2000000,47.3977419,8.545594,0.0,0.0,0.0,0.0,0.0,0.0,0.0,0.0,0.0,0.0,0,0,0,0
2096000,47.397742,8.5455939,0.0,0.0,0.0,0.0,0.0,0.0,0.0,0.0,0.0,0.0,0,0,0,0
2192000,47.3977419,8.5455941,0.0,0.0,0.0,0.0,0.0,0.0,0.0,0.0,0.0,0.0,0,0,0,0
2288000,47.3977419,8.545594,0.0,0.0,0.0,0.0,0.0,0.0,0.0,0.0,0.0,0.0,0,0,0,0
2384000,47.397742,8.5455941,0.0,0.0,0.0,0.0,0.0,0.0,0.0,0.0,0.0,0.0,0,0,0,0
2480000,47.3977419,8.545594,0.0,0.0,0.0,0.0,0.0,0.0,0.0,0.0,0.0,0.0,0,0,0,0
2576000,47.3977419,8.5455939,0.0,0.0,0.0,0.0,0.0,0.0,0.0,0.0,0.0,0.0,0,0,0,0
2672000,47.3977419,8.5455939,0.0,0.0,0.0,0.0,0.0,0.0,0.0,0.0,0.0,0.0,0,0,0,0
2768000,47.3977419,8.545594,0.0,0.0,0.0,0.0,0.0,0.0,0.0,0.0,0.0,0.0,0,0,0,0
2864000,47.3977419,8.5455942,0.0,0.0,0.0,0.0,0.0,0.0,0.0,0.0,0.0,0.0,0,0,0,0
2960000,47.3977419,8.545594,0.0,0.0,0.0,0.0,0.0,0.0,0.0,0.0,0.0,0.0,0,0,0,0
3056000,47.3977419,8.5455938,0.0,0.0,0.0,0.0,0.0,0.0,0.0,0.0,0.0,0.0,0,0,0,0
3152000,47.3977418,8.5455941,0.0,0.0,0.0,0.0,0.0,0.0,0.0,0.0,0.0,0.0,0,0,0,0
3248000,47.3977418,8.5455939,0.0,0.0,0.0,0.0,0.0,0.0,0.0,0.0,0.0,0.0,0,0,0,0
3344000,47.3977419,8.5455937,0.0,0.0,0.0,0.0,0.0,0.0,0.0,0.0,0.0,0.0,0,0,0,0
3440000,47.397742,8.5455938,0.0,0.0,0.0,0.0,0.0,0.0,0.0,0.0,0.0,0.0,0,0,0,0
3536000,47.3977418,8.5455939,0.0,0.0,0.0,0.0,0.0,0.0,0.0,0.0,0.0,0.0,0,0,0,0
3632000,47.3977419,8.545594,0.0,0.0,0.0,0.0,0.0,0.0,0.0,0.0,0.0,0.0,0,0,0,0
3728000,47.397742,8.5455941,0.0,0.0,0.0,0.0,0.0,0.0,0.0,0.0,0.0,0.0,0,0,0,0
3824000,47.397742,8.5455942,0.0,0.0,0.0,0.0,0.0,0.0,0.0,0.0,0.0,0.0,0,0,0,0
3920000,47.3977421,8.5455939,0.0,0.0,0.0,0.0,0.0,0.0,0.0,0.0,0.0,0.0,0,0,0,0
4016000,47.3977419,8.5455939,0.0,0.0,0.0,0.0,0.0,0.0,0.0,0.0,0.0,0.0,0,0,0,0
4112000,47.3977418,8.5455938,0.0,0.0,0.0,0.0,0.0,0.0,0.0,0.0,0.0,0.0,0,0,0,0
4208000,47.3977417,8.5455939,0.0,0.0,0.0,0.0,0.0,0.0,0.0,0.0,0.0,0.0,0,0,0,0
4304000,47.3977419,8.5455939,0.0,0.0,0.0,0.0,0.0,0.0,0.0,0.0,0.0,0.0,0,0,0,0
4400000,47.3977418,8.5455937,0.0,0.0,0.0,0.0,0.0,0.0,0.0,0.0,0.0,0.0,0,0,0,0
4496000,47.3977419,8.5455937,0.0,0.0,0.0,0.0,0.0,0.0,0.0,0.0,0.0,0.0,0,0,0,0
4592000,47.3977419,8.5455939,0.0,0.0,0.0,0.0,0.0,0.0,0.0,0.0,0.0,0.0,0,0,0,0
4688000,47.3977418,8.5455939,0.0,0.0,0.0,0.0,0.0,0.0,0.0,0.0,0.0,0.0,0,0,0,0
4784000,47.3977419,8.545594,0.0,0.0,0.0,0.0,0.0,0.0,0.0,0.0,0.0,0.0,0,0,0,0
4880000,47.397742,8.545594,0.0,0.0,0.0,0.0,0.0,0.0,0.0,0.0,0.0,0.0,0,0,0,0
4976000,47.3977419,8.5455941,0.0,0.0,0.0,0.0,0.0,0.0,0.0,0.0,0.0,0.0,0,0,0,0
5072000,47.3977419,8.5455939,0.0,0.0,0.0,0.0,0.0,0.0,0.0,0.0,0.0,0.0,0,0,0,0
5168000,47.3977418,8.545594,0.0,0.0,0.0,0.0,0.0,0.0,0.0,0.0,0.0,0.0,0,0,0,0
5264000,47.3977418,8.545594,0.0,0.0,0.0,0.0,0.0,0.0,0.0,0.0,0.0,0.0,0,0,0,0
5360000,47.3977418,8.545594,0.0,0.0,0.0,0.0,0.0,0.0,0.0,0.0,0.0,0.0,0,0,0,0
5456000,47.3977419,8.5455942,0.0,0.0,0.0,0.0,0.0,0.0,0.0,0.0,0.0,0.0,0,0,0,0
5552000,47.397742,8.5455943,0.0,0.0,0.0,0.0,0.0,0.0,0.0,0.0,0.0,0.0,0,0,0,0
5648000,47.3977419,8.5455939,0.0,0.0,0.0,0.0,0.0,0.0,0.0,0.0,0.0,0.0,0,0,0,0
5744000,47.3977419,8.5455938,0.0,0.0,0.0,0.0,0.0,0.0,0.0,0.0,0.0,0.0,0,0,0,0
5840000,47.3977419,8.5455938,0.0,0.0,0.0,0.0,0.0,0.0,0.0,0.0,0.0,0.0,0,0,0,0
5936000,47.3977419,8.5455937,0.0,0.0,0.0,0.0,0.0,0.0,0.0,0.0,0.0,0.0,0,0,0,0
6032000,47.397742,8.5455939,0.0,0.0,0.0,0.0,0.0,0.0,0.0,0.0,0.0,0.0,0,0,0,0
6128000,47.3977421,8.5455938,0.0,0.0,0.0,0.0,0.0,0.0,0.0,0.0,0.0,0.0,0,0,0,0
6224000,47.3977421,8.5455939,0.0,0.0,0.0,0.0,0.0,0.0,0.0,0.0,0.0,0.0,0,0,0,0
6320000,47.3977421,8.5455939,0.0,0.0,0.0,0.0,0.0,0.0,0.0,0.0,0.0,0.0,0,0,0,0
6416000,47.397742,8.5455939,0.0,0.0,0.0,0.0,0.0,0.0,0.0,0.0,0.0,0.0,0,0,0,0
6512000,47.397742,8.5455939,0.0,0.0,0.0,0.0,0.0,0.0,0.0,0.0,0.0,0.0,0,0,0,0
6608000,47.397742,8.5455936,0.0,0.0,0.0,0.0,0.0,0.0,0.0,0.0,0.0,0.0,0,0,0,0
6704000,47.3977421,8.5455938,0.0,0.0,0.0,0.0,0.0,0.0,0.0,0.0,0.0,0.0,0,0,0,0
6800000,47.397742,8.5455938,0.0,0.0,0.0,0.0,0.0,0.0,0.0,0.0,0.0,0.0,0,0,0,0
6896000,47.3977419,8.5455937,0.0,0.0,0.0,0.0,0.0,0.0,0.0,0.0,0.0,0.0,0,0,0,0
6992000,47.397742,8.5455937,0.0,0.0,0.0,0.0,0.0,0.0,0.0,0.0,0.0,0.0,0,0,0,0
7088000,47.397742,8.545594,0.0,0.0,0.0,0.0,0.0,0.0,0.0,0.0,0.0,0.0,0,0,0,0
7184000,47.3977418,8.5455939,0.0,0.0,0.0,0.0,0.0,0.0,0.0,0.0,0.0,0.0,0,0,0,0
7280000,47.3977419,8.5455939,0.0,0.0,0.0,0.0,0.0,0.0,0.0,0.0,0.0,0.0,0,0,0,0
7376000,47.3977419,8.5455938,0.0,0.0,0.0,0.0,0.0,0.0,0.0,0.0,0.0,0.0,0,0,0,0
7472000,47.397742,8.5455939,0.0,0.0,0.0,0.0,0.0,0.0,0.0,0.0,0.0,0.0,0,0,0,0
7568000,47.3977421,8.5455939,0.0,0.0,0.0,0.0,0.0,0.0,0.0,0.0,0.0,0.0,0,0,0,0
7664000,47.3977421,8.5455941,0.0,0.0,0.0,0.0,0.0,0.0,0.0,0.0,0.0,0.0,0,0,0,0
7760000,47.3977419,8.545594,0.0,0.0,0.0,0.0,0.0,0.0,0.0,0.0,0.0,0.0,0,0,0,0
7856000,47.397742,8.5455939,0.0,0.0,0.0,0.0,0.0,0.0,0.0,0.0,0.0,0.0,0,0,0,0
7952000,47.397742,8.545594,0.0,0.0,0.0,0.0,0.0,0.0,0.0,0.0,0.0,0.0,0,0,0,0
8048000,47.397742,8.5455938,0.0,0.0,0.0,0.0,0.0,0.0,0.0,0.0,0.0,0.0,0,0,0,0
8144000,47.3977421,8.545594,0.0,0.0,0.0,0.0,0.0,0.0,0.0,0.0,0.0,0.0,0,0,0,0
8240000,47.397742,8.5455939,0.0,0.0,0.0,0.0,0.0,0.0,0.0,0.0,0.0,0.0,0,0,0,0
8336000,47.397742,8.5455938,0.0,0.0,0.0,0.0,0.0,0.0,0.0,0.0,0.0,0.0,0,0,0,0
8432000,47.3977421,8.5455938,0.0,0.0,0.0,0.0,0.0,0.0,0.0,0.0,0.0,0.0,0,0,0,0
8528000,47.3977421,8.545594,0.0,0.0,0.0,0.0,0.0,0.0,0.0,0.0,0.0,0.0,0,0,0,0
8624000,47.397742,8.5455939,0.0,0.0,0.0,0.0,0.0,0.0,0.0,0.0,0.0,0.0,0,0,0,0
8720000,47.397742,8.545594,0.0,0.0,0.0,0.0,0.0,0.0,0.0,0.0,0.0,0.0,0,0,0,0
8816000,47.3977421,8.5455939,0.0,0.0,0.0,0.0,0.0,0.0,0.0,0.0,0.0,0.0,0,0,0,0
8912000,47.3977419,8.5455939,0.0,0.0,0.0,0.0,0.0,0.0,0.0,0.0,0.0,0.0,0,0,0,0
9008000,47.3977419,8.5455938,0.0,0.0,0.0,0.0,0.0,0.0,0.0,0.0,0.0,0.0,0,0,0,0
9104000,47.3977419,8.545594,0.0,0.0,0.0,0.0,0.0,0.0,0.0,0.0,0.0,0.0,0,0,0,0
9200000,47.3977421,8.5455939,0.0,0.0,0.0,0.0,0.0,0.0,0.0,0.0,0.0,0.0,0,0,0,0
9296000,47.397742,8.5455937,0.0,0.0,0.0,0.0,0.0,0.0,0.0,0.0,0.0,0.0,0,0,0,0
9392000,47.3977418,8.5455939,0.0,0.0,0.0,0.0,0.0,0.0,0.0,0.0,0.0,0.0,0,0,0,0
9488000,47.3977419,8.5455939,0.0,0.0,0.0,0.0,0.0,0.0,0.0,0.0,0.0,0.0,0,0,0,0
9584000,47.397742,8.5455939,0.0,0.0,0.0,0.0,0.0,0.0,0.0,0.0,0.0,0.0,0,0,0,0
9680000,47.3977418,8.545594,0.0,0.0,0.0,0.0,0.0,0.0,0.0,0.0,0.0,0.0,0,0,0,0
9776000,47.397742,8.545594,0.0,0.0,0.0,0.0,0.0,0.0,0.0,0.0,0.0,0.0,0,0,0,0
9872000,47.397742,8.5455942,0.0,0.0,0.0,0.0,0.0,0.0,0.0,0.0,0.0,0.0,0,0,0,0
9968000,47.3977419,8.5455941,0.0,0.0,0.0,0.0,0.0,0.0,0.0,0.0,0.0,0.0,0,0,0,0
10064000,47.3977422,8.545594,0.0,0.0,0.0,0.0,0.0,0.0,0.0,0.0,0.0,0.0,0,0,0,0
10160000,47.3977421,8.5455941,0.0,0.0,0.0,0.0,0.0,0.0,0.0,0.0,0.0,0.0,0,0,0,0
10256000,47.3977421,8.5455939,0.0,0.0,0.0,0.0,0.0,0.0,0.0,0.0,0.0,0.0,0,0,0,0
10352000,47.3977422,8.545594,0.0,0.0,0.0,0.0,0.0,0.0,0.0,0.0,0.0,0.0,0,0,0,0
10448000,47.397742,8.5455942,0.0,0.0,0.0,0.0,0.0,0.0,0.0,0.0,0.0,0.0,0,0,0,0
10544000,47.3977419,8.5455941,0.0,0.0,0.0,0.0,0.0,0.0,0.0,0.0,0.0,0.0,0,0,0,0
10640000,47.3977419,8.545594,0.0,0.0,0.0,0.0,0.0,0.0,0.0,0.0,0.0,0.0,0,0,0,0
10736000,47.3977419,8.545594,0.0,0.0,0.0,0.0,0.0,0.0,0.0,0.0,0.0,0.0,0,0,0,0
10832000,47.3977421,8.545594,0.0,0.0,0.0,0.0,0.0,0.0,0.0,0.0,0.0,0.0,0,0,0,0
10928000,47.397742,8.5455941,0.0,0.0,0.0,0.0,0.0,0.0,0.0,0.0,0.0,0.0,0,0,0,0
11024000,47.397742,8.5455941,0.0,0.0,0.0,0.0,0.0,0.0,0.0,0.0,0.0,0.0,0,0,0,0
11120000,47.397742,8.5455941,0.0,0.0,0.0,0.0,0.0,0.0,0.0,0.0,0.0,0.0,0,0,0,0
11216000,47.3977421,8.5455941,0.0,0.0,0.0,0.0,0.0,0.0,0.0,0.0,0.0,0.0,0,0,0,0
11312000,47.3977421,8.5455941,0.0,0.0,0.0,0.0,0.0,0.0,0.0,0.0,0.0,0.0,0,0,0,0
11408000,47.3977418,8.5455939,0.0,0.0,0.0,0.0,0.0,0.0,0.0,0.0,0.0,0.0,0,0,0,0
11504000,47.397742,8.5455938,0.0,0.0,0.0,0.0,0.0,0.0,0.0,0.0,0.0,0.0,0,0,0,0
11600000,47.3977419,8.5455941,0.0,0.0,0.0,0.0,0.0,0.0,0.0,0.0,0.0,0.0,0,0,0,0
11696000,47.3977419,8.545594,0.0,0.0,0.0,0.0,0.0,0.0,0.0,0.0,0.0,0.0,0,0,0,0
11792000,47.3977419,8.545594,0.0,0.0,0.0,0.0,0.0,0.0,0.0,0.0,0.0,0.0,0,0,0,0
11888000,47.3977419,8.5455939,0.0,0.0,0.0,0.0,0.0,0.0,0.0,0.0,0.0,0.0,0,0,0,0
11984000,47.3977421,8.5455943,0.0,0.0,0.0,0.0,0.0,0.0,0.0,0.0,0.0,0.0,0,0,0,0
12080000,47.3977419,8.5455941,0.0,0.0,0.0,0.0,0.0,0.0,0.0,0.0,0.0,0.0,0,0,0,0
12176000,47.3977419,8.5455942,0.0,0.0,0.0,0.0,0.0,0.0,0.0,0.0,0.0,0.0,0,0,0,0
12272000,47.3977419,8.5455939,0.0,0.0,0.0,0.0,0.0,0.0,0.0,0.0,0.0,0.0,0,0,0,0
12368000,47.3977418,8.5455939,0.0,0.0,0.0,0.0,0.0,0.0,0.0,0.0,0.0,0.0,0,0,0,0
12464000,47.3977418,8.5455939,0.0,0.0,0.0,0.0,0.0,0.0,0.0,0.0,0.0,0.0,0,0,0,0
12560000,47.3977418,8.5455939,0.0,0.0,0.0,0.0,0.0,0.0,0.0,0.0,0.0,0.0,0,0,0,0
12656000,47.3977419,8.5455936,0.0,0.0,0.0,0.0,0.0,0.0,0.0,0.0,0.0,0.0,0,0,0,0
12752000,47.3977419,8.5455938,0.0,0.0,0.0,0.0,0.0,0.0,0.0,0.0,0.0,0.0,0,0,0,0
12848000,47.397742,8.5455941,0.0,0.0,0.0,0.0,0.0,0.0,0.0,0.0,0.0,0.0,0,0,0,0
12944000,47.397742,8.5455939,0.0,0.0,0.0,0.0,0.0,0.0,0.0,0.0,0.0,0.0,0,0,0,0
13040000,47.3977419,8.5455939,0.0,0.0,0.0,0.0,0.0,0.0,0.0,0.0,0.0,0.0,0,0,0,0
13136000,47.397742,8.5455939,0.0,0.0,0.0,0.0,0.0,0.0,0.0,0.0,0.0,0.0,0,0,0,0
13232000,47.397742,8.5455941,0.0,0.0,0.0,0.0,0.0,0.0,0.0,0.0,0.0,0.0,0,0,0,0
13328000,47.3977419,8.5455942,0.0,0.0,0.0,0.0,0.0,0.0,0.0,0.0,0.0,0.0,0,0,0,0
13424000,47.3977419,8.545594,0.0,0.0,0.0,0.0,0.0,0.0,0.0,0.0,0.0,0.0,0,0,0,0
13520000,47.3977417,8.545594,0.0,0.0,0.0,0.0,0.0,0.0,0.0,0.0,0.0,0.0,0,0,0,0
13616000,47.3977419,8.5455941,0.0,0.0,0.0,0.0,0.0,0.0,0.0,0.0,0.0,0.0,0,0,0,0
13712000,47.397742,8.545594,0.0,0.0,0.0,0.0,0.0,0.0,0.0,0.0,0.0,0.0,0,0,0,0
13808000,47.397742,8.5455942,0.0,0.0,0.0,0.0,0.0,0.0,0.0,0.0,0.0,0.0,0,0,0,0
13904000,47.3977419,8.545594,0.0,0.0,0.0,0.0,0.0,0.0,0.0,0.0,0.0,0.0,0,0,0,0
14000000,47.3977419,8.545594,0.0,0.0,0.0,0.0,0.0,0.0,0.0,0.0,0.0,0.0,0,0,0,0
14096000,47.397742,8.545594,0.0,0.0,0.0,0.0,0.0,0.0,0.0,0.0,0.0,0.0,0,0,0,0
14192000,47.3977421,8.5455939,0.0,0.0,0.0,0.0,0.0,0.0,0.0,0.0,0.0,0.0,0,0,0,0
14288000,47.3977419,8.545594,0.0,0.0,0.0,0.0,0.0,0.0,0.0,0.0,0.0,0.0,0,0,0,0
14384000,47.3977419,8.5455938,0.0,0.0,0.0,0.0,0.0,0.0,0.0,0.0,0.0,0.0,0,0,0,0
14480000,47.3977419,8.5455936,0.0,0.0,0.0,0.0,0.0,0.0,0.0,0.0,0.0,0.0,0,0,0,0
14576000,47.397742,8.5455936,0.0,0.0,0.0,0.0,0.0,0.0,0.0,0.0,0.0,0.0,0,0,0,0
14672000,47.397742,8.5455939,0.0,0.0,0.0,0.0,0.0,0.0,0.0,0.0,0.0,0.0,0,0,0,0
14768000,47.3977421,8.5455938,0.0,0.0,0.0,0.0,0.0,0.0,0.0,0.0,0.0,0.0,0,0,0,0
14864000,47.397742,8.5455939,0.0,0.0,0.0,0.0,0.0,0.0,0.0,0.0,0.0,0.0,0,0,0,0
14960000,47.3977419,8.545594,0.0,0.0,0.0,0.0,0.0,0.0,0.0,0.0,0.0,0.0,0,0,0,0
15056000,47.3977418,8.5455939,0.0,0.0,0.0,0.0,0.0,0.0,0.0,0.0,0.0,0.0,0,0,0,0
15152000,47.3977419,8.5455942,0.0,0.0,0.0,0.0,0.0,0.0,0.0,0.0,0.0,0.0,0,0,0,0
15248000,47.3977419,8.5455941,0.0,0.0,0.0,0.0,0.0,0.0,0.0,0.0,0.0,0.0,0,0,0,0
15344000,47.3977418,8.545594,0.0,0.0,0.0,0.0,0.0,0.0,0.0,0.0,0.0,0.0,0,0,0,0
15440000,47.3977419,8.5455939,0.0,0.0,0.0,0.0,0.0,0.0,0.0,0.0,0.0,0.0,0,0,0,0
15536000,47.3977418,8.5455939,0.0,0.0,0.0,0.0,0.0,0.0,0.0,0.0,0.0,0.0,0,0,0,0
15632000,47.397742,8.5455939,0.0,0.0,0.0,0.0,0.0,0.0,0.0,0.0,0.0,0.0,0,0,0,0
15728000,47.397742,8.545594,0.0,0.0,0.0,0.0,0.0,0.0,0.0,0.0,0.0,0.0,0,0,0,0
15824000,47.397742,8.5455938,0.0,0.0,0.0,0.0,0.0,0.0,0.0,0.0,0.0,0.0,0,0,0,0
15920000,47.3977419,8.5455938,0.0,0.0,0.0,0.0,0.0,0.0,0.0,0.0,0.0,0.0,0,0,0,0
16016000,47.3977421,8.5455939,0.0,0.0,0.0,0.0,0.0,0.0,0.0,0.0,0.0,0.0,0,0,0,0
16112000,47.3977421,8.545594,0.0,0.0,0.0,0.0,0.0,0.0,0.0,0.0,0.0,0.0,0,0,0,0
16208000,47.397742,8.5455938,0.0,0.0,0.0,0.0,0.0,0.0,0.0,0.0,0.0,0.0,0,0,0,0
16304000,47.397742,8.5455937,0.0,0.0,0.0,0.0,0.0,0.0,0.0,0.0,0.0,0.0,0,0,0,0
16400000,47.397742,8.5455939,0.0,0.0,0.0,0.0,0.0,0.0,0.0,0.0,0.0,0.0,0,0,0,0
16496000,47.397742,8.5455939,0.0,0.0,0.0,0.0,0.0,0.0,0.0,0.0,0.0,0.0,0,0,0,0
16592000,47.397742,8.5455938,0.0,0.0,0.0,0.0,0.0,0.0,0.0,0.0,0.0,0.0,0,0,0,0
16688000,47.3977419,8.5455939,0.0,0.0,0.0,0.0,0.0,0.0,0.0,0.0,0.0,0.0,0,0,0,0
16784000,47.3977418,8.545594,0.0,0.0,0.0,0.0,0.0,0.0,0.0,0.0,0.0,0.0,0,0,0,0
16880000,47.397742,8.5455942,0.0,0.0,0.0,0.0,0.0,0.0,0.0,0.0,0.0,0.0,0,0,0,0
16976000,47.3977418,8.5455943,0.0,0.0,0.0,0.0,0.0,0.0,0.0,0.0,0.0,0.0,0,0,0,0
17072000,47.3977417,8.5455941,0.0,0.0,0.0,0.0,0.0,0.0,0.0,0.0,0.0,0.0,0,0,0,0
17168000,47.3977419,8.545594,0.0,0.0,0.0,0.0,0.0,0.0,0.0,0.0,0.0,0.0,0,0,0,0
17264000,47.3977418,8.5455938,0.0,0.0,0.0,0.0,0.0,0.0,0.0,0.0,0.0,0.0,0,0,0,0
17360000,47.3977419,8.545594,0.0,0.0,0.0,0.0,0.0,0.0,0.0,0.0,0.0,0.0,0,0,0,0
17456000,47.397742,8.5455939,0.0,0.0,0.0,0.0,0.0,0.0,0.0,0.0,0.0,0.0,0,0,0,0
17552000,47.3977419,8.5455941,0.0,0.0,0.0,0.0,0.0,0.0,0.0,0.0,0.0,0.0,0,0,0,0
17648000,47.3977418,8.5455938,0.0,0.0,0.0,0.0,0.0,0.0,0.0,0.0,0.0,0.0,0,0,0,0
17744000,47.397742,8.545594,0.0,0.0,0.0,0.0,0.0,0.0,0.0,0.0,0.0,0.0,0,0,0,0
17840000,47.3977419,8.5455938,0.0,0.0,0.0,0.0,0.0,0.0,0.0,0.0,0.0,0.0,0,0,0,0
17936000,47.3977418,8.545594,0.0,0.0,0.0,0.0,0.0,0.0,0.0,0.0,0.0,0.0,0,0,0,0
18032000,47.397742,8.5455941,0.0,0.0,0.0,0.0,0.0,0.0,0.0,0.0,0.0,0.0,0,0,0,0
18128000,47.397742,8.5455941,0.0,0.0,0.0,0.0,0.0,0.0,0.0,0.0,0.0,0.0,0,0,0,0
18224000,47.3977419,8.545594,0.0,0.0,0.0,0.0,0.0,0.0,0.0,0.0,0.0,0.0,0,0,0,0
18320000,47.3977418,8.545594,0.0,0.0,0.0,0.0,0.0,0.0,0.0,0.0,0.0,0.0,0,0,0,0
18416000,47.3977419,8.5455939,0.0,0.0,0.0,0.0,0.0,0.0,0.0,0.0,0.0,0.0,0,0,0,0
18512000,47.3977419,8.545594,0.0,0.0,0.0,0.0,0.0,0.0,0.0,0.0,0.0,0.0,0,0,0,0
18608000,47.3977418,8.545594,0.0,0.0,0.0,0.0,0.0,0.0,0.0,0.0,0.0,0.0,0,0,0,0
18704000,47.3977419,8.5455939,-0.002,0.0,0.0,0.0,0.0,-0.06,0.0,0.0,0.0,0.0,0,0,0,0
18800000,47.3977418,8.545594,-0.013,0.0,0.0,0.0,-0.01,-0.18,0.0,0.0,0.0,0.0,0,0,0,0
18896000,47.3977419,8.5455938,-0.036,0.0,0.0,0.0,-0.02,-0.3,0.0,0.0,0.0,0.0,0,0,0,0
18992000,47.397742,8.5455938,-0.072,0.0,0.0,0.0,-0.02,-0.43,0.0,0.0,0.0,0.0,0,0,0,0
19088000,47.3977419,8.5455937,-0.119,0.0,0.0,0.0,-0.03,-0.56,0.0,0.0,0.0,0.0,0,0,0,0
19184000,47.3977418,8.5455937,-0.179,0.0,0.0,0.0,-0.03,-0.68,0.0,0.0,0.0,0.0,0,0,0,0
19280000,47.3977419,8.5455938,-0.251,0.0,0.0,0.0,-0.03,-0.81,0.0,0.0,0.0,0.0,0,0,0,0
19376000,47.3977419,8.5455935,-0.336,0.0,0.0,0.0,-0.02,-0.94,0.0,0.0,0.0,0.0,0,0,0,0
19472000,47.397742,8.5455934,-0.433,0.0,0.0,0.0,-0.02,-1.07,0.0,0.0,0.0,0.0,0,0,0,0
19568000,47.3977421,8.5455935,-0.542,0.0,0.0,0.0,-0.02,-1.2,0.0,0.0,0.0,0.0,0,0,0,0
19664000,47.397742,8.5455935,-0.664,0.0,0.0,0.0,-0.01,-1.33,0.0,0.0,0.0,0.0,0,0,0,0
19760000,47.3977419,8.5455933,-0.798,0.0,0.0,0.0,-0.01,-1.46,0.0,0.0,0.0,0.0,0,0,0,0
19856000,47.397742,8.5455934,-0.945,0.0,0.0,0.0,-0.01,-1.6,0.0,0.0,0.0,0.0,0,0,0,0
19952000,47.3977419,8.5455937,-1.105,0.0,0.0,0.0,-0.01,-1.73,0.0,0.0,0.0,0.0,0,0,0,0
20048000,47.3977418,8.5455937,-1.278,0.0,0.0,0.0,0.0,-1.86,0.0,0.0,0.0,0.0,0,0,0,0
20144000,47.3977418,8.5455938,-1.463,0.0,0.0,0.0,0.0,-1.99,0.0,0.0,0.0,0.0,0,0,0,0
20240000,47.3977418,8.5455936,-1.66,0.0,0.0,0.0,0.0,-2.12,0.0,0.0,0.0,0.0,0,0,0,0
20336000,47.3977418,8.5455934,-1.87,0.0,0.0,0.0,0.0,-2.24,0.0,0.0,0.0,0.0,0,0,0,0
20432000,47.397742,8.5455935,-2.091,0.0,0.0,0.0,0.0,-2.37,0.0,0.0,0.0,0.0,0,0,0,0
20528000,47.3977419,8.5455936,-2.324,0.0,0.0,0.0,0.0,-2.49,0.0,0.0,0.0,0.0,0,0,0,0
20624000,47.3977418,8.5455936,-2.568,0.0,0.0,0.0,0.0,-2.55,0.0,0.0,0.0,0.0,0,0,0,0
20720000,47.3977419,8.5455938,-2.81,0.0,0.0,0.0,0.0,-2.47,0.0,0.0,0.0,0.0,0,0,0,0
20816000,47.397742,8.5455935,-3.043,0.0,0.0,0.0,0.0,-2.37,0.0,0.0,0.0,0.0,0,0,0,0
20912000,47.397742,8.5455936,-3.267,0.0,0.0,0.0,0.01,-2.28,0.0,0.0,0.0,0.0,0,0,0,0
21008000,47.397742,8.5455937,-3.483,0.0,0.0,0.0,0.01,-2.2,0.0,0.0,0.0,0.0,0,0,0,0
21104000,47.397742,8.5455936,-3.692,0.0,0.0,0.0,0.0,-2.13,0.0,0.0,0.0,0.0,0,0,0,0
21200000,47.3977419,8.5455937,-3.893,0.0,0.0,0.0,0.0,-2.05,0.0,0.0,0.0,0.0,0,0,0,0
21296000,47.3977419,8.5455936,-4.087,0.0,0.0,0.0,0.0,-1.98,0.0,0.0,0.0,0.0,0,0,0,0
21392000,47.3977419,8.5455937,-4.274,0.0,0.0,0.0,0.0,-1.92,0.0,0.0,0.0,0.0,0,0,0,0
21488000,47.3977418,8.5455938,-4.456,0.0,0.0,0.0,0.0,-1.86,0.0,0.0,0.0,0.0,0,0,0,0
21584000,47.3977419,8.5455938,-4.633,0.0,0.0,0.0,0.0,-1.81,0.0,0.0,0.0,0.0,0,0,0,0
21680000,47.3977418,8.5455936,-4.805,0.0,0.0,0.0,0.0,-1.76,0.0,0.0,0.0,0.0,0,0,0,0
21776000,47.3977418,8.5455938,-4.973,0.0,0.0,0.0,0.0,-1.73,0.0,0.0,0.0,0.0,0,0,0,0
21872000,47.3977417,8.5455938,-5.138,0.0,0.0,0.0,0.0,-1.69,0.0,0.0,0.0,0.0,0,0,0,0
21968000,47.3977418,8.5455939,-5.3,0.0,0.0,0.0,0.0,-1.67,0.0,0.0,0.0,0.0,0,0,0,0
22064000,47.3977419,8.5455939,-5.459,0.0,0.0,0.0,0.0,-1.64,0.0,0.0,0.0,0.0,0,0,0,0
22160000,47.3977417,8.5455938,-5.615,0.0,0.0,0.0,0.0,-1.61,0.0,0.0,0.0,0.0,0,0,0,0
22256000,47.3977418,8.5455939,-5.77,0.0,0.0,0.0,0.0,-1.6,0.0,0.0,0.0,0.0,0,0,0,0
22352000,47.3977418,8.5455939,-5.923,0.0,0.0,0.0,0.0,-1.58,0.0,0.0,0.0,0.0,0,0,0,0
22448000,47.3977418,8.5455938,-6.074,0.0,0.0,0.0,0.0,-1.56,0.0,0.0,0.0,0.0,0,0,0,0
22544000,47.3977419,8.5455937,-6.223,0.0,0.0,0.0,0.0,-1.55,0.0,0.0,0.0,0.0,0,0,0,0
22640000,47.3977419,8.5455939,-6.372,0.0,0.0,0.0,0.0,-1.54,0.0,0.0,0.0,0.0,0,0,0,0
22736000,47.3977418,8.545594,-6.52,0.0,0.0,0.0,0.0,-1.53,0.0,0.0,0.0,0.0,0,0,0,0
22832000,47.3977419,8.5455938,-6.667,0.0,0.0,0.0,0.0,-1.52,0.0,0.0,0.0,0.0,0,0,0,0
22928000,47.3977419,8.5455939,-6.814,0.0,0.0,0.0,0.0,-1.52,0.0,0.0,0.0,0.0,0,0,0,0
23024000,47.3977419,8.5455937,-6.96,0.0,0.0,0.0,0.0,-1.52,0.0,0.0,0.0,0.0,0,0,0,0
23120000,47.3977419,8.5455936,-7.106,0.0,0.0,0.0,0.0,-1.51,0.0,0.0,0.0,0.0,0,0,0,0
23216000,47.3977419,8.5455935,-7.251,0.0,0.0,0.0,0.0,-1.51,0.0,0.0,0.0,0.0,0,0,0,0
23312000,47.397742,8.5455937,-7.396,0.0,0.0,0.01,0.0,-1.51,0.0,0.0,0.0,0.0,0,0,0,0
23408000,47.3977419,8.5455935,-7.541,0.0,0.0,0.01,0.0,-1.5,0.0,0.0,0.0,0.0,0,0,0,0
23504000,47.3977418,8.5455936,-7.686,0.0,0.0,0.01,0.01,-1.5,0.0,0.0,0.0,0.0,0,0,0,0
23600000,47.397742,8.5455937,-7.83,0.0,0.0,0.01,0.01,-1.5,0.0,0.0,0.0,0.0,0,0,0,0
23696000,47.3977419,8.5455937,-7.975,0.0,0.0,0.01,0.01,-1.5,0.0,0.0,0.0,0.0,0,0,0,0
23792000,47.3977418,8.5455939,-8.119,0.0,0.0,0.01,0.01,-1.49,0.0,0.0,0.0,0.0,0,0,0,0
23888000,47.3977419,8.5455939,-8.263,0.0,0.0,0.01,0.02,-1.49,0.0,0.0,0.0,0.0,0,0,0,0
23984000,47.397742,8.5455939,-8.406,0.0,0.0,0.01,0.02,-1.49,0.0,0.0,0.0,0.0,0,0,0,0
24080000,47.3977419,8.545594,-8.55,0.0,0.0,0.02,0.02,-1.49,0.0,0.0,0.0,0.0,0,0,0,0
24176000,47.3977419,8.5455938,-8.694,0.0,0.0,0.02,0.02,-1.49,0.0,0.0,0.0,0.0,0,0,0,0
24272000,47.3977419,8.5455939,-8.837,0.0,0.0,0.02,0.02,-1.49,0.0,0.0,0.0,0.0,0,0,0,0
24368000,47.3977419,8.5455942,-8.981,0.0,0.0,0.02,0.02,-1.5,0.0,0.0,0.0,0.0,0,0,0,0
24464000,47.397742,8.5455942,-9.125,0.0,0.0,0.02,0.02,-1.5,0.0,0.0,0.0,0.0,0,0,0,0
24560000,47.397742,8.5455942,-9.27,0.0,0.0,0.02,0.02,-1.5,0.0,0.0,0.0,0.0,0,0,0,0
24656000,47.397742,8.5455942,-9.414,0.0,0.0,0.02,0.03,-1.5,0.0,0.0,0.0,0.0,0,0,0,0
24752000,47.3977421,8.5455941,-9.558,0.0,0.0,0.02,0.03,-1.5,0.0,0.0,0.0,0.0,0,0,0,0
24848000,47.3977421,8.5455942,-9.702,0.0,0.0,0.02,0.03,-1.5,0.0,0.0,0.0,0.0,0,0,0,0
24944000,47.3977418,8.5455942,-9.847,0.0,0.0,0.02,0.02,-1.5,0.0,0.0,0.0,0.0,0,0,0,0
25040000,47.3977419,8.5455944,-9.991,0.0,0.0,0.02,0.02,-1.5,0.0,0.0,0.0,0.0,0,0,0,0
25136000,47.397742,8.5455944,-10.136,0.0,0.0,0.02,0.02,-1.5,0.0,0.0,0.0,0.0,0,0,0,0
25232000,47.3977421,8.5455945,-10.282,0.0,0.0,0.02,0.02,-1.55,0.0,0.0,0.0,0.0,0,0,0,0
25328000,47.397742,8.5455945,-10.436,0.0,0.0,0.02,0.01,-1.67,0.0,0.0,0.0,0.0,0,0,0,0
25424000,47.3977422,8.5455943,-10.605,0.0,0.0,0.02,0.01,-1.87,0.0,0.0,0.0,0.0,0,0,0,0
25520000,47.3977422,8.5455945,-10.798,0.0,0.0,0.02,0.01,-2.15,0.0,0.0,0.0,0.0,0,0,0,0
25616000,47.3977423,8.5455944,-11.019,0.0,0.0,0.02,0.01,-2.48,0.0,0.0,0.0,0.0,0,0,0,0
25712000,47.3977423,8.5455944,-11.271,0.0,0.0,0.03,0.0,-2.76,0.0,0.0,0.0,0.0,0,0,0,0
25808000,47.3977424,8.5455946,-11.546,0.0,0.0,0.03,0.0,-2.97,0.0,0.0,0.0,0.0,0,0,0,0
25904000,47.3977425,8.5455945,-11.836,0.0,0.0,0.03,0.0,-3.04,0.0,0.0,0.0,0.0,0,0,0,0
26000000,47.3977423,8.5455946,-12.13,0.0,0.0,0.03,0.0,-3.06,0.0,0.0,0.0,0.0,0,0,0,0
26096000,47.3977423,8.5455946,-12.424,0.0,0.0,0.03,0.0,-3.07,0.0,0.0,0.0,0.0,0,0,0,0
26192000,47.3977424,8.5455948,-12.719,0.0,0.0,0.03,0.0,-3.07,0.0,0.0,0.0,0.0,0,0,0,0
26288000,47.3977426,8.5455946,-13.015,0.0,0.0,0.02,0.0,-3.08,0.0,0.0,0.0,0.0,0,0,0,0
26384000,47.3977424,8.5455945,-13.311,0.0,0.0,0.02,0.0,-3.08,0.0,0.0,0.0,0.0,0,0,0,0
26480000,47.3977426,8.5455944,-13.607,0.0,0.0,0.02,0.0,-3.08,0.0,0.0,0.0,0.0,0,0,0,0
26576000,47.3977426,8.5455945,-13.903,0.0,0.0,0.02,0.0,-3.07,0.0,0.0,0.0,0.0,0,0,0,0
26672000,47.3977425,8.5455946,-14.198,0.0,0.0,0.01,0.0,-3.07,0.0,0.0,0.0,0.0,0,0,0,0
26768000,47.3977426,8.5455945,-14.492,0.0,0.0,0.01,0.0,-3.06,0.0,0.0,0.0,0.0,0,0,0,0
26864000,47.3977426,8.5455946,-14.786,0.0,0.0,0.01,0.0,-3.05,0.0,0.0,0.0,0.0,0,0,0,0
26960000,47.3977425,8.5455945,-15.079,0.0,0.0,0.0,0.0,-3.04,0.0,0.0,0.0,0.0,0,0,0,0
27056000,47.3977425,8.5455944,-15.371,0.0,0.0,0.0,0.0,-3.04,0.0,0.0,0.0,0.0,0,0,0,0
27152000,47.3977425,8.5455945,-15.663,0.0,0.0,0.0,0.0,-3.03,0.0,0.0,0.0,0.0,0,0,0,0
27248000,47.3977426,8.5455945,-15.953,0.0,0.0,0.0,0.0,-3.02,0.0,0.0,0.0,0.0,0,0,0,0
27344000,47.3977426,8.5455944,-16.244,0.0,0.0,0.0,0.0,-3.01,0.0,0.0,0.0,0.0,0,0,0,0
27440000,47.3977426,8.5455948,-16.533,0.0,0.0,0.0,0.0,-3.01,0.0,0.0,0.0,0.0,0,0,0,0
27536000,47.3977424,8.5455944,-16.822,0.0,0.0,0.0,0.0,-3.0,0.0,0.0,0.0,0.0,0,0,0,0
27632000,47.3977425,8.5455945,-17.111,0.0,0.0,0.0,0.0,-3.0,0.0,0.0,0.0,0.0,0,0,0,0
27728000,47.3977426,8.5455943,-17.399,0.0,0.0,-0.01,0.0,-3.0,0.0,0.0,0.0,0.0,0,0,0,0
27824000,47.3977426,8.5455941,-17.687,0.0,0.0,-0.01,0.0,-3.0,0.0,0.0,0.0,0.0,0,0,0,0
27920000,47.3977425,8.5455943,-17.976,0.0,0.0,-0.01,0.0,-2.99,0.0,0.0,0.0,0.0,0,0,0,0
28016000,47.3977426,8.5455947,-18.263,0.0,0.0,-0.01,0.0,-2.99,0.0,0.0,0.0,0.0,0,0,0,0
28112000,47.3977424,8.5455946,-18.551,0.0,0.0,-0.01,0.0,-2.99,0.0,0.0,0.0,0.0,0,0,0,0
28208000,47.3977425,8.5455943,-18.839,0.0,0.0,-0.02,0.0,-2.99,0.0,0.0,0.0,0.0,0,0,0,0
28304000,47.3977425,8.5455942,-19.126,0.0,0.0,-0.02,0.0,-2.99,0.0,0.0,0.0,0.0,0,0,0,0
28400000,47.3977423,8.5455944,-19.414,0.0,0.0,-0.02,0.0,-2.99,0.0,0.0,0.0,0.0,0,0,0,0
28496000,47.3977423,8.5455944,-19.702,0.0,0.0,-0.02,0.0,-2.99,0.0,0.0,0.0,0.0,0,0,0,0
28592000,47.3977423,8.5455942,-19.989,0.0,0.0,-0.02,0.0,-2.99,0.0,0.0,0.0,0.0,0,0,0,0
28688000,47.3977424,8.5455944,-20.277,0.0,0.0,-0.02,0.0,-2.99,0.0,0.0,0.0,0.0,0,0,0,0
28784000,47.3977424,8.5455942,-20.565,0.0,0.0,-0.02,0.0,-2.99,0.0,0.0,0.0,0.0,0,0,0,0
28880000,47.3977424,8.5455942,-20.852,0.0,0.0,-0.02,0.0,-2.99,0.0,0.0,0.0,0.0,0,0,0,0
28976000,47.3977424,8.5455943,-21.14,0.0,0.0,-0.02,0.0,-2.99,0.0,0.0,0.0,0.0,0,0,0,0
29072000,47.3977424,8.5455942,-21.427,0.0,0.0,-0.02,0.0,-2.99,0.0,0.0,0.0,0.0,0,0,0,0
29168000,47.3977423,8.5455943,-21.714,0.0,0.0,-0.02,0.0,-2.98,0.0,0.0,0.0,0.0,0,0,0,0
29264000,47.3977423,8.5455944,-22.001,0.0,0.0,-0.02,0.0,-2.98,0.0,0.0,0.0,0.0,0,0,0,0
29360000,47.3977422,8.5455945,-22.287,0.0,0.0,-0.02,0.0,-2.97,0.0,0.0,0.0,0.0,0,0,0,0
29456000,47.3977423,8.5455942,-22.573,0.0,0.0,-0.02,0.0,-2.97,0.0,0.0,0.0,0.0,0,0,0,0
29552000,47.3977421,8.5455946,-22.859,0.0,0.0,-0.02,0.0,-2.97,0.0,0.0,0.0,0.0,0,0,0,0
29648000,47.3977422,8.5455943,-23.144,0.0,0.0,-0.02,0.0,-2.97,0.0,0.0,0.0,0.0,0,0,0,0
29744000,47.3977421,8.5455943,-23.43,0.0,0.0,-0.02,0.0,-2.97,0.0,0.0,0.0,0.0,0,0,0,0
29840000,47.397742,8.5455942,-23.716,0.0,0.0,-0.01,0.0,-2.98,0.0,0.0,0.0,0.0,0,0,0,0
29936000,47.3977421,8.5455942,-24.002,0.0,0.0,-0.01,0.0,-2.98,0.0,0.0,0.0,0.0,0,0,0,0
30032000,47.3977421,8.5455941,-24.289,0.0,0.0,-0.01,-0.01,-2.99,0.0,0.0,0.0,0.0,0,0,0,0
30128000,47.3977421,8.545594,-24.576,0.0,0.0,-0.01,-0.01,-2.99,0.0,0.0,0.0,0.0,0,0,0,0
30224000,47.3977422,8.5455939,-24.863,0.0,0.0,-0.01,-0.01,-2.98,0.0,0.0,0.0,0.0,0,0,0,0
30320000,47.3977422,8.545594,-25.15,0.0,0.0,0.0,-0.01,-2.99,0.0,0.0,0.0,0.0,0,0,0,0
30416000,47.3977422,8.5455943,-25.438,0.0,0.0,0.0,-0.01,-2.99,0.0,0.0,0.0,0.0,0,0,0,0
30512000,47.397742,8.5455942,-25.725,0.0,0.0,0.0,-0.01,-2.99,0.0,0.0,0.0,0.0,0,0,0,0
30608000,47.397742,8.5455941,-26.012,0.0,0.0,0.0,-0.01,-2.98,0.0,0.0,0.0,0.0,0,0,0,0
30704000,47.3977421,8.545594,-26.299,0.0,0.0,0.0,-0.01,-2.98,0.0,0.0,0.0,0.0,0,0,0,0
30800000,47.397742,8.5455939,-26.585,0.0,0.0,0.0,-0.01,-2.98,0.0,0.0,0.0,0.0,0,0,0,0
30896000,47.3977419,8.5455941,-26.872,0.0,0.0,0.0,-0.01,-2.98,0.0,0.0,0.0,0.0,0,0,0,0
30992000,47.3977421,8.545594,-27.159,0.0,0.0,0.0,-0.01,-2.98,0.0,0.0,0.0,0.0,0,0,0,0
31088000,47.397742,8.545594,-27.445,0.0,0.0,0.0,-0.01,-2.98,0.0,0.0,0.0,0.0,0,0,0,0
31184000,47.3977419,8.545594,-27.732,0.0,0.0,0.0,-0.01,-2.98,0.0,0.0,0.0,0.0,0,0,0,0
31280000,47.3977419,8.5455941,-28.018,0.0,0.0,0.0,-0.01,-2.98,0.0,0.0,0.0,0.0,0,0,0,0
31376000,47.397742,8.5455939,-28.304,0.0,0.0,0.0,-0.01,-2.98,0.0,0.0,0.0,0.0,0,0,0,0
31472000,47.397742,8.5455941,-28.59,0.0,0.0,0.0,0.0,-2.98,0.0,0.0,0.0,0.0,0,0,0,0
31568000,47.397742,8.5455943,-28.876,0.0,0.0,0.0,0.0,-2.98,0.0,0.0,0.0,0.0,0,0,0,0
31664000,47.3977419,8.5455942,-29.163,0.0,0.0,0.0,0.0,-2.98,0.0,0.0,0.0,0.0,0,0,0,0
31760000,47.397742,8.5455941,-29.449,0.0,0.0,0.0,0.0,-2.98,0.0,0.0,0.0,0.0,0,0,0,0
31856000,47.397742,8.5455941,-29.736,0.0,0.0,0.0,0.0,-2.98,0.0,0.0,0.0,0.0,0,0,0,0
31952000,47.397742,8.545594,-30.022,0.0,0.0,0.0,0.0,-2.98,0.0,0.0,0.0,0.0,0,0,0,0
32048000,47.397742,8.5455939,-30.309,0.0,0.0,0.0,0.0,-2.98,0.0,0.0,0.0,0.0,0,0,0,0
32144000,47.3977421,8.5455937,-30.596,0.0,0.0,0.01,0.0,-2.98,0.0,0.0,0.0,0.0,0,0,0,0
32240000,47.397742,8.5455938,-30.883,0.0,0.0,0.01,0.0,-2.98,0.0,0.0,0.0,0.0,0,0,0,0
32336000,47.397742,8.5455939,-31.169,0.0,0.0,0.01,0.01,-2.98,0.0,0.0,0.0,0.0,0,0,0,0
32432000,47.3977419,8.545594,-31.456,0.0,0.0,0.01,0.01,-2.98,0.0,0.0,0.0,0.0,0,0,0,0
32528000,47.3977419,8.5455942,-31.743,0.0,0.0,0.01,0.01,-2.98,0.0,0.0,0.0,0.0,0,0,0,0
32624000,47.3977421,8.5455941,-32.03,0.0,0.0,0.01,0.01,-2.98,0.0,0.0,0.0,0.0,0,0,0,0
32720000,47.3977422,8.545594,-32.317,0.0,0.0,0.01,0.0,-2.98,0.0,0.0,0.0,0.0,0,0,0,0
32816000,47.3977422,8.5455941,-32.604,0.0,0.0,0.01,0.0,-2.99,0.0,0.0,0.0,0.0,0,0,0,0
32912000,47.3977422,8.5455942,-32.891,0.0,0.0,0.01,0.01,-2.99,0.0,0.0,0.0,0.0,0,0,0,0
33008000,47.3977423,8.5455943,-33.178,0.0,0.0,0.01,0.01,-2.98,0.0,0.0,0.0,0.0,0,0,0,0
33104000,47.3977423,8.5455941,-33.465,0.0,0.0,0.01,0.01,-2.98,0.0,0.0,0.0,0.0,0,0,0,0
33200000,47.3977423,8.5455942,-33.752,0.0,0.0,0.01,0.01,-2.99,0.0,0.0,0.0,0.0,0,0,0,0
33296000,47.3977423,8.5455942,-34.04,0.0,0.0,0.01,0.01,-2.99,0.0,0.0,0.0,0.0,0,0,0,0
33392000,47.3977422,8.5455942,-34.327,0.0,0.0,0.01,0.01,-2.99,0.0,0.0,0.0,0.0,0,0,0,0
33488000,47.3977422,8.5455941,-34.615,0.0,0.0,0.01,0.01,-2.99,0.0,0.0,0.0,0.0,0,0,0,0
33584000,47.3977422,8.5455943,-34.902,0.0,0.0,0.01,0.02,-2.99,0.0,0.0,0.0,0.0,0,0,0,0
33680000,47.3977422,8.5455943,-35.189,0.0,0.0,0.01,0.02,-2.99,0.0,0.0,0.0,0.0,0,0,0,0
33776000,47.3977423,8.5455944,-35.477,0.0,0.0,0.01,0.02,-2.99,0.0,0.0,0.0,0.0,0,0,0,0
33872000,47.3977421,8.5455944,-35.765,0.0,0.0,0.0,0.02,-2.99,0.0,0.0,0.0,0.0,0,0,0,0
33968000,47.3977423,8.5455944,-36.052,0.0,0.0,0.0,0.02,-2.99,0.0,0.0,0.0,0.0,0,0,0,0
34064000,47.3977424,8.5455942,-36.34,0.0,0.0,0.0,0.02,-2.99,0.0,0.0,0.0,0.0,0,0,0,0
34160000,47.3977424,8.5455943,-36.628,0.0,0.0,0.0,0.02,-3.0,0.0,0.0,0.0,0.0,0,0,0,0
34256000,47.3977423,8.5455945,-36.917,0.0,0.0,0.0,0.02,-3.0,0.0,0.0,0.0,0.0,0,0,0,0
34352000,47.3977423,8.5455945,-37.205,0.0,0.0,0.0,0.02,-3.0,0.0,0.0,0.0,0.0,0,0,0,0
34448000,47.3977423,8.5455946,-37.493,0.0,0.0,0.0,0.02,-2.99,0.0,0.0,0.0,0.0,0,0,0,0
34544000,47.3977424,8.5455945,-37.78,0.0,0.0,0.0,0.02,-2.99,0.0,0.0,0.0,0.0,0,0,0,0
34640000,47.3977423,8.5455946,-38.068,0.0,0.0,0.0,0.02,-2.99,0.0,0.0,0.0,0.0,0,0,0,0
34736000,47.3977424,8.5455946,-38.356,0.0,0.0,0.0,0.01,-2.99,0.0,0.0,0.0,0.0,0,0,0,0
34832000,47.3977423,8.5455947,-38.643,0.0,0.0,0.0,0.01,-2.99,0.0,0.0,0.0,0.0,0,0,0,0
34928000,47.3977422,8.5455945,-38.931,0.0,0.0,0.0,0.01,-2.99,0.0,0.0,0.0,0.0,0,0,0,0
35024000,47.3977422,8.5455947,-39.218,0.0,0.0,0.0,0.01,-2.99,0.0,0.0,0.0,0.0,0,0,0,0
35120000,47.3977422,8.5455948,-39.506,0.0,0.0,0.0,0.01,-2.99,0.0,0.0,0.0,0.0,0,0,0,0
35216000,47.3977423,8.5455948,-39.793,0.0,0.0,0.0,0.01,-2.99,0.0,0.0,0.0,0.0,0,0,0,0
35312000,47.3977423,8.5455948,-40.081,0.0,0.0,0.0,0.01,-2.99,0.0,0.0,0.0,0.0,0,0,0,0
35408000,47.3977422,8.5455948,-40.368,0.0,0.0,0.0,0.0,-2.99,0.0,0.0,0.0,0.0,0,0,0,0
35504000,47.3977422,8.5455947,-40.655,0.0,0.0,0.0,0.0,-2.99,0.0,0.0,0.0,0.0,0,0,0,0
35600000,47.3977423,8.5455948,-40.942,0.0,0.0,0.0,0.0,-2.99,0.0,0.0,0.0,0.0,0,0,0,0
35696000,47.3977424,8.5455948,-41.23,0.0,0.0,0.0,0.0,-2.99,0.0,0.0,0.0,0.0,0,0,0,0
35792000,47.3977424,8.5455946,-41.517,0.0,0.0,0.0,0.0,-2.99,0.0,0.0,0.0,0.0,0,0,0,0
35888000,47.3977422,8.5455947,-41.804,0.0,0.0,0.0,0.0,-2.99,0.0,0.0,0.0,0.0,0,0,0,0
35984000,47.3977422,8.5455946,-42.092,0.0,0.0,0.0,0.0,-2.99,0.0,0.0,0.0,0.0,0,0,0,0
36080000,47.3977422,8.5455949,-42.379,0.0,0.0,0.0,0.0,-2.99,0.0,0.0,0.0,0.0,0,0,0,0
36176000,47.3977423,8.5455947,-42.666,0.0,0.0,0.0,-0.01,-2.99,0.0,0.0,0.0,0.0,0,0,0,0
36272000,47.3977423,8.5455947,-42.954,0.0,0.0,0.0,-0.01,-2.99,0.0,0.0,0.0,0.0,0,0,0,0
36368000,47.3977422,8.5455948,-43.241,0.0,0.0,0.0,-0.01,-2.99,0.0,0.0,0.0,0.0,0,0,0,0
36464000,47.3977422,8.5455947,-43.528,0.0,0.0,0.01,-0.01,-2.98,0.0,0.0,0.0,0.0,0,0,0,0
36560000,47.3977423,8.5455946,-43.815,0.0,0.0,0.01,-0.01,-2.98,0.0,0.0,0.0,0.0,0,0,0,0
36656000,47.3977424,8.5455945,-44.102,0.0,0.0,0.01,-0.01,-2.98,0.0,0.0,0.0,0.0,0,0,0,0
36752000,47.3977425,8.5455944,-44.389,0.0,0.0,0.01,-0.01,-2.98,0.0,0.0,0.0,0.0,0,0,0,0
36848000,47.3977424,8.5455944,-44.676,0.0,0.0,0.01,-0.01,-2.98,0.0,0.0,0.0,0.0,0,0,0,0
36944000,47.3977423,8.5455944,-44.963,0.0,0.0,0.01,-0.01,-2.98,0.0,0.0,0.0,0.0,0,0,0,0
37040000,47.3977424,8.5455943,-45.25,0.0,0.0,0.02,-0.02,-2.98,0.0,0.0,0.0,0.0,0,0,0,0
37136000,47.3977423,8.5455943,-45.537,0.0,0.0,0.02,-0.02,-2.99,0.0,0.0,0.0,0.0,0,0,0,0
37232000,47.3977424,8.5455942,-45.824,0.0,0.0,0.02,-0.02,-2.99,0.0,0.0,0.0,0.0,0,0,0,0
37328000,47.3977424,8.5455941,-46.112,0.0,0.0,0.02,-0.02,-2.99,0.0,0.0,0.0,0.0,0,0,0,0
37424000,47.3977424,8.5455941,-46.399,0.0,0.0,0.02,-0.02,-2.99,0.0,0.0,0.0,0.0,0,0,0,0
37520000,47.3977425,8.5455942,-46.687,0.0,0.0,0.02,-0.02,-2.99,0.0,0.0,0.0,0.0,0,0,0,0
37616000,47.3977425,8.5455943,-46.974,0.0,0.0,0.02,-0.02,-2.99,0.0,0.0,0.0,0.0,0,0,0,0
37712000,47.3977425,8.5455942,-47.261,0.0,0.0,0.02,-0.01,-2.99,0.0,0.0,0.0,0.0,0,0,0,0
37808000,47.3977424,8.5455943,-47.548,0.0,0.0,0.02,-0.01,-2.98,0.0,0.0,0.0,0.0,0,0,0,0
37904000,47.3977424,8.5455944,-47.835,0.0,0.0,0.02,-0.01,-2.98,0.0,0.0,0.0,0.0,0,0,0,0
38000000,47.3977424,8.5455943,-48.121,0.0,0.0,0.02,-0.01,-2.97,0.0,0.0,0.0,0.0,0,0,0,0
38096000,47.3977425,8.5455942,-48.407,0.0,0.0,0.02,0.0,-2.97,0.0,0.0,0.0,0.0,0,0,0,0
38192000,47.3977425,8.5455943,-48.692,0.0,0.0,0.01,0.0,-2.97,0.0,0.0,0.0,0.0,0,0,0,0
38288000,47.3977427,8.5455942,-48.978,0.0,0.0,0.01,0.0,-2.97,0.0,0.0,0.0,0.0,0,0,0,0
38384000,47.3977426,8.5455939,-49.263,0.0,0.0,0.01,0.0,-2.96,0.0,0.0,0.0,0.0,0,0,0,0
38480000,47.3977426,8.545594,-49.547,0.0,0.0,0.01,0.0,-2.96,0.0,0.0,0.0,0.0,0,0,0,0
38576000,47.3977427,8.5455941,-49.831,0.0,0.0,0.01,0.0,-2.96,0.0,0.0,0.0,0.0,0,0,0,0
38672000,47.3977427,8.5455941,-50.115,0.0,0.0,0.01,0.0,-2.95,0.0,0.0,0.0,0.0,0,0,0,0
38768000,47.3977427,8.5455942,-50.399,0.0,0.0,0.01,0.0,-2.95,0.0,0.0,0.0,0.0,0,0,0,0
38864000,47.3977427,8.5455945,-50.683,0.0,0.0,0.0,0.0,-2.95,0.0,0.0,0.0,0.0,0,0,0,0
38960000,47.3977425,8.5455943,-50.966,0.0,0.0,0.0,0.0,-2.95,0.0,0.0,0.0,0.0,0,0,0,0
39056000,47.3977426,8.5455943,-51.249,0.0,0.0,0.0,0.0,-2.94,0.0,0.0,0.0,0.0,0,0,0,0
39152000,47.3977427,8.5455943,-51.532,0.0,0.0,0.0,0.0,-2.94,0.0,0.0,0.0,0.0,0,0,0,0
39248000,47.3977426,8.5455945,-51.814,0.0,0.0,0.0,0.0,-2.94,0.0,0.0,0.0,0.0,0,0,0,0
39344000,47.3977427,8.5455944,-52.096,0.0,0.0,0.0,0.0,-2.94,0.0,0.0,0.0,0.0,0,0,0,0
39440000,47.3977427,8.5455942,-52.379,0.0,0.0,0.0,0.0,-2.94,0.0,0.0,0.0,0.0,0,0,0,0
39536000,47.3977427,8.5455941,-52.661,0.0,0.0,0.0,0.0,-2.94,0.0,0.0,0.0,0.0,0,0,0,0
39632000,47.3977428,8.5455941,-52.944,0.0,0.0,0.0,0.0,-2.94,0.0,0.0,0.0,0.0,0,0,0,0
39728000,47.3977428,8.5455942,-53.226,0.0,0.0,0.0,0.0,-2.94,0.0,0.0,0.0,0.0,0,0,0,0
39824000,47.3977429,8.5455942,-53.509,0.0,0.0,0.0,0.0,-2.94,0.0,0.0,0.0,0.0,0,0,0,0
39920000,47.3977427,8.5455941,-53.792,0.0,0.0,0.0,-0.01,-2.94,0.0,0.0,0.0,0.0,0,0,0,0
40016000,47.3977426,8.5455942,-54.074,0.0,0.0,0.0,-0.01,-2.94,0.0,0.0,0.0,0.0,0,0,0,0
40112000,47.3977427,8.5455943,-54.357,0.0,0.0,0.0,-0.01,-2.93,0.0,0.0,0.0,0.0,0,0,0,0
40208000,47.3977428,8.5455944,-54.639,0.0,0.0,0.0,-0.01,-2.93,0.0,0.0,0.0,0.0,0,0,0,0
40304000,47.3977427,8.5455942,-54.921,0.0,0.0,-0.01,-0.01,-2.93,0.0,0.0,0.0,0.0,0,0,0,0
40400000,47.3977427,8.5455941,-55.202,0.0,0.0,-0.01,-0.01,-2.93,0.0,0.0,0.0,0.0,0,0,0,0
40496000,47.3977426,8.545594,-55.484,0.0,0.0,-0.01,-0.01,-2.93,0.0,0.0,0.0,0.0,0,0,0,0
40592000,47.3977425,8.5455941,-55.766,0.0,0.0,-0.01,-0.01,-2.93,0.0,0.0,0.0,0.0,0,0,0,0
40688000,47.3977425,8.5455941,-56.048,0.0,0.0,-0.01,-0.01,-2.93,0.0,0.0,0.0,0.0,0,0,0,0
40784000,47.3977427,8.545594,-56.33,0.0,0.0,-0.01,-0.01,-2.93,0.0,0.0,0.0,0.0,0,0,0,0
40880000,47.3977426,8.5455938,-56.612,0.0,0.0,-0.02,-0.01,-2.93,0.0,0.0,0.0,0.0,0,0,0,0
40976000,47.3977426,8.545594,-56.893,0.0,0.0,-0.02,-0.01,-2.93,0.0,0.0,0.0,0.0,0,0,0,0
41072000,47.3977426,8.5455941,-57.175,0.0,0.0,-0.02,-0.01,-2.93,0.0,0.0,0.0,0.0,0,0,0,0
41168000,47.3977424,8.5455939,-57.456,0.0,0.0,-0.02,-0.01,-2.93,0.0,0.0,0.0,0.0,0,0,0,0
41264000,47.3977425,8.5455941,-57.738,0.0,0.0,-0.02,-0.01,-2.94,0.0,0.0,0.0,0.0,0,0,0,0
41360000,47.3977426,8.545594,-58.021,0.0,0.0,-0.02,-0.01,-2.93,0.0,0.0,0.0,0.0,0,0,0,0
41456000,47.3977425,8.5455938,-58.303,0.0,0.0,-0.02,-0.01,-2.94,0.0,0.0,0.0,0.0,0,0,0,0
41552000,47.3977423,8.5455939,-58.585,0.0,0.0,-0.02,-0.01,-2.94,0.0,0.0,0.0,0.0,0,0,0,0
41648000,47.3977424,8.545594,-58.868,0.0,0.0,-0.02,-0.01,-2.94,0.0,0.0,0.0,0.0,0,0,0,0
41744000,47.3977424,8.5455937,-59.15,0.0,0.0,-0.02,-0.01,-2.94,0.0,0.0,0.0,0.0,0,0,0,0
41840000,47.3977423,8.545594,-59.433,0.0,0.0,-0.03,0.0,-2.94,0.0,0.0,0.0,0.0,0,0,0,0
41936000,47.3977422,8.5455938,-59.716,0.0,0.0,-0.03,-0.01,-2.94,0.0,0.0,0.0,0.0,0,0,0,0
42032000,47.3977424,8.5455937,-59.999,0.0,0.0,-0.03,-0.01,-2.94,0.0,0.0,0.0,0.0,0,0,0,0
42128000,47.3977423,8.5455937,-60.282,0.0,0.0,-0.03,0.0,-2.94,0.0,0.0,0.0,0.0,0,0,0,0
42224000,47.3977423,8.5455936,-60.564,0.0,0.0,-0.03,0.0,-2.93,0.0,0.0,0.0,0.0,0,0,0,0
42320000,47.3977424,8.5455937,-60.843,0.0,0.0,-0.03,0.0,-2.85,0.0,0.0,0.0,0.0,0,0,0,0
42416000,47.3977423,8.5455938,-61.113,0.0,0.0,-0.03,0.0,-2.77,0.0,0.0,0.0,0.0,0,0,0,0
42512000,47.3977423,8.5455938,-61.376,0.0,0.0,-0.03,0.0,-2.69,0.0,0.0,0.0,0.0,0,0,0,0
42608000,47.3977423,8.5455939,-61.631,0.0,0.0,-0.03,0.0,-2.61,0.0,0.0,0.0,0.0,0,0,0,0
42704000,47.3977421,8.5455937,-61.878,0.0,0.0,-0.02,0.0,-2.52,0.0,0.0,0.0,0.0,0,0,0,0
42800000,47.397742,8.5455938,-62.117,0.0,0.0,-0.02,0.0,-2.44,0.0,0.0,0.0,0.0,0,0,0,0
42896000,47.3977421,8.5455939,-62.347,0.0,0.0,-0.02,0.0,-2.36,0.0,0.0,0.0,0.0,0,0,0,0
42992000,47.397742,8.545594,-62.571,0.0,0.0,-0.02,0.0,-2.28,0.0,0.0,0.0,0.0,0,0,0,0
43088000,47.3977419,8.5455938,-62.787,0.0,0.0,-0.02,0.0,-2.21,0.0,0.0,0.0,0.0,0,0,0,0
43184000,47.397742,8.5455937,-62.996,0.0,0.0,-0.02,0.0,-2.13,0.0,0.0,0.0,0.0,0,0,0,0
43280000,47.397742,8.5455936,-63.198,0.0,0.0,-0.02,0.0,-2.06,0.0,0.0,0.0,0.0,0,0,0,0
43376000,47.3977419,8.5455936,-63.393,0.0,0.0,-0.01,0.0,-1.99,0.0,0.0,0.0,0.0,0,0,0,0
43472000,47.397742,8.5455935,-63.582,0.0,0.0,-0.01,0.0,-1.92,0.0,0.0,0.0,0.0,0,0,0,0
43568000,47.3977419,8.5455934,-63.764,0.0,0.0,-0.01,0.0,-1.86,0.0,0.0,0.0,0.0,0,0,0,0
43664000,47.3977419,8.5455938,-63.94,0.0,0.0,-0.01,0.0,-1.8,0.0,0.0,0.0,0.0,0,0,0,0
43760000,47.397742,8.5455937,-64.111,0.0,0.0,-0.01,0.0,-1.74,0.0,0.0,0.0,0.0,0,0,0,0
43856000,47.3977419,8.5455936,-64.276,0.0,0.0,-0.01,0.0,-1.69,0.0,0.0,0.0,0.0,0,0,0,0
43952000,47.3977419,8.5455935,-64.437,0.0,0.0,0.0,-0.01,-1.64,0.0,0.0,0.0,0.0,0,0,0,0
44048000,47.3977419,8.5455935,-64.593,0.0,0.0,0.0,-0.01,-1.6,0.0,0.0,0.0,0.0,0,0,0,0
44144000,47.3977419,8.5455937,-64.745,0.0,0.0,0.0,0.0,-1.55,0.0,0.0,0.0,0.0,0,0,0,0
44240000,47.397742,8.5455937,-64.892,0.0,0.0,0.0,0.0,-1.51,0.0,0.0,0.0,0.0,0,0,0,0
44336000,47.397742,8.5455937,-65.036,0.0,0.0,0.0,0.0,-1.47,0.0,0.0,0.0,0.0,0,0,0,0
44432000,47.397742,8.5455937,-65.175,0.0,0.0,0.0,0.0,-1.42,0.0,0.0,0.0,0.0,0,0,0,0
44528000,47.3977419,8.5455934,-65.311,0.0,0.0,0.0,0.0,-1.39,0.0,0.0,0.0,0.0,0,0,0,0
44624000,47.3977419,8.5455935,-65.442,0.0,0.0,0.01,0.0,-1.35,0.0,0.0,0.0,0.0,0,0,0,0
44720000,47.3977421,8.5455936,-65.57,0.0,0.0,0.01,0.0,-1.31,0.0,0.0,0.0,0.0,0,0,0,0
44816000,47.3977419,8.5455936,-65.694,0.0,0.0,0.01,0.0,-1.27,0.0,0.0,0.0,0.0,0,0,0,0
44912000,47.3977418,8.5455936,-65.815,0.0,0.0,0.01,0.0,-1.23,0.0,0.0,0.0,0.0,0,0,0,0
45008000,47.3977418,8.5455936,-65.932,0.0,0.0,0.02,0.0,-1.19,0.0,0.0,0.0,0.0,0,0,0,0
45104000,47.397742,8.5455935,-66.045,0.0,0.0,0.02,0.0,-1.16,0.0,0.0,0.0,0.0,0,0,0,0
45200000,47.3977419,8.5455935,-66.155,0.0,0.0,0.02,0.0,-1.13,0.0,0.0,0.0,0.0,0,0,0,0
45296000,47.397742,8.5455935,-66.262,0.0,0.0,0.02,0.0,-1.09,0.0,0.0,0.0,0.0,0,0,0,0
45392000,47.3977421,8.5455937,-66.366,0.0,0.0,0.02,0.0,-1.06,0.0,0.0,0.0,0.0,0,0,0,0
45488000,47.397742,8.5455934,-66.467,0.0,0.0,0.02,0.0,-1.03,0.0,0.0,0.0,0.0,0,0,0,0
45584000,47.3977422,8.5455934,-66.566,0.0,0.0,0.02,0.0,-1.0,0.0,0.0,0.0,0.0,0,0,0,0
45680000,47.3977422,8.5455936,-66.661,0.0,0.0,0.02,0.0,-0.98,0.0,0.0,0.0,0.0,0,0,0,0
45776000,47.3977421,8.5455934,-66.754,0.0,0.0,0.02,0.0,-0.95,0.0,0.0,0.0,0.0,0,0,0,0
45872000,47.3977421,8.5455933,-66.844,0.0,0.0,0.02,0.0,-0.92,0.0,0.0,0.0,0.0,0,0,0,0
45968000,47.3977422,8.5455935,-66.932,0.0,0.0,0.02,0.0,-0.89,0.0,0.0,0.0,0.0,0,0,0,0
46064000,47.3977423,8.5455936,-67.017,0.0,0.0,0.02,0.0,-0.87,0.0,0.0,0.0,0.0,0,0,0,0
46160000,47.3977423,8.5455935,-67.1,0.0,0.0,0.02,0.0,-0.85,0.0,0.0,0.0,0.0,0,0,0,0
46256000,47.3977422,8.5455935,-67.182,0.0,0.0,0.02,0.0,-0.83,0.0,0.0,0.0,0.0,0,0,0,0
46352000,47.3977421,8.5455937,-67.261,0.0,0.0,0.02,0.0,-0.81,0.0,0.0,0.0,0.0,0,0,0,0
46448000,47.3977422,8.5455937,-67.338,0.0,0.0,0.02,0.0,-0.79,0.0,0.0,0.0,0.0,0,0,0,0
46544000,47.3977422,8.5455935,-67.414,0.0,0.0,0.01,0.0,-0.77,0.0,0.0,0.0,0.0,0,0,0,0
46640000,47.3977423,8.5455934,-67.487,0.0,0.0,0.01,0.0,-0.75,0.0,0.0,0.0,0.0,0,0,0,0
46736000,47.3977425,8.5455933,-67.558,0.0,0.0,0.01,0.0,-0.72,0.0,0.0,0.0,0.0,0,0,0,0
46832000,47.3977425,8.5455931,-67.627,0.0,0.0,0.01,0.0,-0.7,0.0,0.0,0.0,0.0,0,0,0,0
46928000,47.3977425,8.5455934,-67.694,0.0,0.0,0.01,0.0,-0.69,0.0,0.0,0.0,0.0,0,0,0,0
47024000,47.3977424,8.5455933,-67.76,0.0,0.0,0.01,0.0,-0.67,0.0,0.0,0.0,0.0,0,0,0,0
47120000,47.3977424,8.5455936,-67.824,0.0,0.0,0.01,0.0,-0.65,0.0,0.0,0.0,0.0,0,0,0,0
47216000,47.3977425,8.5455936,-67.886,0.0,0.0,0.01,0.01,-0.63,0.0,0.0,0.0,0.0,0,0,0,0
47312000,47.3977426,8.5455937,-67.946,0.0,0.0,0.01,0.01,-0.61,0.0,0.0,0.0,0.0,0,0,0,0
47408000,47.3977424,8.5455935,-68.004,0.0,0.0,0.01,0.01,-0.59,0.0,0.0,0.0,0.0,0,0,0,0
47504000,47.3977423,8.5455936,-68.06,0.0,0.0,0.01,0.01,-0.57,0.0,0.0,0.0,0.0,0,0,0,0
47600000,47.3977424,8.5455935,-68.114,0.0,0.0,0.0,0.01,-0.55,0.0,0.0,0.0,0.0,0,0,0,0
47696000,47.3977424,8.5455935,-68.166,0.0,0.0,0.0,0.01,-0.53,0.0,0.0,0.0,0.0,0,0,0,0
47792000,47.3977425,8.5455936,-68.216,0.0,0.0,0.0,0.01,-0.51,0.0,0.0,0.0,0.0,0,0,0,0
47888000,47.3977425,8.5455936,-68.265,0.0,0.0,0.0,0.02,-0.5,0.0,0.0,0.0,0.0,0,0,0,0
47984000,47.3977426,8.5455938,-68.313,0.0,0.0,0.0,0.02,-0.48,0.0,0.0,0.0,0.0,0,0,0,0
48080000,47.3977423,8.5455938,-68.359,0.0,0.0,0.0,0.02,-0.47,0.0,0.0,0.0,0.0,0,0,0,0
48176000,47.3977424,8.5455939,-68.404,0.0,0.0,0.0,0.02,-0.46,0.0,0.0,0.0,0.0,0,0,0,0
48272000,47.3977423,8.5455938,-68.448,0.0,0.0,-0.01,0.02,-0.45,0.0,0.0,0.0,0.0,0,0,0,0
48368000,47.3977425,8.5455939,-68.49,0.0,0.0,-0.01,0.01,-0.43,0.0,0.0,0.0,0.0,0,0,0,0
48464000,47.3977424,8.545594,-68.532,0.0,0.0,-0.01,0.02,-0.42,0.0,0.0,0.0,0.0,0,0,0,0
48560000,47.3977424,8.5455937,-68.573,0.0,0.0,-0.01,0.02,-0.41,0.0,0.0,0.0,0.0,0,0,0,0
48656000,47.3977423,8.5455938,-68.612,0.0,0.0,-0.01,0.02,-0.4,0.0,0.0,0.0,0.0,0,0,0,0
48752000,47.3977424,8.5455938,-68.651,0.0,0.0,-0.02,0.02,-0.39,0.0,0.0,0.0,0.0,0,0,0,0
48848000,47.3977424,8.5455938,-68.688,0.0,0.0,-0.02,0.02,-0.38,0.0,0.0,0.0,0.0,0,0,0,0
48944000,47.3977423,8.5455939,-68.724,0.0,0.0,-0.02,0.02,-0.37,0.0,0.0,0.0,0.0,0,0,0,0
49040000,47.3977421,8.5455939,-68.759,0.0,0.0,-0.02,0.02,-0.35,0.0,0.0,0.0,0.0,0,0,0,0
49136000,47.3977422,8.5455941,-68.793,0.0,0.0,-0.02,0.02,-0.34,0.0,0.0,0.0,0.0,0,0,0,0
49232000,47.3977422,8.545594,-68.826,0.0,0.0,-0.03,0.02,-0.33,0.0,0.0,0.0,0.0,0,0,0,0
49328000,47.3977421,8.5455941,-68.858,0.0,0.0,-0.03,0.02,-0.32,0.0,0.0,0.0,0.0,0,0,0,0
49424000,47.397742,8.5455942,-68.889,0.0,0.0,-0.03,0.02,-0.32,0.0,0.0,0.0,0.0,0,0,0,0
49520000,47.397742,8.5455942,-68.92,0.0,0.0,-0.03,0.02,-0.31,0.0,0.0,0.0,0.0,0,0,0,0
49616000,47.397742,8.5455942,-68.949,0.0,0.0,-0.03,0.02,-0.3,0.0,0.0,0.0,0.0,0,0,0,0
49712000,47.3977422,8.5455942,-68.979,0.0,0.0,-0.03,0.02,-0.29,0.0,0.0,0.0,0.0,0,0,0,0
49808000,47.3977422,8.5455943,-69.007,0.0,0.0,-0.03,0.02,-0.29,0.0,0.0,0.0,0.0,0,0,0,0
49904000,47.3977421,8.5455944,-69.035,0.0,0.0,-0.03,0.02,-0.28,0.0,0.0,0.0,0.0,0,0,0,0
50000000,47.3977419,8.5455945,-69.062,0.0,0.0,-0.03,0.01,-0.27,0.0,0.0,0.0,0.0,0,0,0,0
50096000,47.3977418,8.5455944,-69.089,0.0,0.0,-0.03,0.01,-0.27,0.0,0.0,0.0,0.0,0,0,0,0
50192000,47.3977419,8.5455946,-69.114,0.0,0.0,-0.03,0.01,-0.26,0.0,0.0,0.0,0.0,0,0,0,0
50288000,47.397742,8.5455945,-69.139,0.0,0.0,-0.03,0.01,-0.25,0.0,0.0,0.0,0.0,0,0,0,0
50384000,47.3977418,8.5455945,-69.164,0.0,0.0,-0.03,0.01,-0.25,0.0,0.0,0.0,0.0,0,0,0,0
50480000,47.3977418,8.5455943,-69.188,0.0,0.0,-0.03,0.01,-0.24,0.0,0.0,0.0,0.0,0,0,0,0
50576000,47.3977418,8.5455944,-69.211,0.0,0.0,-0.03,0.0,-0.24,0.0,0.0,0.0,0.0,0,0,0,0
50672000,47.3977418,8.5455944,-69.234,0.0,0.0,-0.03,0.0,-0.23,0.0,0.0,0.0,0.0,0,0,0,0
50768000,47.3977418,8.5455945,-69.256,0.0,0.0,-0.03,0.0,-0.22,0.0,0.0,0.0,0.0,0,0,0,0
50864000,47.3977417,8.5455945,-69.278,0.0,0.0,-0.03,0.0,-0.22,0.0,0.0,0.0,0.0,0,0,0,0
50960000,47.3977417,8.5455945,-69.299,0.0,0.0,-0.03,0.0,-0.21,0.0,0.0,0.0,0.0,0,0,0,0
51056000,47.3977416,8.5455945,-69.32,0.0,0.0,-0.03,0.0,-0.21,0.0,0.0,0.0,0.0,0,0,0,0
51152000,47.3977417,8.5455944,-69.34,0.0,0.0,-0.02,0.0,-0.2,0.0,0.0,0.0,0.0,0,0,0,0
51248000,47.3977416,8.5455943,-69.359,0.0,0.0,-0.02,0.0,-0.19,0.0,0.0,0.0,0.0,0,0,0,0
51344000,47.3977415,8.5455945,-69.378,0.0,0.0,-0.02,-0.01,-0.19,0.0,0.0,0.0,0.0,0,0,0,0
51440000,47.3977416,8.5455943,-69.397,0.0,0.0,-0.02,-0.01,-0.19,0.0,0.0,0.0,0.0,0,0,0,0
51536000,47.3977417,8.5455943,-69.415,0.0,0.0,-0.01,-0.01,-0.18,0.0,0.0,0.0,0.0,0,0,0,0
51632000,47.3977416,8.5455943,-69.432,0.0,0.0,-0.01,-0.01,-0.17,0.0,0.0,0.0,0.0,0,0,0,0
51728000,47.3977415,8.5455943,-69.449,0.0,0.0,-0.01,-0.01,-0.17,0.0,0.0,0.0,0.0,0,0,0,0
51824000,47.3977415,8.5455942,-69.465,0.0,0.0,-0.01,-0.01,-0.16,0.0,0.0,0.0,0.0,0,0,0,0
51920000,47.3977416,8.5455944,-69.481,0.0,0.0,0.0,-0.01,-0.15,0.0,0.0,0.0,0.0,0,0,0,0
52016000,47.3977414,8.5455941,-69.496,0.0,0.0,0.0,-0.01,-0.15,0.0,0.0,0.0,0.0,0,0,0,0
52112000,47.3977414,8.5455943,-69.51,0.0,0.0,0.0,-0.01,-0.14,0.0,0.0,0.0,0.0,0,0,0,0
52208000,47.3977415,8.5455943,-69.524,0.0,0.0,0.0,-0.01,-0.14,0.0,0.0,0.0,0.0,0,0,0,0
52304000,47.3977415,8.5455941,-69.538,0.0,0.0,0.0,-0.01,-0.13,0.0,0.0,0.0,0.0,0,0,0,0
52400000,47.3977415,8.5455943,-69.551,0.0,0.0,0.0,-0.01,-0.13,0.0,0.0,0.0,0.0,0,0,0,0
52496000,47.3977414,8.5455943,-69.564,0.0,0.0,0.0,0.0,-0.13,0.0,0.0,0.0,0.0,0,0,0,0
52592000,47.3977414,8.5455941,-69.577,0.0,0.0,0.0,0.0,-0.12,0.0,0.0,0.0,0.0,0,0,0,0
52688000,47.3977414,8.5455942,-69.589,0.0,0.0,0.0,0.0,-0.12,0.0,0.0,0.0,0.0,0,0,0,0
52784000,47.3977414,8.5455941,-69.601,0.0,0.0,0.0,0.0,-0.12,0.0,0.0,0.0,0.0,0,0,0,0
52880000,47.3977413,8.545594,-69.613,0.0,0.0,0.0,0.0,-0.11,0.0,0.0,0.0,0.0,0,0,0,0
52976000,47.3977414,8.5455941,-69.624,0.0,0.0,0.0,0.0,-0.11,0.0,0.0,0.0,0.0,0,0,0,0
53072000,47.3977416,8.545594,-69.62,0.0,0.0,0.0,0.0,0.36,0.0,0.0,0.0,0.0,0,0,0,0
53168000,47.3977415,8.545594,-69.555,0.0,0.0,0.0,0.0,0.92,0.0,0.0,0.0,0.0,0,0,0,0
53264000,47.3977415,8.5455941,-69.46,0.0,0.0,0.0,0.0,1.01,0.0,0.0,0.0,0.0,0,0,0,0
53360000,47.3977417,8.5455941,-69.363,0.0,0.0,-0.01,0.0,1.01,0.0,0.0,0.0,0.0,0,0,0,0
53456000,47.3977414,8.5455941,-69.266,0.0,0.0,-0.01,0.0,1.01,0.0,0.0,0.0,0.0,0,0,0,0
53552000,47.3977413,8.5455943,-69.168,0.0,0.0,0.0,0.0,1.02,0.0,0.0,0.0,0.0,0,0,0,0
53648000,47.3977413,8.5455941,-69.069,0.0,0.0,0.0,0.0,1.02,0.0,0.0,0.0,0.0,0,0,0,0
53744000,47.3977413,8.5455943,-68.97,0.0,0.0,0.0,0.0,1.03,0.0,0.0,0.0,0.0,0,0,0,0
53840000,47.3977414,8.5455941,-68.871,0.0,0.0,0.0,0.0,1.03,0.0,0.0,0.0,0.0,0,0,0,0
53936000,47.3977416,8.5455939,-68.772,0.0,0.0,0.0,0.0,1.03,0.0,0.0,0.0,0.0,0,0,0,0
54032000,47.3977415,8.5455942,-68.672,0.0,0.0,0.0,0.01,1.03,0.0,0.0,0.0,0.0,0,0,0,0
54128000,47.3977417,8.5455944,-68.573,0.0,0.0,0.0,0.01,1.03,0.0,0.0,0.0,0.0,0,0,0,0
54224000,47.3977414,8.5455943,-68.474,0.0,0.0,0.01,0.01,1.03,0.0,0.0,0.0,0.0,0,0,0,0
54320000,47.3977416,8.5455944,-68.374,0.0,0.0,0.01,0.01,1.03,0.0,0.0,0.0,0.0,0,0,0,0
54416000,47.3977416,8.5455944,-68.275,0.0,0.0,0.01,0.01,1.03,0.0,0.0,0.0,0.0,0,0,0,0
54512000,47.3977415,8.5455944,-68.175,0.0,0.0,0.01,0.02,1.03,0.0,0.0,0.0,0.0,0,0,0,0
54608000,47.3977416,8.5455945,-68.075,0.0,0.0,0.01,0.02,1.03,0.0,0.0,0.0,0.0,0,0,0,0
54704000,47.3977415,8.5455944,-67.976,0.0,0.0,0.01,0.02,1.03,0.0,0.0,0.0,0.0,0,0,0,0
54800000,47.3977415,8.5455943,-67.877,0.0,0.0,0.01,0.02,1.03,0.0,0.0,0.0,0.0,0,0,0,0
54896000,47.3977416,8.5455942,-67.777,0.0,0.0,0.01,0.01,1.03,0.0,0.0,0.0,0.0,0,0,0,0
54992000,47.3977416,8.5455943,-67.678,0.0,0.0,0.02,0.01,1.03,0.0,0.0,0.0,0.0,0,0,0,0
55088000,47.3977417,8.5455944,-67.579,0.0,0.0,0.02,0.01,1.03,0.0,0.0,0.0,0.0,0,0,0,0
55184000,47.3977416,8.5455947,-67.48,0.0,0.0,0.02,0.01,1.02,0.0,0.0,0.0,0.0,0,0,0,0
55280000,47.3977416,8.5455945,-67.381,0.0,0.0,0.01,0.01,1.02,0.0,0.0,0.0,0.0,0,0,0,0
55376000,47.3977416,8.5455943,-67.283,0.0,0.0,0.01,0.0,1.02,0.0,0.0,0.0,0.0,0,0,0,0
55472000,47.3977415,8.5455945,-67.185,0.0,0.0,0.01,0.0,1.02,0.0,0.0,0.0,0.0,0,0,0,0
55568000,47.3977417,8.5455945,-67.087,0.0,0.0,0.01,0.0,1.01,0.0,0.0,0.0,0.0,0,0,0,0
55664000,47.3977417,8.5455944,-66.989,0.0,0.0,0.01,0.0,1.01,0.0,0.0,0.0,0.0,0,0,0,0
55760000,47.3977418,8.5455948,-66.891,0.0,0.0,0.01,0.0,1.01,0.0,0.0,0.0,0.0,0,0,0,0
55856000,47.3977417,8.5455946,-66.794,0.0,0.0,0.01,0.0,1.01,0.0,0.0,0.0,0.0,0,0,0,0
55952000,47.3977417,8.5455947,-66.696,0.0,0.0,0.0,0.0,1.01,0.0,0.0,0.0,0.0,0,0,0,0
56048000,47.3977417,8.5455948,-66.599,0.0,0.0,0.0,0.0,1.01,0.0,0.0,0.0,0.0,0,0,0,0
56144000,47.3977418,8.5455949,-66.502,0.0,0.0,0.0,0.0,1.01,0.0,0.0,0.0,0.0,0,0,0,0
56240000,47.3977418,8.5455949,-66.404,0.0,0.0,0.0,0.0,1.01,0.0,0.0,0.0,0.0,0,0,0,0
56336000,47.3977417,8.5455948,-66.308,0.0,0.0,0.0,0.0,1.0,0.0,0.0,0.0,0.0,0,0,0,0
56432000,47.3977418,8.5455948,-66.211,0.0,0.0,0.0,0.0,1.0,0.0,0.0,0.0,0.0,0,0,0,0
56528000,47.3977417,8.5455947,-66.114,0.0,0.0,0.0,0.0,1.0,0.0,0.0,0.0,0.0,0,0,0,0
56624000,47.3977419,8.5455947,-66.017,0.0,0.0,-0.01,0.0,1.0,0.0,0.0,0.0,0.0,0,0,0,0
56720000,47.3977418,8.5455948,-65.92,0.0,0.0,-0.01,0.0,1.0,0.0,0.0,0.0,0.0,0,0,0,0
56816000,47.3977417,8.5455948,-65.823,0.0,0.0,-0.01,0.0,1.0,0.0,0.0,0.0,0.0,0,0,0,0
56912000,47.3977417,8.5455947,-65.726,0.0,0.0,-0.01,0.0,1.0,0.0,0.0,0.0,0.0,0,0,0,0
57008000,47.3977416,8.5455946,-65.629,0.0,0.0,-0.02,0.0,1.0,0.0,0.0,0.0,0.0,0,0,0,0
57104000,47.3977416,8.5455947,-65.533,0.0,0.0,-0.02,0.0,1.0,0.0,0.0,0.0,0.0,0,0,0,0
57200000,47.3977415,8.5455947,-65.436,0.0,0.0,-0.02,0.0,1.0,0.0,0.0,0.0,0.0,0,0,0,0
57296000,47.3977416,8.5455944,-65.339,0.0,0.0,-0.02,-0.01,1.0,0.0,0.0,0.0,0.0,0,0,0,0
57392000,47.3977416,8.5455947,-65.242,0.0,0.0,-0.02,-0.01,1.0,0.0,0.0,0.0,0.0,0,0,0,0
57488000,47.3977416,8.5455946,-65.146,0.0,0.0,-0.02,-0.01,1.0,0.0,0.0,0.0,0.0,0,0,0,0
57584000,47.3977416,8.5455947,-65.049,0.0,0.0,-0.03,-0.01,1.0,0.0,0.0,0.0,0.0,0,0,0,0
57680000,47.3977415,8.5455946,-64.952,0.0,0.0,-0.03,-0.01,1.0,0.0,0.0,0.0,0.0,0,0,0,0
57776000,47.3977415,8.5455944,-64.855,0.0,0.0,-0.03,-0.01,1.0,0.0,0.0,0.0,0.0,0,0,0,0
57872000,47.3977414,8.5455942,-64.758,0.0,0.0,-0.03,-0.02,1.0,0.0,0.0,0.0,0.0,0,0,0,0
57968000,47.3977414,8.5455944,-64.662,0.0,0.0,-0.03,-0.02,1.0,0.0,0.0,0.0,0.0,0,0,0,0
58064000,47.3977413,8.5455944,-64.565,0.0,0.0,-0.02,-0.02,1.0,0.0,0.0,0.0,0.0,0,0,0,0
58160000,47.3977413,8.5455942,-64.468,0.0,0.0,-0.02,-0.02,1.0,0.0,0.0,0.0,0.0,0,0,0,0
58256000,47.3977413,8.5455945,-64.371,0.0,0.0,-0.02,-0.02,1.0,0.0,0.0,0.0,0.0,0,0,0,0
58352000,47.3977415,8.5455945,-64.275,0.0,0.0,-0.02,-0.02,1.0,0.0,0.0,0.0,0.0,0,0,0,0
58448000,47.3977413,8.5455945,-64.179,0.0,0.0,-0.02,-0.02,1.0,0.0,0.0,0.0,0.0,0,0,0,0
58544000,47.3977412,8.5455943,-64.082,0.0,0.0,-0.02,-0.02,1.0,0.0,0.0,0.0,0.0,0,0,0,0
58640000,47.3977411,8.5455941,-63.986,0.0,0.0,-0.02,-0.02,1.0,0.0,0.0,0.0,0.0,0,0,0,0
58736000,47.3977412,8.5455943,-63.89,0.0,0.0,-0.02,-0.01,1.0,0.0,0.0,0.0,0.0,0,0,0,0
58832000,47.3977412,8.5455943,-63.793,0.0,0.0,-0.02,-0.01,1.0,0.0,0.0,0.0,0.0,0,0,0,0
58928000,47.3977411,8.545594,-63.697,0.0,0.0,-0.02,-0.01,1.0,0.0,0.0,0.0,0.0,0,0,0,0
59024000,47.397741,8.5455939,-63.601,0.0,0.0,-0.02,-0.01,1.0,0.0,0.0,0.0,0.0,0,0,0,0
59120000,47.3977411,8.545594,-63.504,0.0,0.0,-0.02,-0.01,1.0,0.0,0.0,0.0,0.0,0,0,0,0
59216000,47.3977409,8.5455942,-63.408,0.0,0.0,-0.02,-0.01,0.99,0.0,0.0,0.0,0.0,0,0,0,0
59312000,47.3977411,8.5455942,-63.313,0.0,0.0,-0.02,-0.01,0.99,0.0,0.0,0.0,0.0,0,0,0,0
59408000,47.3977411,8.5455941,-63.217,0.0,0.0,-0.02,-0.01,0.99,0.0,0.0,0.0,0.0,0,0,0,0
59504000,47.3977411,8.5455941,-63.121,0.0,0.0,-0.02,-0.01,1.0,0.0,0.0,0.0,0.0,0,0,0,0
59600000,47.3977412,8.5455942,-63.025,0.0,0.0,-0.02,-0.01,0.99,0.0,0.0,0.0,0.0,0,0,0,0
59696000,47.3977412,8.5455941,-62.929,0.0,0.0,-0.01,0.0,0.99,0.0,0.0,0.0,0.0,0,0,0,0
59792000,47.3977411,8.5455939,-62.833,0.0,0.0,-0.01,0.0,0.99,0.0,0.0,0.0,0.0,0,0,0,0
59888000,47.3977409,8.5455939,-62.737,0.0,0.0,-0.01,0.0,0.99,0.0,0.0,0.0,0.0,0,0,0,0
59984000,47.3977412,8.5455938,-62.642,0.0,0.0,-0.01,0.0,0.99,0.0,0.0,0.0,0.0,0,0,0,0
60080000,47.3977411,8.5455939,-62.546,0.0,0.0,-0.01,0.0,0.99,0.0,0.0,0.0,0.0,0,0,0,0
60176000,47.3977409,8.5455938,-62.45,0.0,0.0,-0.01,0.0,0.99,0.0,0.0,0.0,0.0,0,0,0,0
60272000,47.3977409,8.5455938,-62.355,0.0,0.0,0.0,0.0,0.99,0.0,0.0,0.0,0.0,0,0,0,0
60368000,47.3977409,8.5455939,-62.259,0.0,0.0,0.0,0.0,0.99,0.0,0.0,0.0,0.0,0,0,0,0
60464000,47.397741,8.545594,-62.164,0.0,0.0,0.0,0.0,0.99,0.0,0.0,0.0,0.0,0,0,0,0
60560000,47.3977409,8.5455939,-62.068,0.0,0.0,0.0,0.0,0.99,0.0,0.0,0.0,0.0,0,0,0,0
60656000,47.3977409,8.5455939,-61.972,0.0,0.0,0.0,0.0,0.99,0.0,0.0,0.0,0.0,0,0,0,0
60752000,47.3977409,8.545594,-61.876,0.0,0.0,0.0,0.0,0.99,0.0,0.0,0.0,0.0,0,0,0,0
60848000,47.3977412,8.545594,-61.78,0.0,0.0,0.0,0.0,0.99,0.0,0.0,0.0,0.0,0,0,0,0
60944000,47.3977411,8.5455939,-61.684,0.0,0.0,0.0,0.0,0.99,0.0,0.0,0.0,0.0,0,0,0,0
61040000,47.3977409,8.545594,-61.588,0.0,0.0,0.0,0.0,0.99,0.0,0.0,0.0,0.0,0,0,0,0
61136000,47.397741,8.5455939,-61.492,0.0,0.0,0.0,0.0,0.99,0.0,0.0,0.0,0.0,0,0,0,0
61232000,47.3977408,8.5455938,-61.397,0.0,0.0,0.0,0.0,0.99,0.0,0.0,0.0,0.0,0,0,0,0
61328000,47.3977409,8.5455938,-61.301,0.0,0.0,0.0,0.0,0.99,0.0,0.0,0.0,0.0,0,0,0,0
61424000,47.397741,8.5455939,-61.205,0.0,0.0,0.0,0.01,0.99,0.0,0.0,0.0,0.0,0,0,0,0
61520000,47.3977409,8.5455941,-61.109,0.0,0.0,0.0,0.01,0.99,0.0,0.0,0.0,0.0,0,0,0,0
61616000,47.3977409,8.5455939,-61.014,0.0,0.0,0.0,0.01,0.99,0.0,0.0,0.0,0.0,0,0,0,0
61712000,47.397741,8.5455941,-60.918,0.0,0.0,0.0,0.01,0.99,0.0,0.0,0.0,0.0,0,0,0,0
61808000,47.397741,8.545594,-60.822,0.0,0.0,0.01,0.01,0.99,0.0,0.0,0.0,0.0,0,0,0,0
61904000,47.397741,8.5455939,-60.726,0.0,0.0,0.01,0.01,0.99,0.0,0.0,0.0,0.0,0,0,0,0
62000000,47.397741,8.5455938,-60.63,0.0,0.0,0.01,0.01,0.99,0.0,0.0,0.0,0.0,0,0,0,0
62096000,47.3977408,8.545594,-60.534,0.0,0.0,0.01,0.01,0.99,0.0,0.0,0.0,0.0,0,0,0,0
62192000,47.3977409,8.5455941,-60.438,0.0,0.0,0.02,0.01,0.99,0.0,0.0,0.0,0.0,0,0,0,0
62288000,47.397741,8.5455943,-60.342,0.0,0.0,0.02,0.02,0.99,0.0,0.0,0.0,0.0,0,0,0,0
62384000,47.3977409,8.5455944,-60.246,0.0,0.0,0.02,0.02,0.99,0.0,0.0,0.0,0.0,0,0,0,0
62480000,47.3977411,8.5455942,-60.15,0.0,0.0,0.02,0.02,0.99,0.0,0.0,0.0,0.0,0,0,0,0
62576000,47.3977411,8.5455945,-60.054,0.0,0.0,0.02,0.02,1.0,0.0,0.0,0.0,0.0,0,0,0,0
62672000,47.3977411,8.5455942,-59.958,0.0,0.0,0.03,0.02,0.99,0.0,0.0,0.0,0.0,0,0,0,0
62768000,47.3977411,8.5455942,-59.862,0.0,0.0,0.03,0.02,0.99,0.0,0.0,0.0,0.0,0,0,0,0
62864000,47.3977411,8.5455943,-59.767,0.0,0.0,0.03,0.02,0.99,0.0,0.0,0.0,0.0,0,0,0,0
62960000,47.3977411,8.5455946,-59.671,0.0,0.0,0.03,0.02,0.99,0.0,0.0,0.0,0.0,0,0,0,0
63056000,47.3977413,8.5455944,-59.575,0.0,0.0,0.03,0.02,0.99,0.0,0.0,0.0,0.0,0,0,0,0
63152000,47.3977412,8.5455946,-59.479,0.0,0.0,0.03,0.02,0.99,0.0,0.0,0.0,0.0,0,0,0,0
63248000,47.3977413,8.5455945,-59.383,0.0,0.0,0.03,0.02,0.99,0.0,0.0,0.0,0.0,0,0,0,0
63344000,47.3977414,8.5455947,-59.287,0.0,0.0,0.03,0.02,0.99,0.0,0.0,0.0,0.0,0,0,0,0
63440000,47.3977414,8.5455948,-59.192,0.0,0.0,0.03,0.01,0.99,0.0,0.0,0.0,0.0,0,0,0,0
63536000,47.3977414,8.5455945,-59.096,0.0,0.0,0.03,0.01,0.99,0.0,0.0,0.0,0.0,0,0,0,0
63632000,47.3977414,8.5455948,-59.0,0.0,0.0,0.03,0.01,0.99,0.0,0.0,0.0,0.0,0,0,0,0
63728000,47.3977414,8.5455947,-58.904,0.0,0.0,0.03,0.01,0.99,0.0,0.0,0.0,0.0,0,0,0,0
63824000,47.3977414,8.5455945,-58.808,0.0,0.0,0.03,0.01,0.99,0.0,0.0,0.0,0.0,0,0,0,0
63920000,47.3977415,8.5455945,-58.712,0.0,0.0,0.03,0.01,0.99,0.0,0.0,0.0,0.0,0,0,0,0
64016000,47.3977414,8.5455946,-58.617,0.0,0.0,0.03,0.0,0.99,0.0,0.0,0.0,0.0,0,0,0,0
64112000,47.3977415,8.5455946,-58.521,0.0,0.0,0.02,0.0,0.99,0.0,0.0,0.0,0.0,0,0,0,0
64208000,47.3977416,8.5455946,-58.425,0.0,0.0,0.02,0.0,0.99,0.0,0.0,0.0,0.0,0,0,0,0
64304000,47.3977416,8.5455949,-58.329,0.0,0.0,0.02,0.0,1.0,0.0,0.0,0.0,0.0,0,0,0,0
64400000,47.3977415,8.5455946,-58.233,0.0,0.0,0.02,0.0,1.0,0.0,0.0,0.0,0.0,0,0,0,0
64496000,47.3977415,8.5455947,-58.137,0.0,0.0,0.01,0.0,1.0,0.0,0.0,0.0,0.0,0,0,0,0
64592000,47.3977415,8.5455947,-58.04,0.0,0.0,0.01,0.0,1.0,0.0,0.0,0.0,0.0,0,0,0,0
64688000,47.3977416,8.5455945,-57.944,0.0,0.0,0.01,0.0,1.0,0.0,0.0,0.0,0.0,0,0,0,0
64784000,47.3977416,8.5455944,-57.848,0.0,0.0,0.0,0.0,1.0,0.0,0.0,0.0,0.0,0,0,0,0
64880000,47.3977416,8.5455942,-57.751,0.0,0.0,0.0,0.0,1.0,0.0,0.0,0.0,0.0,0,0,0,0
64976000,47.3977418,8.5455942,-57.655,0.0,0.0,0.0,0.0,1.0,0.0,0.0,0.0,0.0,0,0,0,0
65072000,47.3977417,8.5455945,-57.559,0.0,0.0,0.0,0.0,1.0,0.0,0.0,0.0,0.0,0,0,0,0
65168000,47.3977419,8.5455945,-57.462,0.0,0.0,0.0,0.0,1.0,0.0,0.0,0.0,0.0,0,0,0,0
65264000,47.3977417,8.5455945,-57.366,0.0,0.0,0.0,0.0,1.0,0.0,0.0,0.0,0.0,0,0,0,0
65360000,47.3977418,8.5455946,-57.27,0.0,0.0,0.0,0.0,1.0,0.0,0.0,0.0,0.0,0,0,0,0
65456000,47.3977418,8.5455946,-57.174,0.0,0.0,0.0,0.0,1.0,0.0,0.0,0.0,0.0,0,0,0,0
65552000,47.3977417,8.5455945,-57.077,0.0,0.0,0.0,0.0,1.0,0.0,0.0,0.0,0.0,0,0,0,0
65648000,47.3977417,8.5455946,-56.981,0.0,0.0,0.0,0.0,1.0,0.0,0.0,0.0,0.0,0,0,0,0
65744000,47.3977418,8.5455946,-56.885,0.0,0.0,0.0,0.0,1.0,0.0,0.0,0.0,0.0,0,0,0,0
65840000,47.3977418,8.5455948,-56.789,0.0,0.0,0.0,0.0,1.0,0.0,0.0,0.0,0.0,0,0,0,0
65936000,47.3977418,8.5455947,-56.693,0.0,0.0,0.0,0.0,1.0,0.0,0.0,0.0,0.0,0,0,0,0
66032000,47.3977418,8.5455947,-56.596,0.0,0.0,0.0,0.0,1.0,0.0,0.0,0.0,0.0,0,0,0,0
66128000,47.3977418,8.5455947,-56.5,0.0,0.0,0.0,0.0,1.0,0.0,0.0,0.0,0.0,0,0,0,0
66224000,47.3977418,8.5455946,-56.404,0.0,0.0,0.0,0.0,1.0,0.0,0.0,0.0,0.0,0,0,0,0
66320000,47.3977416,8.5455947,-56.308,0.0,0.0,0.0,0.0,1.0,0.0,0.0,0.0,0.0,0,0,0,0
66416000,47.3977416,8.5455947,-56.212,0.0,0.0,0.0,0.0,1.0,0.0,0.0,0.0,0.0,0,0,0,0
66512000,47.3977417,8.5455946,-56.116,0.0,0.0,0.0,0.0,1.0,0.0,0.0,0.0,0.0,0,0,0,0
66608000,47.3977417,8.5455949,-56.02,0.0,0.0,0.0,0.0,1.0,0.0,0.0,0.0,0.0,0,0,0,0
66704000,47.3977417,8.5455947,-55.923,0.0,0.0,0.0,0.0,1.0,0.0,0.0,0.0,0.0,0,0,0,0
66800000,47.3977418,8.5455946,-55.827,0.0,0.0,0.0,0.0,1.0,0.0,0.0,0.0,0.0,0,0,0,0
66896000,47.3977417,8.5455945,-55.731,0.0,0.0,0.0,0.0,1.0,0.0,0.0,0.0,0.0,0,0,0,0
66992000,47.3977417,8.5455948,-55.635,0.0,0.0,0.0,-0.01,1.0,0.0,0.0,0.0,0.0,0,0,0,0
67088000,47.3977418,8.5455946,-55.539,0.0,0.0,0.0,-0.01,1.0,0.0,0.0,0.0,0.0,0,0,0,0
67184000,47.3977416,8.5455946,-55.442,0.0,0.0,0.0,-0.01,1.0,0.0,0.0,0.0,0.0,0,0,0,0
67280000,47.3977418,8.5455947,-55.346,0.0,0.0,0.0,-0.01,1.0,0.0,0.0,0.0,0.0,0,0,0,0
67376000,47.3977417,8.5455947,-55.25,0.0,0.0,0.0,-0.01,1.0,0.0,0.0,0.0,0.0,0,0,0,0
67472000,47.3977416,8.5455944,-55.153,0.0,0.0,0.0,-0.01,1.0,0.0,0.0,0.0,0.0,0,0,0,0
67568000,47.3977418,8.5455943,-55.057,0.0,0.0,0.0,-0.01,1.0,0.0,0.0,0.0,0.0,0,0,0,0
67664000,47.3977417,8.5455943,-54.96,0.0,0.0,0.0,-0.01,1.0,0.0,0.0,0.0,0.0,0,0,0,0
67760000,47.3977417,8.5455944,-54.864,0.0,0.0,0.0,-0.02,1.0,0.0,0.0,0.0,0.0,0,0,0,0
67856000,47.3977418,8.5455944,-54.768,0.0,0.0,0.0,-0.02,1.0,0.0,0.0,0.0,0.0,0,0,0,0
67952000,47.3977418,8.5455943,-54.672,0.0,0.0,0.0,-0.02,1.0,0.0,0.0,0.0,0.0,0,0,0,0
68048000,47.3977417,8.5455942,-54.575,0.0,0.0,0.01,-0.02,1.0,0.0,0.0,0.0,0.0,0,0,0,0
68144000,47.3977417,8.5455941,-54.479,0.0,0.0,0.01,-0.02,1.0,0.0,0.0,0.0,0.0,0,0,0,0
68240000,47.3977417,8.5455942,-54.383,0.0,0.0,0.01,-0.03,1.0,0.0,0.0,0.0,0.0,0,0,0,0
68336000,47.3977417,8.5455944,-54.287,0.0,0.0,0.01,-0.03,1.0,0.0,0.0,0.0,0.0,0,0,0,0
68432000,47.3977416,8.5455943,-54.191,0.0,0.0,0.01,-0.03,1.0,0.0,0.0,0.0,0.0,0,0,0,0
68528000,47.3977417,8.5455945,-54.094,0.0,0.0,0.01,-0.03,1.0,0.0,0.0,0.0,0.0,0,0,0,0
68624000,47.3977416,8.5455943,-53.998,0.0,0.0,0.01,-0.03,1.0,0.0,0.0,0.0,0.0,0,0,0,0
68720000,47.3977417,8.5455941,-53.901,0.0,0.0,0.01,-0.03,1.0,0.0,0.0,0.0,0.0,0,0,0,0
68816000,47.3977418,8.5455939,-53.805,0.0,0.0,0.01,-0.03,1.0,0.0,0.0,0.0,0.0,0,0,0,0
68912000,47.3977419,8.545594,-53.709,0.0,0.0,0.01,-0.02,1.0,0.0,0.0,0.0,0.0,0,0,0,0
69008000,47.3977418,8.5455942,-53.612,0.0,0.0,0.01,-0.02,1.0,0.0,0.0,0.0,0.0,0,0,0,0
69104000,47.3977419,8.5455942,-53.516,0.0,0.0,0.01,-0.02,1.0,0.0,0.0,0.0,0.0,0,0,0,0
69200000,47.3977419,8.5455939,-53.419,0.0,0.0,0.01,-0.02,1.0,0.0,0.0,0.0,0.0,0,0,0,0
69296000,47.3977418,8.5455939,-53.323,0.0,0.0,0.01,-0.02,1.0,0.0,0.0,0.0,0.0,0,0,0,0
69392000,47.3977418,8.5455939,-53.226,0.0,0.0,0.01,-0.02,1.0,0.0,0.0,0.0,0.0,0,0,0,0
69488000,47.3977419,8.545594,-53.13,0.0,0.0,0.01,-0.02,1.0,0.0,0.0,0.0,0.0,0,0,0,0
69584000,47.3977419,8.5455938,-53.033,0.0,0.0,0.01,-0.02,1.0,0.0,0.0,0.0,0.0,0,0,0,0
