timestamp,vel_pos_innov[0],vel_pos_innov[1],vel_pos_innov[2],vel_pos_innov[3],vel_pos_innov[4],vel_pos_innov[5],mag_innov[0],mag_innov[1],mag_innov[2],heading_innov,airspeed_innov,beta_innov,flow_innov[0],flow_innov[1],hagl_innov,vel_pos_innov_var[0],vel_pos_innov_var[1],vel_pos_innov_var[2],vel_pos_innov_var[3],vel_pos_innov_var[4],vel_pos_innov_var[5],mag_innov_var[0],mag_innov_var[1],mag_innov_var[2],heading_innov_var,airspeed_innov_var,beta_innov_var,flow_innov_var[0],flow_innov_var[1],hagl_innov_var,output_tracking_error[0],output_tracking_error[1],output_tracking_error[2],drag_innov[0],drag_innov[1],drag_innov_var[0],drag_innov_var[1],aux_vel_innov[0],aux_vel_innov[1]
1252000,0.0,0.0,0.0,0.00023217,-0.000116363,0.046814,0.0,0.0,0.0,-0.00315425,0.0,0.0,0.0,0.0,0.0,0.0,0.0,0.0,0.302407,0.302407,4.22874,0.0,0.0,0.0,0.0932335,0.0,0.0,0.0,0.0,0.0,0.00131262,0.000450475,0.000406092,0.0,0.0,0.0,0.0,0.0,0.0
1444000,0.0,0.0,0.0,0.000357527,-0.000394947,0.0640259,0.0,0.0,0.0,-0.00164721,0.0,0.0,0.0,0.0,0.0,0.0,0.0,0.0,0.286331,0.286331,4.19285,0.0,0.0,0.0,0.0924547,0.0,0.0,0.0,0.0,0.0,0.000706867,0.00353432,0.00448518,0.0,0.0,0.0,0.0,0.0,0.0
1636000,0.0,0.0,0.0,0.00042145,-0.00057446,-0.0581055,0.0,0.0,0.0,0.00309399,0.0,0.0,0.0,0.0,0.0,0.0,0.0,0.0,0.278365,0.278365,4.18638,0.0,0.0,0.0,0.0920286,0.0,0.0,0.0,0.0,0.0,0.000592613,0.00414512,0.00393554,0.0,0.0,0.0,0.0,0.0,0.0
1828000,0.0,0.0,0.0,0.000447242,-0.00065135,0.0140991,0.0,0.0,0.0,0.00116226,0.0,0.0,0.0,0.0,0.0,0.0,0.0,0.0,0.272521,0.272521,4.1846,0.0,0.0,0.0,0.0917043,0.0,0.0,0.0,0.0,0.0,0.000455578,0.00170376,0.00191438,0.0,0.0,0.0,0.0,0.0,0.0
2020000,0.0,0.0,0.0,0.000426195,-0.000503152,0.0519714,0.0,0.0,0.0,0.00294145,0.0,0.0,0.0,0.0,0.0,0.0,0.0,0.0,0.269476,0.269476,4.18582,0.0,0.0,0.0,0.0914785,0.0,0.0,0.0,0.0,0.0,8.64474e-05,0.00792573,0.00831565,0.0,0.0,0.0,0.0,0.0,0.0
2212000,0.0,0.0,0.0,-0.000161211,-0.000296827,-0.0109253,0.0,0.0,0.0,0.00042032,0.0,0.0,0.0,0.0,0.0,0.0,0.0,0.0,0.267633,0.267633,4.18383,0.0,0.0,0.0,0.0913143,0.0,0.0,0.0,0.0,0.0,0.000256653,0.000472809,0.00133343,0.0,0.0,0.0,0.0,0.0,0.0
2404000,0.0,0.0,0.0,-0.000955583,-0.00029811,0.0149536,0.0,0.0,0.0,-0.000276778,0.0,0.0,0.0,0.0,0.0,0.0,0.0,0.0,0.266994,0.266994,4.18138,0.0,0.0,0.0,0.0912046,0.0,0.0,0.0,0.0,0.0,0.000100902,0.00379267,0.00508589,0.0,0.0,0.0,0.0,0.0,0.0
2596000,0.0,0.0,0.0,-0.00139173,-0.000641872,0.0813904,0.0,0.0,0.0,0.00145864,0.0,0.0,0.0,0.0,0.0,0.0,0.0,0.0,0.266255,0.266255,4.17221,0.0,0.0,0.0,0.0911071,0.0,0.0,0.0,0.0,0.0,3.40283e-05,0.00243347,0.0021597,0.0,0.0,0.0,0.0,0.0,0.0
2788000,0.0,0.0,0.0,-0.00168392,-0.00107863,0.00744629,0.0,0.0,0.0,0.00285381,0.0,0.0,0.0,0.0,0.0,0.0,0.0,0.0,0.266386,0.266386,4.16533,0.0,0.0,0.0,0.0910333,0.0,0.0,0.0,0.0,0.0,0.000152609,0.00397222,0.00460925,0.0,0.0,0.0,0.0,0.0,0.0
2980000,0.0,0.0,0.0,-0.00197228,-0.00126381,0.00686646,0.0,0.0,0.0,-0.002906,0.0,0.0,0.0,0.0,0.0,0.0,0.0,0.0,0.266602,0.266602,4.15901,0.0,0.0,0.0,0.0909818,0.0,0.0,0.0,0.0,0.0,0.000115657,0.00413925,0.0054407,0.0,0.0,0.0,0.0,0.0,0.0
3172000,0.0,0.0,0.0,-0.00194753,-0.00163902,0.0736389,0.0,0.0,0.0,0.000252419,0.0,0.0,0.0,0.0,0.0,0.0,0.0,0.0,0.266925,0.266925,4.15306,0.0,0.0,0.0,0.0909367,0.0,0.0,0.0,0.0,0.0,0.000133947,0.00469666,0.00650446,0.0,0.0,0.0,0.0,0.0,0.0
3364000,0.0,0.0,0.0,-0.0019088,-0.00181824,0.235138,0.0,0.0,0.0,0.00133547,0.0,0.0,0.0,0.0,0.0,0.0,0.0,0.0,0.267264,0.267264,4.14951,0.0,0.0,0.0,0.0909022,0.0,0.0,0.0,0.0,0.0,0.000156947,0.011367,0.0161312,0.0,0.0,0.0,0.0,0.0,0.0
3556000,0.0,0.0,0.0,-0.00152541,-0.00173621,-0.0319519,0.0,0.0,0.0,0.00123596,0.0,0.0,0.0,0.0,0.0,0.0,0.0,0.0,0.267147,0.267147,4.1449,0.0,0.0,0.0,0.090874,0.0,0.0,0.0,0.0,0.0,0.000193401,0.00722023,0.0115402,0.0,0.0,0.0,0.0,0.0,0.0
3748000,0.0,0.0,0.0,-0.000835394,-0.00162101,0.147522,0.0,0.0,0.0,0.000947156,0.0,0.0,0.0,0.0,0.0,0.0,0.0,0.0,0.26656,0.26656,4.13979,0.0,0.0,0.0,0.0908559,0.0,0.0,0.0,0.0,0.0,0.000161034,0.00613416,0.0101256,0.0,0.0,0.0,0.0,0.0,0.0
3940000,0.0,0.0,0.0,-0.000424705,-0.00168444,0.069458,0.0,0.0,0.0,-0.00116447,0.0,0.0,0.0,0.0,0.0,0.0,0.0,0.0,0.266326,0.266326,4.13737,0.0,0.0,0.0,0.0908412,0.0,0.0,0.0,0.0,0.0,0.00025081,0.00531372,0.00618114,0.0,0.0,0.0,0.0,0.0,0.0
4132000,0.0,0.0,0.0,-0.000224578,-0.00158029,-0.00384521,0.0,0.0,0.0,-0.00171102,0.0,0.0,0.0,0.0,0.0,0.0,0.0,0.0,0.266004,0.266004,4.13552,0.0,0.0,0.0,0.0908284,0.0,0.0,0.0,0.0,0.0,0.000234227,0.00305134,0.00440938,0.0,0.0,0.0,0.0,0.0,0.0
4324000,0.0,0.0,0.0,9.55503e-05,-0.00123924,0.0539246,0.0,0.0,0.0,0.000561153,0.0,0.0,0.0,0.0,0.0,0.0,0.0,0.0,0.265731,0.265731,4.13444,0.0,0.0,0.0,0.0908213,0.0,0.0,0.0,0.0,0.0,0.000214152,0.00589338,0.00945407,0.0,0.0,0.0,0.0,0.0,0.0
4516000,0.0,0.0,0.0,0.000430249,-0.00119719,-0.0689697,0.0,0.0,0.0,-0.000604788,0.0,0.0,0.0,0.0,0.0,0.0,0.0,0.0,0.265715,0.265715,4.13496,0.0,0.0,0.0,0.0908167,0.0,0.0,0.0,0.0,0.0,0.000156841,0.00745526,0.0121879,0.0,0.0,0.0,0.0,0.0,0.0
4708000,0.0,0.0,0.0,0.000530737,-0.00107414,-0.00830078,0.0,0.0,0.0,-0.00266608,0.0,0.0,0.0,0.0,0.0,0.0,0.0,0.0,0.265035,0.265036,4.13259,0.0,0.0,0.0,0.090814,0.0,0.0,0.0,0.0,0.0,0.000147048,0.00508071,0.00900506,0.0,0.0,0.0,0.0,0.0,0.0
4900000,0.0,0.0,0.0,0.000765152,-0.000794271,0.201111,0.0,0.0,0.0,-0.00277835,0.0,0.0,0.0,0.0,0.0,0.0,0.0,0.0,0.265094,0.265094,4.13359,0.0,0.0,0.0,0.0908128,0.0,0.0,0.0,0.0,0.0,0.000209874,0.00706967,0.00828126,0.0,0.0,0.0,0.0,0.0,0.0
5092000,0.0,0.0,0.0,0.000565691,-0.000205809,0.0174255,0.0,0.0,0.0,4.74881e-06,0.0,0.0,0.0,0.0,0.0,0.0,0.0,0.0,0.264542,0.264542,4.13134,0.0,0.0,0.0,0.0908145,0.0,0.0,0.0,0.0,0.0,0.00028557,0.00755357,0.0107196,0.0,0.0,0.0,0.0,0.0,0.0
5284000,0.0,0.0,0.0,0.000107903,0.000454656,0.00967407,0.0,0.0,0.0,-0.00163159,0.0,0.0,0.0,0.0,0.0,0.0,0.0,0.0,0.264362,0.264362,4.1305,0.0,0.0,0.0,0.0908146,0.0,0.0,0.0,0.0,0.0,8.22985e-05,0.0017782,0.00146097,0.0,0.0,0.0,0.0,0.0,0.0
5476000,0.0,0.0,0.0,-0.000132205,0.00103516,0.0301208,0.0,0.0,0.0,-0.00488144,0.0,0.0,0.0,0.0,0.0,0.0,0.0,0.0,0.264282,0.264282,4.12986,0.0,0.0,0.0,0.0908143,0.0,0.0,0.0,0.0,0.0,9.84719e-05,0.00159114,0.00155068,0.0,0.0,0.0,0.0,0.0,0.0
5668000,0.0,0.0,0.0,-0.000269476,0.00154823,-0.0785828,0.0,0.0,0.0,-0.000888824,0.0,0.0,0.0,0.0,0.0,0.0,0.0,0.0,0.263947,0.263947,4.12763,0.0,0.0,0.0,0.0908148,0.0,0.0,0.0,0.0,0.0,0.000140656,0.00223109,0.00258747,0.0,0.0,0.0,0.0,0.0,0.0
5860000,0.0,0.0,0.0,-0.000239624,0.00227013,0.0150757,0.0,0.0,0.0,-0.0127572,0.0,0.0,0.0,0.0,0.0,0.0,0.0,0.0,0.263902,0.263902,4.12667,0.0,0.0,0.0,0.0908125,0.0,0.0,0.0,0.0,0.0,0.000197264,0.0022593,0.00223945,0.0,0.0,0.0,0.0,0.0,0.0
6052000,0.0,0.0,0.0,0.000142803,0.00269093,-0.00354004,0.0,0.0,0.0,-0.000897416,0.0,0.0,0.0,0.0,0.0,0.0,0.0,0.0,0.26379,0.26379,4.12533,0.0,0.0,0.0,0.0908126,0.0,0.0,0.0,0.0,0.0,0.000276505,0.00276761,0.0030497,0.0,0.0,0.0,0.0,0.0,0.0
6252000,0.0,0.0,0.0,0.000486529,0.00309051,0.0179443,0.0,0.0,0.0,-0.00448909,0.0,0.0,0.0,0.0,0.0,0.0,0.0,0.0,0.263724,0.263724,4.12398,0.0,0.0,0.0,0.0908123,0.0,0.0,0.0,0.0,0.0,0.000284126,0.00306384,0.00346762,0.0,0.0,0.0,0.0,0.0,0.0
6444000,0.0,0.0,0.0,0.000756052,0.00313371,0.00915527,0.0,0.0,0.0,0.00664888,0.0,0.0,0.0,0.0,0.0,0.0,0.0,0.0,0.26364,0.26364,4.12244,0.0,0.0,0.0,0.090811,0.0,0.0,0.0,0.0,0.0,0.000338551,0.0037417,0.00465417,0.0,0.0,0.0,0.0,0.0,0.0
6636000,0.0,0.0,0.0,0.00102017,0.00271965,0.0342407,0.0,0.0,0.0,-0.00265829,0.0,0.0,0.0,0.0,0.0,0.0,0.0,0.0,0.263288,0.263288,4.11953,0.0,0.0,0.0,0.0908098,0.0,0.0,0.0,0.0,0.0,0.000294012,0.00427647,0.00609739,0.0,0.0,0.0,0.0,0.0,0.0
6828000,0.0,0.0,0.0,0.00116768,0.00220298,0.0306702,0.0,0.0,0.0,-2.6904e-05,0.0,0.0,0.0,0.0,0.0,0.0,0.0,0.0,0.263182,0.263182,4.11778,0.0,0.0,0.0,0.0908054,0.0,0.0,0.0,0.0,0.0,0.000284843,0.00264237,0.0028509,0.0,0.0,0.0,0.0,0.0,0.0
7020000,0.0,0.0,0.0,0.00114693,0.00181159,0.06604,0.0,0.0,0.0,-0.00166948,0.0,0.0,0.0,0.0,0.0,0.0,0.0,0.0,0.263019,0.263019,4.11589,0.0,0.0,0.0,0.0908031,0.0,0.0,0.0,0.0,0.0,0.000216297,0.00315945,0.00475495,0.0,0.0,0.0,0.0,0.0,0.0
7212000,0.0,0.0,0.0,0.00106752,0.00145671,-0.0611572,0.0,0.0,0.0,-0.000208672,0.0,0.0,0.0,0.0,0.0,0.0,0.0,0.0,0.262884,0.262884,4.114,0.0,0.0,0.0,0.0907999,0.0,0.0,0.0,0.0,0.0,0.000192236,0.00210005,0.00331853,0.0,0.0,0.0,0.0,0.0,0.0
7404000,0.0,0.0,0.0,0.000936677,0.00112304,0.0205994,0.0,0.0,0.0,-0.00420996,0.0,0.0,0.0,0.0,0.0,0.0,0.0,0.0,0.262733,0.262733,4.11205,0.0,0.0,0.0,0.0907964,0.0,0.0,0.0,0.0,0.0,0.000159396,0.00284543,0.00525328,0.0,0.0,0.0,0.0,0.0,0.0
7596000,0.0,0.0,0.0,0.000596317,0.000901511,0.00415039,0.0,0.0,0.0,0.00206591,0.0,0.0,0.0,0.0,0.0,0.0,0.0,0.0,0.262527,0.262527,4.11004,0.0,0.0,0.0,0.0907902,0.0,0.0,0.0,0.0,0.0,0.000218978,0.000685125,0.000915175,0.0,0.0,0.0,0.0,0.0,0.0
7788000,0.0,0.0,0.0,0.000194856,0.000557825,-0.0296021,0.0,0.0,0.0,-0.00295282,0.0,0.0,0.0,0.0,0.0,0.0,0.0,0.0,0.26235,0.26235,4.10803,0.0,0.0,0.0,0.0907857,0.0,0.0,0.0,0.0,0.0,0.000118444,0.00321469,0.0062597,0.0,0.0,0.0,0.0,0.0,0.0
7980000,0.0,0.0,0.0,-0.000129947,0.000233165,-0.12442,0.0,0.0,0.0,-0.00281837,0.0,0.0,0.0,0.0,0.0,0.0,0.0,0.0,0.261974,0.261974,4.10511,0.0,0.0,0.0,0.0907808,0.0,0.0,0.0,0.0,0.0,3.77391e-05,0.0051116,0.010206,0.0,0.0,0.0,0.0,0.0,0.0
8172000,0.0,0.0,0.0,-0.000108411,-0.00022309,0.0513611,0.0,0.0,0.0,0.000402066,0.0,0.0,0.0,0.0,0.0,0.0,0.0,0.0,0.261809,0.261809,4.1032,0.0,0.0,0.0,0.0907755,0.0,0.0,0.0,0.0,0.0,0.00014841,0.000475305,0.000873765,0.0,0.0,0.0,0.0,0.0,0.0
8364000,0.0,0.0,0.0,-0.000189531,-0.000455658,0.00875854,0.0,0.0,0.0,0.00175495,0.0,0.0,0.0,0.0,0.0,0.0,0.0,0.0,0.26162,0.26162,4.10132,0.0,0.0,0.0,0.0907698,0.0,0.0,0.0,0.0,0.0,0.000214745,0.000719776,0.00092404,0.0,0.0,0.0,0.0,0.0,0.0
8556000,0.0,0.0,0.0,-8.69033e-05,-0.000836778,0.0201111,0.0,0.0,0.0,0.00498048,0.0,0.0,0.0,0.0,0.0,0.0,0.0,0.0,0.261457,0.261457,4.09947,0.0,0.0,0.0,0.0907639,0.0,0.0,0.0,0.0,0.0,5.23876e-05,0.00101834,0.00146842,0.0,0.0,0.0,0.0,0.0,0.0
8748000,0.0,0.0,0.0,-0.00020083,-0.000951707,0.0140076,0.0,0.0,0.0,-0.00213586,0.0,0.0,0.0,0.0,0.0,0.0,0.0,0.0,0.261296,0.261296,4.09765,0.0,0.0,0.0,0.0907575,0.0,0.0,0.0,0.0,0.0,8.52179e-05,0.00210301,0.00407956,0.0,0.0,0.0,0.0,0.0,0.0
8940000,0.0,0.0,0.0,-0.00027307,-0.000911207,0.18158,0.0,0.0,0.0,-0.00451929,0.0,0.0,0.0,0.0,0.0,0.0,0.0,0.0,0.260971,0.260971,4.09513,0.0,0.0,0.0,0.0907489,0.0,0.0,0.0,0.0,0.0,7.80662e-05,0.00175929,0.00306756,0.0,0.0,0.0,0.0,0.0,0.0
9140000,0.0,0.0,0.0,-0.000454884,-0.000967313,0.0488892,0.0,0.0,0.0,-0.00304074,0.0,0.0,0.0,0.0,0.0,0.0,0.0,0.0,0.260828,0.260828,4.09344,0.0,0.0,0.0,0.0907421,0.0,0.0,0.0,0.0,0.0,0.000121462,0.00219816,0.00439854,0.0,0.0,0.0,0.0,0.0,0.0
9332000,0.0,0.0,0.0,-0.000904517,-0.00103301,-0.000549316,0.0,0.0,0.0,0.000602792,0.0,0.0,0.0,0.0,0.0,0.0,0.0,0.0,0.260678,0.260678,4.09185,0.0,0.0,0.0,0.090735,0.0,0.0,0.0,0.0,0.0,7.56749e-05,0.00220867,0.00474683,0.0,0.0,0.0,0.0,0.0,0.0
9524000,0.0,0.0,0.0,-0.00128589,-0.00110568,-0.0461121,0.0,0.0,0.0,0.0029818,0.0,0.0,0.0,0.0,0.0,0.0,0.0,0.0,0.260549,0.260549,4.09028,0.0,0.0,0.0,0.0907282,0.0,0.0,0.0,0.0,0.0,0.000178178,0.00328739,0.00747244,0.0,0.0,0.0,0.0,0.0,0.0
9716000,0.0,0.0,0.0,-0.00146885,-0.00125365,-0.0587769,0.0,0.0,0.0,0.00195302,0.0,0.0,0.0,0.0,0.0,0.0,0.0,0.0,0.260275,0.260275,4.08811,0.0,0.0,0.0,0.0907191,0.0,0.0,0.0,0.0,0.0,0.00012703,0.00216166,0.00509231,0.0,0.0,0.0,0.0,0.0,0.0
9908000,0.0,0.0,0.0,-0.00142872,-0.00196073,-0.055542,0.0,0.0,0.0,0.0100257,0.0,0.0,0.0,0.0,0.0,0.0,0.0,0.0,0.260157,0.260157,4.08664,0.0,0.0,0.0,0.0907118,0.0,0.0,0.0,0.0,0.0,0.000188705,0.00132531,0.0026926,0.0,0.0,0.0,0.0,0.0,0.0
10100000,0.0,0.0,0.0,-0.00124176,-0.00263509,0.109375,0.0,0.0,0.0,0.0037566,0.0,0.0,0.0,0.0,0.0,0.0,0.0,0.0,0.260024,0.260024,4.08525,0.0,0.0,0.0,0.0907043,0.0,0.0,0.0,0.0,0.0,0.000272966,0.00160054,0.00334254,0.0,0.0,0.0,0.0,0.0,0.0
10292000,0.0,0.0,0.0,-0.000863296,-0.00363016,-0.00320435,0.0,0.0,0.0,0.00117614,0.0,0.0,0.0,0.0,0.0,0.0,0.0,0.0,0.2599,0.2599,4.08387,0.0,0.0,0.0,0.0986435,0.0,0.0,0.0,0.0,0.0,0.000415874,0.00124933,0.00166608,0.0,0.0,0.0,0.0,0.0,0.0
10484000,0.0,0.0,0.0,-0.000362763,-0.00471805,0.0819397,0.0,0.0,0.0,-0.00547501,0.0,0.0,0.0,0.0,0.0,0.0,0.0,0.0,0.259554,0.259554,4.08253,0.0,0.0,0.0,0.0946371,0.0,0.0,0.0,0.0,0.0,0.00086664,0.00207411,0.00429124,0.0,0.0,0.0,0.0,0.0,0.0
10676000,0.0,0.0,0.0,0.000225977,-0.00604443,0.0137634,0.0,0.0,0.0,-0.00209381,0.0,0.0,0.0,0.0,0.0,0.0,0.0,0.0,0.259053,0.259053,4.0807,0.0,0.0,0.0,0.0931699,0.0,0.0,0.0,0.0,0.0,0.00037688,0.00261787,0.00584164,0.0,0.0,0.0,0.0,0.0,0.0
10868000,0.0,0.0,0.0,0.000751261,-0.00742803,0.0455322,0.0,0.0,0.0,-0.00773211,0.0,0.0,0.0,0.0,0.0,0.0,0.0,0.0,0.258856,0.258856,4.07951,0.0,0.0,0.0,0.0924095,0.0,0.0,0.0,0.0,0.0,0.000610199,0.0016575,0.00291925,0.0,0.0,0.0,0.0,0.0,0.0
11060000,0.0,0.0,0.0,0.00133742,-0.00876139,0.0206909,0.0,0.0,0.0,-0.00500007,0.0,0.0,0.0,0.0,0.0,0.0,0.0,0.0,0.259028,0.259028,4.07833,0.0,0.0,0.0,0.0919876,0.0,0.0,0.0,0.0,0.0,0.000804262,0.00226432,0.00342391,0.0,0.0,0.0,0.0,0.0,0.0
11252000,0.0,0.0,0.0,0.00181627,-0.00928781,0.0292053,0.0,0.0,0.0,0.00180052,0.0,0.0,0.0,0.0,0.0,0.0,0.0,0.0,0.259657,0.259657,4.07717,0.0,0.0,0.0,0.0916625,0.0,0.0,0.0,0.0,0.0,0.000858519,0.00316291,0.00366268,0.0,0.0,0.0,0.0,0.0,0.0
11444000,0.0,0.0,0.0,0.0019575,-0.00903768,-0.00314331,0.0,0.0,0.0,-0.0046538,0.0,0.0,0.0,0.0,0.0,0.0,0.0,0.0,0.260487,0.260487,4.07605,0.0,0.0,0.0,0.0914305,0.0,0.0,0.0,0.0,0.0,0.000696373,0.00385433,0.00440813,0.0,0.0,0.0,0.0,0.0,0.0
11636000,0.0,0.0,0.0,0.00215444,-0.00793825,-0.120178,0.0,0.0,0.0,-0.0115545,0.0,0.0,0.0,0.0,0.0,0.0,0.0,0.0,0.261614,0.261614,4.07495,0.0,0.0,0.0,0.0912744,0.0,0.0,0.0,0.0,0.0,0.000514497,0.00463993,0.0051091,0.0,0.0,0.0,0.0,0.0,0.0
11828000,0.0,0.0,0.0,0.0023235,-0.00607402,-0.0336304,0.0,0.0,0.0,-0.00497645,0.0,0.0,0.0,0.0,0.0,0.0,0.0,0.0,0.262617,0.262617,4.0739,0.0,0.0,0.0,0.091137,0.0,0.0,0.0,0.0,0.0,0.000507597,0.00452994,0.00430115,0.0,0.0,0.0,0.0,0.0,0.0
12020000,0.0,0.0,0.0,0.00210833,-0.00401103,0.0130005,0.0,0.0,0.0,0.00212609,0.0,0.0,0.0,0.0,0.0,0.0,0.0,0.0,0.263029,0.263029,4.07246,0.0,0.0,0.0,0.0910285,0.0,0.0,0.0,0.0,0.0,0.000522611,0.00369658,0.00362787,0.0,0.0,0.0,0.0,0.0,0.0
12212000,0.0,0.0,0.0,0.00177894,-0.00233464,-0.227661,0.0,0.0,0.0,-0.0105077,0.0,0.0,0.0,0.0,0.0,0.0,0.0,0.0,0.263259,0.263259,4.07153,0.0,0.0,0.0,0.0909498,0.0,0.0,0.0,0.0,0.0,0.000579324,0.00263825,0.00461118,0.0,0.0,0.0,0.0,0.0,0.0
12404000,0.0,0.0,0.0,0.00109763,-0.000642309,0.024292,0.0,0.0,0.0,-0.00377788,0.0,0.0,0.0,0.0,0.0,0.0,0.0,0.0,0.263289,0.263289,4.07063,0.0,0.0,0.0,0.0908766,0.0,0.0,0.0,0.0,0.0,0.000804509,0.00190248,0.00477921,0.0,0.0,0.0,0.0,0.0,0.0
12596000,0.0,0.0,0.0,0.000917842,0.00105777,0.232422,0.0,0.0,0.0,-0.00754061,0.0,0.0,0.0,0.0,0.0,0.0,0.0,0.0,0.263087,0.263087,4.06979,0.0,0.0,0.0,0.0908154,0.0,0.0,0.0,0.0,0.0,0.000662967,0.00128645,0.00152701,0.0,0.0,0.0,0.0,0.0,0.0
12788000,0.0,0.0,0.0,0.000477918,0.0023204,0.143066,0.0,0.0,0.0,-0.00338382,0.0,0.0,0.0,0.0,0.0,0.0,0.0,0.0,0.262738,0.262738,4.06899,0.0,0.0,0.0,0.0907646,0.0,0.0,0.0,0.0,0.0,0.000673404,0.00222123,0.00274622,0.0,0.0,0.0,0.0,0.0,0.0
12980000,0.0,0.0,0.0,0.000232844,0.00334644,0.00424194,0.0,0.0,0.0,-0.00011619,0.0,0.0,0.0,0.0,0.0,0.0,0.0,0.0,0.262327,0.262327,4.06824,0.0,0.0,0.0,0.0907261,0.0,0.0,0.0,0.0,0.0,0.000362597,0.00341358,0.00588257,0.0,0.0,0.0,0.0,0.0,0.0
13172000,0.0,0.0,0.0,0.00015707,0.00407129,-0.139923,0.0,0.0,0.0,-0.00972452,0.0,0.0,0.0,0.0,0.0,0.0,0.0,0.0,0.26186,0.26186,4.06753,0.0,0.0,0.0,0.0906897,0.0,0.0,0.0,0.0,0.0,0.000391456,0.00361298,0.0053842,0.0,0.0,0.0,0.0,0.0,0.0
13364000,0.0,0.0,0.0,0.000514787,0.00471581,0.118195,0.0,0.0,0.0,0.00304062,0.0,0.0,0.0,0.0,0.0,0.0,0.0,0.0,0.261407,0.261407,4.06685,0.0,0.0,0.0,0.0906613,0.0,0.0,0.0,0.0,0.0,0.000235781,0.0034607,0.0047662,0.0,0.0,0.0,0.0,0.0,0.0
13556000,0.0,0.0,0.0,0.0010157,0.00530073,0.0684509,0.0,0.0,0.0,0.00130538,0.0,0.0,0.0,0.0,0.0,0.0,0.0,0.0,0.260939,0.260939,4.06622,0.0,0.0,0.0,0.0906339,0.0,0.0,0.0,0.0,0.0,0.000132847,0.00372192,0.00628097,0.0,0.0,0.0,0.0,0.0,0.0
13748000,0.0,0.0,0.0,0.00147131,0.00582017,-0.098053,0.0,0.0,0.0,0.00232099,0.0,0.0,0.0,0.0,0.0,0.0,0.0,0.0,0.260509,0.260509,4.06565,0.0,0.0,0.0,0.0906105,0.0,0.0,0.0,0.0,0.0,8.98642e-05,0.00360798,0.00608482,0.0,0.0,0.0,0.0,0.0,0.0
13940000,0.0,0.0,0.0,0.00190432,0.0057042,-0.0678406,0.0,0.0,0.0,-0.0011769,0.0,0.0,0.0,0.0,0.0,0.0,0.0,0.0,0.259993,0.259993,4.06478,0.0,0.0,0.0,0.0905898,0.0,0.0,0.0,0.0,0.0,8.23524e-05,0.00321505,0.00485839,0.0,0.0,0.0,0.0,0.0,0.0
14132000,0.0,0.0,0.0,0.00222925,0.0056755,0.00375366,0.0,0.0,0.0,-0.0016649,0.0,0.0,0.0,0.0,0.0,0.0,0.0,0.0,0.259665,0.259665,4.06432,0.0,0.0,0.0,0.0905743,0.0,0.0,0.0,0.0,0.0,0.0001844,0.00271452,0.0040815,0.0,0.0,0.0,0.0,0.0,0.0
14324000,0.0,0.0,0.0,0.0024753,0.00536887,-0.0354004,0.0,0.0,0.0,-0.00302942,0.0,0.0,0.0,0.0,0.0,0.0,0.0,0.0,0.25936,0.25936,4.06393,0.0,0.0,0.0,0.0905594,0.0,0.0,0.0,0.0,0.0,0.000256166,0.00237194,0.00363602,0.0,0.0,0.0,0.0,0.0,0.0
14516000,0.0,0.0,0.0,0.00314226,0.00529369,-0.0420227,0.0,0.0,0.0,-0.00301377,0.0,0.0,0.0,0.0,0.0,0.0,0.0,0.0,0.259087,0.259087,4.0636,0.0,0.0,0.0,0.0905467,0.0,0.0,0.0,0.0,0.0,0.000308712,0.00218893,0.00392675,0.0,0.0,0.0,0.0,0.0,0.0
14708000,0.0,0.0,0.0,0.0,0.0,0.163757,0.0,0.0,0.0,-0.00878904,0.0,0.0,0.0,0.0,0.0,0.3125,0.3125,0.625,0.72,0.72,4.06169,0.0,0.0,0.0,0.0905351,0.0,0.0,0.0,0.0,0.0,0.000216728,0.00156907,0.0045214,0.0,0.0,0.0,0.0,0.0,0.0
14900000,0.00255721,0.00272508,-0.00130785,-0.0110321,0.00733986,-0.0391846,0.0,0.0,0.0,-0.00270806,0.0,0.0,0.0,0.0,0.0,0.291853,0.291853,0.61376,0.443324,0.443324,4.05673,0.0,0.0,0.0,0.0905268,0.0,0.0,0.0,0.0,0.0,0.000163207,0.00111772,0.00923948,0.0,0.0,0.0,0.0,0.0,0.0
15092000,0.00415569,0.00614153,-0.00013715,-0.00584024,-0.00530718,-0.0335693,0.0,0.0,0.0,-0.00437671,0.0,0.0,0.0,0.0,0.0,0.281485,0.281485,0.60574,0.372474,0.372474,4.05436,0.0,0.0,0.0,0.0905189,0.0,0.0,0.0,0.0,0.0,0.000229674,0.00136488,0.00359836,0.0,0.0,0.0,0.0,0.0,0.0
15284000,0.00494741,0.00807621,-0.00121012,0.00772627,-0.0164967,0.0483398,0.0,0.0,0.0,-0.00456575,0.0,0.0,0.0,0.0,0.0,0.275237,0.275237,0.59959,0.330828,0.330828,4.05369,0.0,0.0,0.0,0.0905124,0.0,0.0,0.0,0.0,0.0,0.000312817,0.00109358,0.00377437,0.0,0.0,0.0,0.0,0.0,0.0
15476000,0.00568841,0.0097347,-0.00167751,0.00628634,-0.0185816,-0.132538,0.0,0.0,0.0,0.000389619,0.0,0.0,0.0,0.0,0.0,0.271068,0.271068,0.594667,0.299301,0.299301,4.05436,0.0,0.0,0.0,0.0905074,0.0,0.0,0.0,0.0,0.0,0.000176993,0.00138577,0.00609104,0.0,0.0,0.0,0.0,0.0,0.0
15668000,0.00446604,0.011544,-0.00399137,0.00573143,-0.0155335,-0.0706177,0.0,0.0,0.0,-0.00503897,0.0,0.0,0.0,0.0,0.0,0.269454,0.269454,0.592608,0.285473,0.285473,4.05493,0.0,0.0,0.0,0.0905028,0.0,0.0,0.0,0.0,0.0,8.51157e-05,0.00116408,0.00454185,0.0,0.0,0.0,0.0,0.0,0.0
15860000,0.00324746,0.0143937,-0.000225157,0.00365784,0.00372574,-0.100647,0.0,0.0,0.0,0.0014094,0.0,0.0,0.0,0.0,0.0,0.266928,0.266928,0.588794,0.280281,0.280281,4.0552,0.0,0.0,0.0,0.0904983,0.0,0.0,0.0,0.0,0.0,3.8104e-05,0.00172642,0.00406775,0.0,0.0,0.0,0.0,0.0,0.0
16052000,0.00479654,0.0175924,-0.000399739,0.00338688,0.0048205,-0.0325623,0.0,0.0,0.0,-0.00267952,0.0,0.0,0.0,0.0,0.0,0.265076,0.265076,0.585709,0.277086,0.277086,4.05578,0.0,0.0,0.0,0.0904953,0.0,0.0,0.0,0.0,0.0,0.000172282,0.00148161,0.00150099,0.0,0.0,0.0,0.0,0.0,0.0
16244000,0.00596481,0.0201899,0.00237594,0.0044414,0.0219024,-0.036499,0.0,0.0,0.0,-0.00114082,0.0,0.0,0.0,0.0,0.0,0.263701,0.263701,0.583113,0.275015,0.275015,4.05588,0.0,0.0,0.0,0.0904931,0.0,0.0,0.0,0.0,0.0,0.000240776,0.00212048,0.00319255,0.0,0.0,0.0,0.0,0.0,0.0
16436000,0.00453457,0.0210351,0.0025178,-0.0170851,0.0130592,0.0257263,0.0,0.0,0.0,-0.00248584,0.0,0.0,0.0,0.0,0.0,0.262689,0.262689,0.580923,0.273626,0.273626,4.0562,0.0,0.0,0.0,0.0904913,0.0,0.0,0.0,0.0,0.0,0.000157073,0.00266596,0.00457538,0.0,0.0,0.0,0.0,0.0,0.0
16628000,0.00259507,0.0219189,0.00300431,-0.00365065,0.0134252,-0.0389099,0.0,0.0,0.0,0.00187332,0.0,0.0,0.0,0.0,0.0,0.261957,0.261957,0.579077,0.272674,0.272674,4.05634,0.0,0.0,0.0,0.09049,0.0,0.0,0.0,0.0,0.0,8.31595e-05,0.00273487,0.00478891,0.0,0.0,0.0,0.0,0.0,0.0
16820000,0.00287844,0.0209473,0.00282547,-0.00273421,-0.000687407,-0.0696716,0.0,0.0,0.0,-0.00417302,0.0,0.0,0.0,0.0,0.0,0.261453,0.261453,0.577524,0.272014,0.272014,4.05599,0.0,0.0,0.0,0.0904881,0.0,0.0,0.0,0.0,0.0,0.000135991,0.00202786,0.00342788,0.0,0.0,0.0,0.0,0.0,0.0
17012000,0.00306937,0.0230919,0.00199699,-0.00205375,0.0158993,0.0365906,0.0,0.0,0.0,0.00556064,0.0,0.0,0.0,0.0,0.0,0.261133,0.261133,0.576222,0.271557,0.271557,4.05563,0.0,0.0,0.0,0.0904873,0.0,0.0,0.0,0.0,0.0,0.000153601,0.00260928,0.00467301,0.0,0.0,0.0,0.0,0.0,0.0
17204000,0.0039552,0.0262806,0.000970014,0.00897245,-0.00502669,-0.0160828,0.0,0.0,0.0,-0.00271877,0.0,0.0,0.0,0.0,0.0,0.26096,0.26096,0.575138,0.271245,0.271245,4.0554,0.0,0.0,0.0,0.090487,0.0,0.0,0.0,0.0,0.0,0.000182278,0.002049,0.00368148,0.0,0.0,0.0,0.0,0.0,0.0
17396000,0.00726192,0.0283112,0.000104329,0.0297383,9.58405e-05,0.0683289,0.0,0.0,0.0,-0.00568956,0.0,0.0,0.0,0.0,0.0,0.260904,0.260904,0.574243,0.271043,0.271043,4.05507,0.0,0.0,0.0,0.0904868,0.0,0.0,0.0,0.0,0.0,0.000189887,0.0023511,0.00484156,0.0,0.0,0.0,0.0,0.0,0.0
17596000,0.00722801,0.0259126,0.00295898,0.0158792,0.0175364,-0.0139771,0.0,0.0,0.0,0.000300297,0.0,0.0,0.0,0.0,0.0,0.260934,0.260934,0.573511,0.270924,0.270923,4.05437,0.0,0.0,0.0,0.0904858,0.0,0.0,0.0,0.0,0.0,0.000261246,0.00278411,0.0047386,0.0,0.0,0.0,0.0,0.0,0.0
17788000,0.0072941,0.0262262,0.00340412,-0.00621386,0.0103169,-0.0710144,0.0,0.0,0.0,0.00496188,0.0,0.0,0.0,0.0,0.0,0.261029,0.261029,0.57284,0.27087,0.27087,4.05392,0.0,0.0,0.0,0.090486,0.0,0.0,0.0,0.0,0.0,0.000257349,0.00264963,0.00389024,0.0,0.0,0.0,0.0,0.0,0.0
17980000,0.00670155,0.0255745,0.00310976,0.00571401,0.00417231,-0.0463562,0.0,0.0,0.0,-0.00866013,0.0,0.0,0.0,0.0,0.0,0.261164,0.261164,0.57238,0.270868,0.270867,4.05386,0.0,0.0,0.0,0.0904859,0.0,0.0,0.0,0.0,0.0,0.000235186,0.00252103,0.00359241,0.0,0.0,0.0,0.0,0.0,0.0
18180000,0.00776869,0.0248625,0.000588641,0.00569144,0.0271787,-0.0244751,0.0,0.0,0.0,0.00236349,0.0,0.0,0.0,0.0,0.0,0.26132,0.26132,0.572025,0.270906,0.270906,4.05333,0.0,0.0,0.0,0.0904862,0.0,0.0,0.0,0.0,0.0,0.00028097,0.00357187,0.00583148,0.0,0.0,0.0,0.0,0.0,0.0
18372000,0.00722614,0.0222998,-0.000225,0.00462285,-0.00340034,0.16275,0.0,0.0,0.0,0.00383823,0.0,0.0,0.0,0.0,0.0,0.261473,0.261473,0.571762,0.270975,0.270975,4.0528,0.0,0.0,0.0,0.0904864,0.0,0.0,0.0,0.0,0.0,0.000275799,0.00260134,0.00434762,0.0,0.0,0.0,0.0,0.0,0.0
18564000,0.00851062,0.0213279,0.00114283,-0.00635503,0.0131854,-0.0149841,0.0,0.0,0.0,-0.00285001,0.0,0.0,0.0,0.0,0.0,0.261587,0.261587,0.571707,0.271111,0.271111,4.05227,0.0,0.0,0.0,0.0904867,0.0,0.0,0.0,0.0,0.0,0.000197192,0.000919086,0.00189486,0.0,0.0,0.0,0.0,0.0,0.0
18756000,0.00644075,0.0221216,-0.00081832,0.0159182,0.0129644,0.105255,0.0,0.0,0.0,-0.00127257,0.0,0.0,0.0,0.0,0.0,0.261718,0.261718,0.571491,0.271211,0.271211,4.05151,0.0,0.0,0.0,0.0904859,0.0,0.0,0.0,0.0,0.0,0.000211439,0.00127588,0.0024583,0.0,0.0,0.0,0.0,0.0,0.0
18948000,0.00440049,0.0177457,-0.065553,0.0149881,0.0119078,0.191254,0.0,0.0,0.0,-0.00732789,0.0,0.0,0.0,0.0,0.0,0.261897,0.261896,0.571404,0.271324,0.271324,4.05095,0.0,0.0,0.0,0.0904868,0.0,0.0,0.0,0.0,0.0,0.000227411,0.00117042,0.00276022,0.0,0.0,0.0,0.0,0.0,0.0
19140000,0.001226,-0.000692131,-0.149421,0.0137295,0.0100155,0.0110474,0.0,0.0,0.0,-0.000368552,0.0,0.0,0.0,0.0,0.0,0.262266,0.262266,0.571368,0.271458,0.271458,4.05052,0.0,0.0,0.0,0.0904868,0.0,0.0,0.0,0.0,0.0,0.000151628,0.00330571,0.00615863,0.0,0.0,0.0,0.0,0.0,0.0
19332000,-0.00106638,0.00941777,-0.138511,-0.00982154,0.0280204,0.0981445,0.0,0.0,0.0,-0.00462163,0.0,0.0,0.0,0.0,0.0,0.262578,0.262578,0.571375,0.271608,0.271608,4.05014,0.0,0.0,0.0,0.0904858,0.0,0.0,0.0,0.0,0.0,0.000169794,0.00389458,0.00680567,0.0,0.0,0.0,0.0,0.0,0.0
19524000,-0.000260497,0.0170809,-0.191394,0.00188738,0.0200943,0.088623,0.0,0.0,0.0,0.0076364,0.0,0.0,0.0,0.0,0.0,0.262816,0.262816,0.571417,0.271765,0.271765,4.0497,0.0,0.0,0.0,0.0904855,0.0,0.0,0.0,0.0,0.0,0.000289541,0.00528117,0.0099976,0.0,0.0,0.0,0.0,0.0,0.0
19716000,0.00179161,0.0140924,-0.175956,0.0016913,0.0221586,0.0365601,0.0,0.0,0.0,0.00331034,0.0,0.0,0.0,0.0,0.0,0.262979,0.262979,0.571486,0.271919,0.271919,4.04941,0.0,0.0,0.0,0.0904853,0.0,0.0,0.0,0.0,0.0,0.000324976,0.00599967,0.0117641,0.0,0.0,0.0,0.0,0.0,0.0
19908000,0.00635896,0.0177263,-0.158473,-0.0193624,0.0234186,0.0579224,0.0,0.0,0.0,-0.00116239,0.0,0.0,0.0,0.0,0.0,0.26306,0.26306,0.571576,0.272063,0.272063,4.04894,0.0,0.0,0.0,0.090485,0.0,0.0,0.0,0.0,0.0,0.000318201,0.00636339,0.012778,0.0,0.0,0.0,0.0,0.0,0.0
20100000,0.0057265,0.010748,-0.147503,0.00554594,0.0259423,0.00790405,0.0,0.0,0.0,0.000939677,0.0,0.0,0.0,0.0,0.0,0.263074,0.263074,0.57168,0.272192,0.272192,4.04876,0.0,0.0,0.0,0.0904836,0.0,0.0,0.0,0.0,0.0,0.000249648,0.00464709,0.00806042,0.0,0.0,0.0,0.0,0.0,0.0
20292000,0.00434913,0.00797957,-0.126873,0.0171935,0.000107754,0.0420837,0.0,0.0,0.0,0.00444397,0.0,0.0,0.0,0.0,0.0,0.263022,0.263022,0.571795,0.272302,0.272302,4.0489,0.0,0.0,0.0,0.0904829,0.0,0.0,0.0,0.0,0.0,0.000251377,0.00256575,0.00237421,0.0,0.0,0.0,0.0,0.0,0.0
20484000,0.000201786,0.0138763,-0.108254,0.0146726,0.00818336,0.139252,0.0,0.0,0.0,-0.00104284,0.0,0.0,0.0,0.0,0.0,0.261594,0.261594,0.571915,0.272335,0.272335,4.04882,0.0,0.0,0.0,0.0966248,0.0,0.0,0.0,0.0,0.0,0.00048213,0.00154358,0.00192792,0.0,0.0,0.0,0.0,0.0,0.0
20676000,-4.0618e-05,0.0199221,-0.0971165,0.00032075,0.0150649,0.0568542,0.0,0.0,0.0,0.00157036,0.0,0.0,0.0,0.0,0.0,0.260697,0.260696,0.572035,0.272174,0.272174,4.04879,0.0,0.0,0.0,0.0939856,0.0,0.0,0.0,0.0,0.0,0.00189386,0.000916513,0.00368181,0.0,0.0,0.0,0.0,0.0,0.0
20868000,0.00205796,0.0220445,-0.119444,0.000369863,0.0224729,0.00582886,0.0,0.0,0.0,-0.00115218,0.0,0.0,0.0,0.0,0.0,0.260789,0.260788,0.572046,0.271959,0.271959,4.04855,0.0,0.0,0.0,0.0929441,0.0,0.0,0.0,0.0,0.0,0.0012884,0.00148332,0.00674332,0.0,0.0,0.0,0.0,0.0,0.0
21060000,0.00644401,0.0212515,0.164331,0.0119688,0.000485672,0.260773,0.0,0.0,0.0,0.000344338,0.0,0.0,0.0,0.0,0.0,0.261563,0.261562,0.572162,0.271691,0.271691,4.04845,0.0,0.0,0.0,0.0922761,0.0,0.0,0.0,0.0,0.0,0.000549917,0.00657388,0.015999,0.0,0.0,0.0,0.0,0.0,0.0
21252000,0.00570934,0.0105665,0.138228,-0.0216159,0.0102464,0.0714722,0.0,0.0,0.0,0.000902695,0.0,0.0,0.0,0.0,0.0,0.263038,0.263037,0.572271,0.271463,0.271463,4.04853,0.0,0.0,0.0,0.091856,0.0,0.0,0.0,0.0,0.0,0.000153347,0.00805323,0.0177887,0.0,0.0,0.0,0.0,0.0,0.0
21444000,0.00672086,0.0202302,0.123618,-0.0185553,0.0129035,0.252869,0.0,0.0,0.0,-0.0017067,0.0,0.0,0.0,0.0,0.0,0.264894,0.264894,0.572373,0.271345,0.271345,4.04863,0.0,0.0,0.0,0.0915679,0.0,0.0,0.0,0.0,0.0,0.000333511,0.00811133,0.0177489,0.0,0.0,0.0,0.0,0.0,0.0
21636000,0.00539394,0.0201808,0.0954129,0.00536703,0.01431,0.0164795,0.0,0.0,0.0,0.00568417,0.0,0.0,0.0,0.0,0.0,0.266791,0.266791,0.572462,0.271378,0.271378,4.04858,0.0,0.0,0.0,0.0913787,0.0,0.0,0.0,0.0,0.0,0.000302747,0.00661479,0.0140151,0.0,0.0,0.0,0.0,0.0,0.0
21828000,0.00326166,0.0161636,0.0674118,0.0160554,-0.00812112,0.0170593,0.0,0.0,0.0,0.00260327,0.0,0.0,0.0,0.0,0.0,0.268451,0.268451,0.572542,0.271559,0.271559,4.04872,0.0,0.0,0.0,0.091215,0.0,0.0,0.0,0.0,0.0,0.000375998,0.00529825,0.011221,0.0,0.0,0.0,0.0,0.0,0.0
22020000,0.00155002,0.0133945,0.0467327,0.0146663,0.00882368,0.063385,0.0,0.0,0.0,-0.000781682,0.0,0.0,0.0,0.0,0.0,0.269675,0.269675,0.572611,0.271856,0.271855,4.04887,0.0,0.0,0.0,0.0910871,0.0,0.0,0.0,0.0,0.0,0.000187703,0.00498362,0.0114643,0.0,0.0,0.0,0.0,0.0,0.0
22212000,-0.000143032,0.0127045,0.0466353,0.0123875,0.00157524,-0.00338745,0.0,0.0,0.0,0.00175146,0.0,0.0,0.0,0.0,0.0,0.270383,0.270383,0.572671,0.272219,0.272219,4.04879,0.0,0.0,0.0,0.0909845,0.0,0.0,0.0,0.0,0.0,0.000141514,0.00416474,0.00950522,0.0,0.0,0.0,0.0,0.0,0.0
22404000,0.000703778,0.0123419,0.0334096,-0.000581366,-0.00457784,0.0942383,0.0,0.0,0.0,-0.00146613,0.0,0.0,0.0,0.0,0.0,0.27059,0.27059,0.572721,0.272597,0.272597,4.04878,0.0,0.0,0.0,0.0909093,0.0,0.0,0.0,0.0,0.0,0.000146431,0.00306078,0.00699842,0.0,0.0,0.0,0.0,0.0,0.0
22596000,-0.000135932,0.0136805,0.0214146,-0.00230294,-0.0115697,-0.0462036,0.0,0.0,0.0,-0.00547866,0.0,0.0,0.0,0.0,0.0,0.270373,0.270373,0.572693,0.27295,0.27295,4.04896,0.0,0.0,0.0,0.0908385,0.0,0.0,0.0,0.0,0.0,0.000181933,0.000895402,0.00239455,0.0,0.0,0.0,0.0,0.0,0.0
22788000,0.00170991,0.0102985,0.0130869,-0.00277232,-0.00135007,-0.0134888,0.0,0.0,0.0,-0.00047572,0.0,0.0,0.0,0.0,0.0,0.269846,0.269846,0.572723,0.273249,0.273249,4.04915,0.0,0.0,0.0,0.090779,0.0,0.0,0.0,0.0,0.0,0.000169271,0.00119547,0.00275433,0.0,0.0,0.0,0.0,0.0,0.0
22980000,0.00419456,0.0114237,0.00645339,-0.00208234,0.00593205,-0.00280762,0.0,0.0,0.0,-0.00176273,0.0,0.0,0.0,0.0,0.0,0.269104,0.269103,0.572744,0.273482,0.273482,4.04907,0.0,0.0,0.0,0.0907282,0.0,0.0,0.0,0.0,0.0,0.00010596,0.000621333,0.00273605,0.0,0.0,0.0,0.0,0.0,0.0
23172000,0.00565045,0.0102426,-0.00680745,0.00975619,-0.00229034,0.168457,0.0,0.0,0.0,-0.0049791,0.0,0.0,0.0,0.0,0.0,0.268229,0.268229,0.572758,0.273643,0.273643,4.04955,0.0,0.0,0.0,0.0906894,0.0,0.0,0.0,0.0,0.0,0.000193649,0.000624495,0.00203711,0.0,0.0,0.0,0.0,0.0,0.0
23364000,0.00605227,0.010516,-0.0048722,-0.00189501,0.0133758,0.0437927,0.0,0.0,0.0,-0.0016757,0.0,0.0,0.0,0.0,0.0,0.267833,0.267833,0.572748,0.273827,0.273827,4.04972,0.0,0.0,0.0,0.0906515,0.0,0.0,0.0,0.0,0.0,7.89206e-05,0.00122998,0.00372788,0.0,0.0,0.0,0.0,0.0,0.0
23556000,0.00604181,0.00831131,-0.00957096,0.0100214,0.0343345,-0.112183,0.0,0.0,0.0,0.000124557,0.0,0.0,0.0,0.0,0.0,0.266872,0.266872,0.572751,0.273885,0.273885,4.04989,0.0,0.0,0.0,0.0906187,0.0,0.0,0.0,0.0,0.0,0.000144703,0.00125208,0.00373555,0.0,0.0,0.0,0.0,0.0,0.0
23748000,-0.00420264,0.00671762,-0.0156209,-0.00143153,0.0152632,0.0447693,0.0,0.0,0.0,-0.00136802,0.0,0.0,0.0,0.0,0.0,0.265915,0.265915,0.572749,0.273883,0.273883,4.04986,0.0,0.0,0.0,0.0905929,0.0,0.0,0.0,0.0,0.0,0.000159128,0.0013436,0.00385135,0.0,0.0,0.0,0.0,0.0,0.0
23940000,-0.00297149,0.00296607,-0.0121068,-0.0114903,0.0148896,0.0204163,0.0,0.0,0.0,-0.000515483,0.0,0.0,0.0,0.0,0.0,0.264991,0.264991,0.572743,0.273829,0.273829,4.05001,0.0,0.0,0.0,0.0905675,0.0,0.0,0.0,0.0,0.0,7.50887e-05,0.00212594,0.00489672,0.0,0.0,0.0,0.0,0.0,0.0
24140000,-0.000888111,0.00446518,-0.016133,0.00331891,-0.0148606,-0.0367432,0.0,0.0,0.0,-0.00104861,0.0,0.0,0.0,0.0,0.0,0.264116,0.264116,0.572733,0.273732,0.273732,4.04988,0.0,0.0,0.0,0.0905448,0.0,0.0,0.0,0.0,0.0,2.7524e-05,0.00328587,0.00693172,0.0,0.0,0.0,0.0,0.0,0.0
24332000,0.00274034,-5.19957e-05,-0.0160984,-0.00619791,-0.00232154,0.00991821,0.0,0.0,0.0,-0.00178101,0.0,0.0,0.0,0.0,0.0,0.263305,0.263305,0.57272,0.273599,0.273599,4.05,0.0,0.0,0.0,0.0905252,0.0,0.0,0.0,0.0,0.0,7.14558e-05,0.00371831,0.00720542,0.0,0.0,0.0,0.0,0.0,0.0
24524000,-0.00827497,0.00276539,-0.0152861,0.00864014,0.0102997,-0.0116882,0.0,0.0,0.0,0.00388568,0.0,0.0,0.0,0.0,0.0,0.262558,0.262558,0.572705,0.273439,0.273439,4.05012,0.0,0.0,0.0,0.0905078,0.0,0.0,0.0,0.0,0.0,5.45405e-05,0.00326096,0.00608623,0.0,0.0,0.0,0.0,0.0,0.0
24716000,-0.0112348,0.000183962,-0.00766098,0.0101513,-0.00935535,0.0416565,0.0,0.0,0.0,0.00234913,0.0,0.0,0.0,0.0,0.0,0.261881,0.261881,0.57269,0.273256,0.273256,4.04996,0.0,0.0,0.0,0.0904922,0.0,0.0,0.0,0.0,0.0,7.6734e-05,0.00338592,0.00642932,0.0,0.0,0.0,0.0,0.0,0.0
24908000,-0.0129359,-0.000299785,-0.00504398,0.000954849,-0.0185013,-0.0245972,0.0,0.0,0.0,-0.00140786,0.0,0.0,0.0,0.0,0.0,0.261269,0.261269,0.572675,0.273058,0.273058,4.04988,0.0,0.0,0.0,0.09048,0.0,0.0,0.0,0.0,0.0,8.35353e-05,0.00429197,0.00770931,0.0,0.0,0.0,0.0,0.0,0.0
25100000,-0.0129776,-0.00958717,-0.00630581,-0.00783333,-0.00418815,-0.136169,0.0,0.0,0.0,0.000354572,0.0,0.0,0.0,0.0,0.0,0.260725,0.260725,0.572659,0.272849,0.272849,4.04997,0.0,0.0,0.0,0.0904679,0.0,0.0,0.0,0.0,0.0,8.81688e-05,0.00489911,0.00944677,0.0,0.0,0.0,0.0,0.0,0.0
25292000,-0.0141252,-0.00405103,-0.00630736,0.0283655,0.000942236,0.0329895,0.0,0.0,0.0,0.000652166,0.0,0.0,0.0,0.0,0.0,0.260244,0.260244,0.572572,0.272633,0.272633,4.05005,0.0,0.0,0.0,0.0904573,0.0,0.0,0.0,0.0,0.0,5.8401e-05,0.00376438,0.00729362,0.0,0.0,0.0,0.0,0.0,0.0
25484000,-0.0191854,-0.00900061,-0.118946,0.00552371,-0.00996052,0.0270081,0.0,0.0,0.0,0.000216473,0.0,0.0,0.0,0.0,0.0,0.25988,0.25988,0.572557,0.272417,0.272417,4.05045,0.0,0.0,0.0,0.0904487,0.0,0.0,0.0,0.0,0.0,6.59539e-05,0.00527555,0.0101257,0.0,0.0,0.0,0.0,0.0,0.0
25676000,-0.0198705,-0.00264566,-0.304098,-0.0149819,0.00192598,-0.131653,0.0,0.0,0.0,-0.00515101,0.0,0.0,0.0,0.0,0.0,0.25973,0.25973,0.572543,0.272215,0.272215,4.05051,0.0,0.0,0.0,0.0904403,0.0,0.0,0.0,0.0,0.0,0.000103638,0.0113649,0.0223192,0.0,0.0,0.0,0.0,0.0,0.0
25868000,-0.0194328,-0.00504234,-0.329651,-0.0128296,-0.0201069,-0.012207,0.0,0.0,0.0,-0.00306988,0.0,0.0,0.0,0.0,0.0,0.259693,0.259693,0.572552,0.272028,0.272028,4.05057,0.0,0.0,0.0,0.090433,0.0,0.0,0.0,0.0,0.0,0.000113362,0.00844719,0.0159856,0.0,0.0,0.0,0.0,0.0,0.0
26060000,-0.0180871,-0.00751117,-0.338599,-0.0312853,-0.00190466,-0.0510864,0.0,0.0,0.0,0.000779714,0.0,0.0,0.0,0.0,0.0,0.25966,0.25966,0.57254,0.271862,0.271862,4.05036,0.0,0.0,0.0,0.090426,0.0,0.0,0.0,0.0,0.0,0.0001623,0.00900664,0.0161768,0.0,0.0,0.0,0.0,0.0,0.0
26252000,-0.0252764,-0.000508489,-0.00210023,-0.0247278,-0.00808958,0.0808716,0.0,0.0,0.0,-0.0109817,0.0,0.0,0.0,0.0,0.0,0.259416,0.259416,0.57253,0.271705,0.271704,4.05024,0.0,0.0,0.0,0.0904209,0.0,0.0,0.0,0.0,0.0,0.00019976,0.00454268,0.00769617,0.0,0.0,0.0,0.0,0.0,0.0
26444000,-0.0262585,-0.00512757,0.00925589,-0.0077297,-0.0205415,0.0826721,0.0,0.0,0.0,0.00207639,0.0,0.0,0.0,0.0,0.0,0.259164,0.259164,0.572521,0.271548,0.271548,4.05029,0.0,0.0,0.0,0.0904159,0.0,0.0,0.0,0.0,0.0,0.000157586,0.00410757,0.00761752,0.0,0.0,0.0,0.0,0.0,0.0
26644000,-0.0211168,-0.00609471,0.0248363,-0.0364757,-0.0106002,-0.0295715,0.0,0.0,0.0,-0.00417198,0.0,0.0,0.0,0.0,0.0,0.258944,0.258944,0.572514,0.271396,0.271396,4.05034,0.0,0.0,0.0,0.0904116,0.0,0.0,0.0,0.0,0.0,0.00017191,0.00553277,0.0117905,0.0,0.0,0.0,0.0,0.0,0.0
26836000,-0.0254751,-0.00699084,0.0207078,-0.0314857,0.0122954,0.0366516,0.0,0.0,0.0,-0.00150961,0.0,0.0,0.0,0.0,0.0,0.258757,0.258757,0.572438,0.271248,0.271248,4.05038,0.0,0.0,0.0,0.0904073,0.0,0.0,0.0,0.0,0.0,0.000186023,0.00616592,0.0145762,0.0,0.0,0.0,0.0,0.0,0.0
27028000,-0.0175832,-0.00854835,0.0188954,-0.0258749,-0.00377411,0.0310974,0.0,0.0,0.0,0.00813838,0.0,0.0,0.0,0.0,0.0,0.258604,0.258604,0.572434,0.271109,0.271109,4.05016,0.0,0.0,0.0,0.0904042,0.0,0.0,0.0,0.0,0.0,0.000161749,0.00680342,0.0169913,0.0,0.0,0.0,0.0,0.0,0.0
27220000,-0.0226325,-0.00770284,0.0216458,-0.01137,-0.010967,0.0761719,0.0,0.0,0.0,-0.00294988,0.0,0.0,0.0,0.0,0.0,0.258483,0.258484,0.572431,0.270978,0.270978,4.05003,0.0,0.0,0.0,0.0904016,0.0,0.0,0.0,0.0,0.0,0.0001547,0.00616317,0.0154138,0.0,0.0,0.0,0.0,0.0,0.0
27412000,-0.0165382,-0.00966776,0.0153058,-0.0110063,0.00413975,0.0426636,0.0,0.0,0.0,0.00122163,0.0,0.0,0.0,0.0,0.0,0.258393,0.258393,0.572431,0.270858,0.270858,4.05008,0.0,0.0,0.0,0.0903993,0.0,0.0,0.0,0.0,0.0,0.000126128,0.00434821,0.0107268,0.0,0.0,0.0,0.0,0.0,0.0
27604000,-0.0194062,-0.0107001,0.0183706,-0.0225366,0.00292142,0.153229,0.0,0.0,0.0,0.0016244,0.0,0.0,0.0,0.0,0.0,0.258332,0.258332,0.572433,0.270749,0.270749,4.04987,0.0,0.0,0.0,0.0903968,0.0,0.0,0.0,0.0,0.0,0.000131905,0.0038834,0.00911642,0.0,0.0,0.0,0.0,0.0,0.0
27796000,-0.0246206,-0.010441,0.0138073,-0.0116288,-0.0056709,0.0153809,0.0,0.0,0.0,-0.000843387,0.0,0.0,0.0,0.0,0.0,0.258298,0.258298,0.572436,0.270654,0.270654,4.04993,0.0,0.0,0.0,0.0903952,0.0,0.0,0.0,0.0,0.0,0.000168485,0.00302919,0.00627501,0.0,0.0,0.0,0.0,0.0,0.0
27988000,-0.0157933,-0.0125623,0.00752211,-0.0239916,-0.00728442,-0.00473022,0.0,0.0,0.0,-0.00187305,0.0,0.0,0.0,0.0,0.0,0.258288,0.258288,0.572438,0.270573,0.270573,4.05006,0.0,0.0,0.0,0.0903945,0.0,0.0,0.0,0.0,0.0,0.000164256,0.00253092,0.00465195,0.0,0.0,0.0,0.0,0.0,0.0
28180000,-0.0148769,-0.0129467,0.0121307,-0.023214,0.00678501,0.022583,0.0,0.0,0.0,-0.00407506,0.0,0.0,0.0,0.0,0.0,0.258294,0.258294,0.57244,0.270505,0.270505,4.05033,0.0,0.0,0.0,0.0903929,0.0,0.0,0.0,0.0,0.0,0.000184795,0.00248179,0.0044342,0.0,0.0,0.0,0.0,0.0,0.0
28380000,-0.0157171,-0.00982823,0.000623941,-0.0124252,-0.0169358,0.0231628,0.0,0.0,0.0,-0.00958208,0.0,0.0,0.0,0.0,0.0,0.258318,0.258319,0.572443,0.270451,0.270451,4.05037,0.0,0.0,0.0,0.0903921,0.0,0.0,0.0,0.0,0.0,0.000225456,0.0023694,0.0040074,0.0,0.0,0.0,0.0,0.0,0.0
28572000,-0.00545789,-0.00942517,0.00246358,-0.0259889,0.0204248,0.103363,0.0,0.0,0.0,-0.000742368,0.0,0.0,0.0,0.0,0.0,0.258352,0.258352,0.572447,0.270411,0.270411,4.05041,0.0,0.0,0.0,0.0903914,0.0,0.0,0.0,0.0,0.0,0.000181825,0.0016296,0.00360257,0.0,0.0,0.0,0.0,0.0,0.0
28764000,-0.00365858,-0.0085745,0.000117779,-0.00413067,0.00325478,0.0476685,0.0,0.0,0.0,-0.00185097,0.0,0.0,0.0,0.0,0.0,0.258401,0.258401,0.572434,0.270477,0.270477,4.05028,0.0,0.0,0.0,0.0903909,0.0,0.0,0.0,0.0,0.0,8.77269e-05,0.00132791,0.002878,0.0,0.0,0.0,0.0,0.0,0.0
28956000,-0.00836113,-0.00976988,0.000751734,0.00207293,0.00976368,0.0344543,0.0,0.0,0.0,-0.00240289,0.0,0.0,0.0,0.0,0.0,0.258447,0.258447,0.572438,0.270456,0.270456,4.05032,0.0,0.0,0.0,0.0903906,0.0,0.0,0.0,0.0,0.0,5.63176e-05,0.00167789,0.00344109,0.0,0.0,0.0,0.0,0.0,0.0
29148000,-0.0101586,-0.00934011,0.000300407,-0.013497,0.0071067,0.0159912,0.0,0.0,0.0,-0.000434289,0.0,0.0,0.0,0.0,0.0,0.258497,0.258497,0.572444,0.270446,0.270446,4.0501,0.0,0.0,0.0,0.0903898,0.0,0.0,0.0,0.0,0.0,7.0756e-05,0.00162597,0.00389156,0.0,0.0,0.0,0.0,0.0,0.0
29340000,-0.00639833,-0.00645231,0.0019455,-0.0162325,-0.00984538,0.0363464,0.0,0.0,0.0,-0.00237247,0.0,0.0,0.0,0.0,0.0,0.258547,0.258547,0.57245,0.270445,0.270445,4.05015,0.0,0.0,0.0,0.0903897,0.0,0.0,0.0,0.0,0.0,0.000159784,0.000748988,0.00160393,0.0,0.0,0.0,0.0,0.0,0.0
29532000,-0.00147314,-0.00816201,0.00121093,-0.00777244,-0.0104172,-0.0175171,0.0,0.0,0.0,-0.00472768,0.0,0.0,0.0,0.0,0.0,0.258592,0.258592,0.572387,0.270453,0.270453,4.05003,0.0,0.0,0.0,0.0903896,0.0,0.0,0.0,0.0,0.0,0.000175269,0.00118572,0.00315447,0.0,0.0,0.0,0.0,0.0,0.0
29724000,-0.00306377,-0.00508221,-0.000987291,-0.00053345,-0.0167489,-0.0476074,0.0,0.0,0.0,0.000778117,0.0,0.0,0.0,0.0,0.0,0.258638,0.258638,0.572393,0.270467,0.270467,4.05008,0.0,0.0,0.0,0.0903897,0.0,0.0,0.0,0.0,0.0,0.00016946,0.00243518,0.00683152,0.0,0.0,0.0,0.0,0.0,0.0
29916000,-0.00289077,-0.00341698,-0.00110364,0.00567504,-0.015346,0.019165,0.0,0.0,0.0,-0.00238102,0.0,0.0,0.0,0.0,0.0,0.258684,0.258684,0.5724,0.270487,0.270487,4.04987,0.0,0.0,0.0,0.0903892,0.0,0.0,0.0,0.0,0.0,0.000147331,0.00254926,0.0064182,0.0,0.0,0.0,0.0,0.0,0.0
30108000,-0.00943005,0.00138589,-0.0126388,0.0127509,0.00892178,-0.0270996,0.0,0.0,0.0,-0.000722432,0.0,0.0,0.0,0.0,0.0,0.258732,0.258732,0.572408,0.270512,0.270512,4.04992,0.0,0.0,0.0,0.0903893,0.0,0.0,0.0,0.0,0.0,9.11989e-05,0.00195225,0.00432129,0.0,0.0,0.0,0.0,0.0,0.0
30300000,-0.00532503,-0.00411026,-0.0069294,-0.0130883,0.000417912,0.00604248,0.0,0.0,0.0,0.00185216,0.0,0.0,0.0,0.0,0.0,0.25877,0.25877,0.572416,0.270539,0.270539,4.04981,0.0,0.0,0.0,0.0903894,0.0,0.0,0.0,0.0,0.0,4.32409e-05,0.00128013,0.00345193,0.0,0.0,0.0,0.0,0.0,0.0
30492000,-0.00119847,0.00108622,0.00203013,-0.00315015,0.0199399,0.0786438,0.0,0.0,0.0,-0.0020852,0.0,0.0,0.0,0.0,0.0,0.258798,0.258798,0.572423,0.270569,0.270569,4.04987,0.0,0.0,0.0,0.0903895,0.0,0.0,0.0,0.0,0.0,5.79911e-05,0.00220175,0.00479272,0.0,0.0,0.0,0.0,0.0,0.0
30684000,-0.00807834,-0.0012614,0.00215173,-0.014329,-0.0075054,-0.0463257,0.0,0.0,0.0,-0.00638929,0.0,0.0,0.0,0.0,0.0,0.258818,0.258818,0.57243,0.270598,0.270598,4.04992,0.0,0.0,0.0,0.0903897,0.0,0.0,0.0,0.0,0.0,0.000120157,0.00142595,0.00350911,0.0,0.0,0.0,0.0,0.0,0.0
30876000,-0.0108141,-0.00204514,-0.00776267,-0.00308619,-0.00163828,0.0611267,0.0,0.0,0.0,0.00327693,0.0,0.0,0.0,0.0,0.0,0.25883,0.25883,0.572437,0.270627,0.270627,4.0502,0.0,0.0,0.0,0.0903893,0.0,0.0,0.0,0.0,0.0,8.02131e-05,0.000774003,0.00189414,0.0,0.0,0.0,0.0,0.0,0.0
31068000,-0.0117654,-0.000528594,-0.00757146,-0.00351759,0.00502553,0.0129395,0.0,0.0,0.0,-0.000293492,0.0,0.0,0.0,0.0,0.0,0.258804,0.258805,0.572387,0.270556,0.270556,4.05009,0.0,0.0,0.0,0.0903893,0.0,0.0,0.0,0.0,0.0,6.27094e-05,0.000871021,0.00210245,0.0,0.0,0.0,0.0,0.0,0.0
31260000,-0.00996745,0.00193396,-0.00127959,0.00604939,0.00940518,-0.0243835,0.0,0.0,0.0,0.00751566,0.0,0.0,0.0,0.0,0.0,0.258802,0.258802,0.572394,0.270581,0.270581,4.05015,0.0,0.0,0.0,0.0903894,0.0,0.0,0.0,0.0,0.0,6.41613e-05,0.00137877,0.00321448,0.0,0.0,0.0,0.0,0.0,0.0
31452000,-0.0100268,0.00367863,-0.0011332,-0.00706207,-0.00857786,-0.0107117,0.0,0.0,0.0,0.00140492,0.0,0.0,0.0,0.0,0.0,0.258798,0.258798,0.572401,0.270604,0.270604,4.05021,0.0,0.0,0.0,0.0903895,0.0,0.0,0.0,0.0,0.0,3.98296e-05,0.00142494,0.00412851,0.0,0.0,0.0,0.0,0.0,0.0
31644000,-0.0104281,0.00307476,-0.00290108,0.0132557,-0.00248075,-0.00512695,0.0,0.0,0.0,0.000919681,0.0,0.0,0.0,0.0,0.0,0.25879,0.25879,0.572407,0.270624,0.270624,4.05009,0.0,0.0,0.0,0.0903894,0.0,0.0,0.0,0.0,0.0,8.88986e-05,0.00156907,0.00391359,0.0,0.0,0.0,0.0,0.0,0.0
31836000,-0.00986911,-0.0044786,-0.0109472,-0.000144712,-0.0121003,0.0395508,0.0,0.0,0.0,-0.00349417,0.0,0.0,0.0,0.0,0.0,0.258773,0.258773,0.572414,0.27064,0.27064,4.05015,0.0,0.0,0.0,0.0903894,0.0,0.0,0.0,0.0,0.0,0.000148037,0.000974045,0.00255928,0.0,0.0,0.0,0.0,0.0,0.0
32028000,-0.00685077,0.000283207,-0.00754452,-0.000209376,-0.00990049,0.0252991,0.0,0.0,0.0,-0.000182285,0.0,0.0,0.0,0.0,0.0,0.258757,0.258757,0.572421,0.270653,0.270653,4.04994,0.0,0.0,0.0,0.0903887,0.0,0.0,0.0,0.0,0.0,0.000179492,0.000769526,0.00193231,0.0,0.0,0.0,0.0,0.0,0.0
32220000,-0.00336226,0.00412031,-0.0062449,-0.000785545,-0.00174703,-0.0476685,0.0,0.0,0.0,0.00449863,0.0,0.0,0.0,0.0,0.0,0.25873,0.25873,0.572427,0.270663,0.270663,4.05,0.0,0.0,0.0,0.0903886,0.0,0.0,0.0,0.0,0.0,0.000237306,0.000602952,0.00131684,0.0,0.0,0.0,0.0,0.0,0.0
32412000,0.00188107,0.00671824,-0.0100436,0.000283483,0.0136535,0.0355225,0.0,0.0,0.0,0.000762513,0.0,0.0,0.0,0.0,0.0,0.258704,0.258704,0.572433,0.270669,0.270669,4.04988,0.0,0.0,0.0,0.0903883,0.0,0.0,0.0,0.0,0.0,0.000306548,0.00123795,0.00237895,0.0,0.0,0.0,0.0,0.0,0.0
32604000,-0.00808934,0.00638556,-0.00761271,0.000907033,0.0118201,0.0456238,0.0,0.0,0.0,0.00350984,0.0,0.0,0.0,0.0,0.0,0.25867,0.258669,0.572439,0.270671,0.270671,4.04994,0.0,0.0,0.0,0.0903881,0.0,0.0,0.0,0.0,0.0,0.000227481,0.00181221,0.00345561,0.0,0.0,0.0,0.0,0.0,0.0
32796000,-0.010573,-0.004678,-0.00809455,0.0127288,-0.00384825,-0.0490417,0.0,0.0,0.0,0.0035246,0.0,0.0,0.0,0.0,0.0,0.258635,0.258635,0.572446,0.27067,0.27067,4.05,0.0,0.0,0.0,0.0903878,0.0,0.0,0.0,0.0,0.0,0.000104869,0.00147397,0.00381639,0.0,0.0,0.0,0.0,0.0,0.0
32988000,-0.0132031,-0.00626091,-0.0125287,-0.0100399,0.00546739,-0.0964355,0.0,0.0,0.0,-0.00706317,0.0,0.0,0.0,0.0,0.0,0.2586,0.2586,0.572452,0.270666,0.270666,4.04979,0.0,0.0,0.0,0.0903869,0.0,0.0,0.0,0.0,0.0,9.10402e-05,0.000633392,0.00184201,0.0,0.0,0.0,0.0,0.0,0.0
33180000,-0.0101956,0.00419637,-0.000138283,-0.00706258,-0.00955506,0.0667114,0.0,0.0,0.0,-0.00512061,0.0,0.0,0.0,0.0,0.0,0.258561,0.258561,0.572388,0.270659,0.270659,4.05016,0.0,0.0,0.0,0.0903864,0.0,0.0,0.0,0.0,0.0,9.62846e-05,0.00118178,0.00310038,0.0,0.0,0.0,0.0,0.0,0.0
33372000,-0.00656445,-0.00461107,-0.012254,-0.0262999,-0.00713321,0.0435181,0.0,0.0,0.0,0.00183821,0.0,0.0,0.0,0.0,0.0,0.258521,0.258521,0.572395,0.270649,0.270649,4.05022,0.0,0.0,0.0,0.090386,0.0,0.0,0.0,0.0,0.0,0.000131839,0.0018566,0.00370861,0.0,0.0,0.0,0.0,0.0,0.0
33564000,-0.00554124,-0.00555403,-0.00429034,-0.0125009,-0.00588392,-0.00668335,0.0,0.0,0.0,0.0013167,0.0,0.0,0.0,0.0,0.0,0.25853,0.25853,0.572452,0.270727,0.270727,4.05028,0.0,0.0,0.0,0.0903855,0.0,0.0,0.0,0.0,0.0,0.000152914,0.00100395,0.00230261,0.0,0.0,0.0,0.0,0.0,0.0
33756000,-0.00760938,-0.00293152,-0.00297832,-0.0196776,0.00395638,-0.0352783,0.0,0.0,0.0,-9.76576e-05,0.0,0.0,0.0,0.0,0.0,0.258488,0.258488,0.572457,0.270713,0.270713,4.05016,0.0,0.0,0.0,0.0903848,0.0,0.0,0.0,0.0,0.0,0.000225842,0.00125587,0.00342337,0.0,0.0,0.0,0.0,0.0,0.0
33948000,-0.00829936,-0.00353445,-0.00206614,-0.0158022,-0.0031004,0.00497437,0.0,0.0,0.0,0.00374328,0.0,0.0,0.0,0.0,0.0,0.258447,0.258447,0.572394,0.270697,0.270697,4.05022,0.0,0.0,0.0,0.0903842,0.0,0.0,0.0,0.0,0.0,0.000221969,0.00100543,0.00282309,0.0,0.0,0.0,0.0,0.0,0.0
34140000,-0.0116389,-0.0118543,-0.00514698,-0.0135448,-0.0155954,-0.0338135,0.0,0.0,0.0,0.00283805,0.0,0.0,0.0,0.0,0.0,0.258408,0.258408,0.5724,0.27068,0.27068,4.05001,0.0,0.0,0.0,0.0903829,0.0,0.0,0.0,0.0,0.0,0.000192442,0.00129631,0.00283103,0.0,0.0,0.0,0.0,0.0,0.0
34332000,-0.0067817,-0.0167384,-0.00623059,-0.0134699,-0.0111971,0.064209,0.0,0.0,0.0,0.00361156,0.0,0.0,0.0,0.0,0.0,0.258368,0.258368,0.572406,0.270661,0.270661,4.05007,0.0,0.0,0.0,0.0903822,0.0,0.0,0.0,0.0,0.0,0.000196981,0.00176223,0.00327165,0.0,0.0,0.0,0.0,0.0,0.0
34524000,-0.013055,-0.0207064,0.000499487,-0.02393,-0.000977263,0.0128174,0.0,0.0,0.0,0.00141191,0.0,0.0,0.0,0.0,0.0,0.25833,0.25833,0.572412,0.270641,0.270641,4.04995,0.0,0.0,0.0,0.0903813,0.0,0.0,0.0,0.0,0.0,0.000187135,0.00189225,0.00354794,0.0,0.0,0.0,0.0,0.0,0.0
34716000,-0.0137934,-0.0220677,-0.00693083,-0.0118044,-0.0139524,0.0651855,0.0,0.0,0.0,0.00298397,0.0,0.0,0.0,0.0,0.0,0.25829,0.25829,0.572418,0.27062,0.27062,4.05001,0.0,0.0,0.0,0.0903805,0.0,0.0,0.0,0.0,0.0,0.00021119,0.00240053,0.00432417,0.0,0.0,0.0,0.0,0.0,0.0
34908000,-0.0147635,-0.0225992,-0.00590611,-0.0108211,-0.00250726,-0.0664062,0.0,0.0,0.0,0.000132228,0.0,0.0,0.0,0.0,0.0,0.258251,0.258252,0.572424,0.270597,0.270597,4.05006,0.0,0.0,0.0,0.0903795,0.0,0.0,0.0,0.0,0.0,0.000248282,0.00266224,0.00487649,0.0,0.0,0.0,0.0,0.0,0.0
35100000,-0.0192368,-0.0176303,-0.00470901,-0.0225126,-0.00878216,0.0537109,0.0,0.0,0.0,0.00087407,0.0,0.0,0.0,0.0,0.0,0.258215,0.258215,0.57243,0.270574,0.270575,4.04985,0.0,0.0,0.0,0.090378,0.0,0.0,0.0,0.0,0.0,0.000227416,0.00263157,0.00486591,0.0,0.0,0.0,0.0,0.0,0.0
35292000,-0.018694,-0.0214128,-0.00582933,-0.0120443,-0.00732944,-0.0795593,0.0,0.0,0.0,-0.00750895,0.0,0.0,0.0,0.0,0.0,0.25818,0.25818,0.572436,0.270551,0.270551,4.05022,0.0,0.0,0.0,0.090377,0.0,0.0,0.0,0.0,0.0,0.000185509,0.00263997,0.00511837,0.0,0.0,0.0,0.0,0.0,0.0
35484000,-0.0183716,-0.0213674,-0.00731277,-0.00218802,-0.0433247,-0.022522,0.0,0.0,0.0,0.000259873,0.0,0.0,0.0,0.0,0.0,0.258147,0.258147,0.572442,0.270528,0.270528,4.05028,0.0,0.0,0.0,0.0903759,0.0,0.0,0.0,0.0,0.0,0.000239403,0.00371785,0.00697851,0.0,0.0,0.0,0.0,0.0,0.0
35676000,-0.0172499,-0.0137538,-0.00683928,-0.0133097,-0.0243762,-0.00888062,0.0,0.0,0.0,-0.00213499,0.0,0.0,0.0,0.0,0.0,0.258114,0.258114,0.572449,0.270505,0.270505,4.05034,0.0,0.0,0.0,0.0903748,0.0,0.0,0.0,0.0,0.0,0.0002807,0.00359879,0.00685131,0.0,0.0,0.0,0.0,0.0,0.0
35868000,-0.0164387,-0.0122504,-0.00903726,-0.00208171,-0.0157104,-0.00753784,0.0,0.0,0.0,-0.0014003,0.0,0.0,0.0,0.0,0.0,0.258075,0.258075,0.572398,0.270412,0.270412,4.05022,0.0,0.0,0.0,0.0903737,0.0,0.0,0.0,0.0,0.0,0.000187261,0.00157189,0.00346703,0.0,0.0,0.0,0.0,0.0,0.0
36060000,-0.0169678,-0.0137334,-0.00710225,-0.025209,-0.0218015,-0.00805664,0.0,0.0,0.0,0.00011968,0.0,0.0,0.0,0.0,0.0,0.258043,0.258043,0.572404,0.270389,0.270389,4.05028,0.0,0.0,0.0,0.0903725,0.0,0.0,0.0,0.0,0.0,0.000165496,0.00149951,0.00332399,0.0,0.0,0.0,0.0,0.0,0.0
36252000,-0.0179313,-0.0191667,-0.0046227,-0.00131653,-0.00676344,0.0345154,0.0,0.0,0.0,0.00412998,0.0,0.0,0.0,0.0,0.0,0.258013,0.258013,0.57241,0.270367,0.270367,4.05007,0.0,0.0,0.0,0.0903707,0.0,0.0,0.0,0.0,0.0,0.000153791,0.000835908,0.00174773,0.0,0.0,0.0,0.0,0.0,0.0
36452000,-0.0191577,-0.0209619,-0.00669384,-0.00430425,-0.0227926,-0.105042,0.0,0.0,0.0,0.00153098,0.0,0.0,0.0,0.0,0.0,0.257986,0.257986,0.572416,0.270345,0.270345,4.05012,0.0,0.0,0.0,0.0903695,0.0,0.0,0.0,0.0,0.0,0.000165815,0.00132307,0.00313418,0.0,0.0,0.0,0.0,0.0,0.0
36644000,-0.0178581,-0.00963494,-0.00287747,-0.00497195,-0.0232953,-0.0306091,0.0,0.0,0.0,0.000618183,0.0,0.0,0.0,0.0,0.0,0.257958,0.257958,0.572422,0.270323,0.270323,4.05018,0.0,0.0,0.0,0.0903681,0.0,0.0,0.0,0.0,0.0,0.000144637,0.00137368,0.00407412,0.0,0.0,0.0,0.0,0.0,0.0
36836000,-0.0255766,-0.00893471,-0.00810504,-0.00614882,-0.0152991,-0.0422974,0.0,0.0,0.0,-0.000814226,0.0,0.0,0.0,0.0,0.0,0.257931,0.257931,0.572428,0.270301,0.270301,4.05006,0.0,0.0,0.0,0.0903668,0.0,0.0,0.0,0.0,0.0,0.000154261,0.00112271,0.00350045,0.0,0.0,0.0,0.0,0.0,0.0
37028000,-0.0242198,-0.00852514,-0.00706577,-0.0276142,-0.00855255,-0.0251465,0.0,0.0,0.0,-0.000196715,0.0,0.0,0.0,0.0,0.0,0.257907,0.257907,0.572435,0.270281,0.270281,4.05012,0.0,0.0,0.0,0.0903654,0.0,0.0,0.0,0.0,0.0,0.000222793,0.00170319,0.00455591,0.0,0.0,0.0,0.0,0.0,0.0
37220000,-0.0232359,-0.00861344,-0.0115647,-0.0133445,0.012357,0.059082,0.0,0.0,0.0,0.000476412,0.0,0.0,0.0,0.0,0.0,0.257887,0.257887,0.572441,0.270261,0.270261,4.04991,0.0,0.0,0.0,0.0903636,0.0,0.0,0.0,0.0,0.0,0.000184432,0.00158246,0.00302205,0.0,0.0,0.0,0.0,0.0,0.0
37412000,-0.0328359,-0.00161156,-0.00691772,-0.0224323,0.00736183,-0.0507202,0.0,0.0,0.0,0.000859001,0.0,0.0,0.0,0.0,0.0,0.257868,0.257868,0.572447,0.270241,0.270241,4.04997,0.0,0.0,0.0,0.0903621,0.0,0.0,0.0,0.0,0.0,0.000175274,0.00250075,0.00488622,0.0,0.0,0.0,0.0,0.0,0.0
37604000,-0.0294999,-0.001428,-0.00746751,-0.018794,0.00213927,0.0350342,0.0,0.0,0.0,-0.00106955,0.0,0.0,0.0,0.0,0.0,0.257848,0.257848,0.572385,0.270223,0.270223,4.04985,0.0,0.0,0.0,0.0903607,0.0,0.0,0.0,0.0,0.0,0.000184737,0.00277098,0.0053056,0.0,0.0,0.0,0.0,0.0,0.0
37796000,-0.0280758,-0.00159358,-0.0022037,-0.0156177,-0.00331328,0.026123,0.0,0.0,0.0,-0.00180686,0.0,0.0,0.0,0.0,0.0,0.257826,0.257826,0.572391,0.270205,0.270205,4.04991,0.0,0.0,0.0,0.0903592,0.0,0.0,0.0,0.0,0.0,0.000201195,0.00273707,0.00526966,0.0,0.0,0.0,0.0,0.0,0.0
37988000,-0.0301435,-0.00709915,-0.00118494,-0.0231912,0.000503184,-0.0264893,0.0,0.0,0.0,0.00249954,0.0,0.0,0.0,0.0,0.0,0.257806,0.257806,0.572397,0.270188,0.270188,4.04996,0.0,0.0,0.0,0.0903577,0.0,0.0,0.0,0.0,0.0,0.000188833,0.00283247,0.00546821,0.0,0.0,0.0,0.0,0.0,0.0
38180000,-0.0308389,-0.00520139,-0.00169778,-0.0093177,-0.0167491,0.0629272,0.0,0.0,0.0,-0.00390828,0.0,0.0,0.0,0.0,0.0,0.257784,0.257784,0.572403,0.270171,0.270171,4.04975,0.0,0.0,0.0,0.0903557,0.0,0.0,0.0,0.0,0.0,0.000195314,0.00180812,0.00311102,0.0,0.0,0.0,0.0,0.0,0.0
38372000,-0.0397997,-0.010611,-0.00454044,-0.018058,-0.0095348,0.027832,0.0,0.0,0.0,0.00417495,0.0,0.0,0.0,0.0,0.0,0.257764,0.257764,0.57241,0.270154,0.270154,4.05012,0.0,0.0,0.0,0.0903543,0.0,0.0,0.0,0.0,0.0,0.000234588,0.00267408,0.0045386,0.0,0.0,0.0,0.0,0.0,0.0
38564000,-0.0299458,-0.00796746,-0.00218034,-0.0171738,-0.00940578,0.00683594,0.0,0.0,0.0,0.00147859,0.0,0.0,0.0,0.0,0.0,0.257778,0.257779,0.572398,0.270224,0.270224,4.05018,0.0,0.0,0.0,0.0903527,0.0,0.0,0.0,0.0,0.0,0.000198317,0.000849439,0.00169148,0.0,0.0,0.0,0.0,0.0,0.0
38756000,-0.029853,-0.00355904,-0.00398493,-0.0258205,0.0285216,0.039032,0.0,0.0,0.0,-0.000187656,0.0,0.0,0.0,0.0,0.0,0.25776,0.25776,0.572405,0.270208,0.270208,4.05024,0.0,0.0,0.0,0.0903511,0.0,0.0,0.0,0.0,0.0,0.000218,0.00179858,0.00374435,0.0,0.0,0.0,0.0,0.0,0.0
38948000,-0.0303392,-0.00224241,-0.00825596,-0.0236438,-0.00481731,0.0137329,0.0,0.0,0.0,-0.00572889,0.0,0.0,0.0,0.0,0.0,0.257743,0.257743,0.572412,0.270192,0.270192,4.05004,0.0,0.0,0.0,0.0903496,0.0,0.0,0.0,0.0,0.0,0.000210066,0.00182735,0.00417619,0.0,0.0,0.0,0.0,0.0,0.0
39140000,-0.0338401,-0.00430761,-0.00751591,-0.0221745,-0.0127614,-0.061676,0.0,0.0,0.0,-7.63685e-07,0.0,0.0,0.0,0.0,0.0,0.25773,0.25773,0.57242,0.270177,0.270177,4.04993,0.0,0.0,0.0,0.090348,0.0,0.0,0.0,0.0,0.0,0.00018445,0.00129846,0.00253875,0.0,0.0,0.0,0.0,0.0,0.0
39332000,-0.0251181,-0.00409469,0.00364876,-0.0095807,-0.0178362,-0.0275269,0.0,0.0,0.0,0.00476611,0.0,0.0,0.0,0.0,0.0,0.257713,0.257714,0.572427,0.270163,0.270163,4.04999,0.0,0.0,0.0,0.0903464,0.0,0.0,0.0,0.0,0.0,0.000188215,0.00121318,0.00363681,0.0,0.0,0.0,0.0,0.0,0.0
39524000,-0.0285643,-0.00488332,-0.00699139,-0.0337428,-0.00886196,0.0200195,0.0,0.0,0.0,-0.000450383,0.0,0.0,0.0,0.0,0.0,0.257704,0.257704,0.572435,0.270149,0.270149,4.05006,0.0,0.0,0.0,0.0903443,0.0,0.0,0.0,0.0,0.0,0.000191394,0.00124362,0.00361846,0.0,0.0,0.0,0.0,0.0,0.0
39716000,-0.0316745,-0.0031024,-0.00797009,-0.0333155,-0.0069572,0.0354004,0.0,0.0,0.0,-0.00155088,0.0,0.0,0.0,0.0,0.0,0.257694,0.257694,0.572443,0.270137,0.270137,4.04986,0.0,0.0,0.0,0.0903428,0.0,0.0,0.0,0.0,0.0,0.00019934,0.0012579,0.0027233,0.0,0.0,0.0,0.0,0.0,0.0
39908000,-0.0303155,-0.00159608,-0.00974059,-0.0321738,0.0217671,0.046936,0.0,0.0,0.0,-0.00892388,0.0,0.0,0.0,0.0,0.0,0.257685,0.257685,0.572451,0.270125,0.270125,4.04976,0.0,0.0,0.0,0.0903411,0.0,0.0,0.0,0.0,0.0,0.000206502,0.00217023,0.00423332,0.0,0.0,0.0,0.0,0.0,0.0
40100000,-0.0266067,-0.00263476,-0.0106082,-0.0412514,-0.00308471,-0.0463562,0.0,0.0,0.0,-0.00214504,0.0,0.0,0.0,0.0,0.0,0.257676,0.257676,0.572389,0.270114,0.270114,4.04982,0.0,0.0,0.0,0.0903395,0.0,0.0,0.0,0.0,0.0,0.00023182,0.00251784,0.00507902,0.0,0.0,0.0,0.0,0.0,0.0
40292000,-0.0270168,0.00533037,-0.00386953,-0.00596765,0.0038205,-0.0256348,0.0,0.0,0.0,0.000505144,0.0,0.0,0.0,0.0,0.0,0.257664,0.257665,0.572397,0.270104,0.270104,4.04988,0.0,0.0,0.0,0.0903379,0.0,0.0,0.0,0.0,0.0,0.000220731,0.00198812,0.00428781,0.0,0.0,0.0,0.0,0.0,0.0
40484000,-0.0286053,0.00759613,-0.0133319,-0.0290078,-0.0118303,0.0122375,0.0,0.0,0.0,-0.00741428,0.0,0.0,0.0,0.0,0.0,0.257655,0.257656,0.572403,0.270093,0.270094,4.05026,0.0,0.0,0.0,0.0903362,0.0,0.0,0.0,0.0,0.0,0.000189927,0.00161393,0.00285742,0.0,0.0,0.0,0.0,0.0,0.0
40676000,-0.020996,0.00762185,-0.0114741,-0.0277265,0.00447296,-0.0240784,0.0,0.0,0.0,-0.000686632,0.0,0.0,0.0,0.0,0.0,0.257647,0.257647,0.57241,0.270084,0.270084,4.05032,0.0,0.0,0.0,0.0903345,0.0,0.0,0.0,0.0,0.0,0.000201367,0.00193983,0.00372706,0.0,0.0,0.0,0.0,0.0,0.0
40868000,-0.0210748,0.00629675,-0.0129862,-0.0167387,0.0186134,0.0424194,0.0,0.0,0.0,-0.0057166,0.0,0.0,0.0,0.0,0.0,0.25762,0.257621,0.572428,0.270002,0.270002,4.05012,0.0,0.0,0.0,0.0903325,0.0,0.0,0.0,0.0,0.0,0.000136452,0.00153021,0.0027495,0.0,0.0,0.0,0.0,0.0,0.0
41060000,-0.0241145,0.00498243,-0.00980687,-0.00865872,0.000163111,-0.0334473,0.0,0.0,0.0,-0.00401387,0.0,0.0,0.0,0.0,0.0,0.257611,0.257612,0.572435,0.269993,0.269993,4.05018,0.0,0.0,0.0,0.0903309,0.0,0.0,0.0,0.0,0.0,0.000103353,0.00209022,0.00440479,0.0,0.0,0.0,0.0,0.0,0.0
41252000,-0.0145244,0.00709565,-0.00401664,-0.0217276,0.0134428,-0.00924683,0.0,0.0,0.0,-0.00082208,0.0,0.0,0.0,0.0,0.0,0.257602,0.257602,0.572441,0.269985,0.269985,4.05007,0.0,0.0,0.0,0.0903296,0.0,0.0,0.0,0.0,0.0,0.000125565,0.00196261,0.00389549,0.0,0.0,0.0,0.0,0.0,0.0
41444000,-0.0146491,0.00633087,-0.00928855,-0.0352667,0.00356619,0.144806,0.0,0.0,0.0,-0.000633635,0.0,0.0,0.0,0.0,0.0,0.257598,0.257598,0.572448,0.269977,0.269977,4.05013,0.0,0.0,0.0,0.0903276,0.0,0.0,0.0,0.0,0.0,0.000125467,0.00167035,0.00307023,0.0,0.0,0.0,0.0,0.0,0.0
41636000,-0.0139718,0.00753397,-0.0126729,-0.0151838,-0.00543315,-0.0351562,0.0,0.0,0.0,-0.0061247,0.0,0.0,0.0,0.0,0.0,0.257592,0.257592,0.572385,0.26997,0.26997,4.05019,0.0,0.0,0.0,0.090326,0.0,0.0,0.0,0.0,0.0,0.000105364,0.00168477,0.00304044,0.0,0.0,0.0,0.0,0.0,0.0
41828000,-0.0129573,0.00761971,-0.00203776,-0.0175838,0.0163405,0.137695,0.0,0.0,0.0,0.00028248,0.0,0.0,0.0,0.0,0.0,0.257586,0.257586,0.572391,0.269963,0.269963,4.04998,0.0,0.0,0.0,0.0903243,0.0,0.0,0.0,0.0,0.0,0.000105264,0.00190226,0.00373461,0.0,0.0,0.0,0.0,0.0,0.0
42020000,-0.0137447,0.00770695,-0.00343394,-0.0111136,0.00594703,0.0307617,0.0,0.0,0.0,0.00093365,0.0,0.0,0.0,0.0,0.0,0.257579,0.257579,0.572397,0.269956,0.269956,4.04986,0.0,0.0,0.0,0.0903227,0.0,0.0,0.0,0.0,0.0,8.66614e-05,0.00220527,0.00422196,0.0,0.0,0.0,0.0,0.0,0.0
42212000,-0.00708858,-0.00663772,-0.00972176,-0.00457307,0.00387895,-0.0245361,0.0,0.0,0.0,0.00294918,0.0,0.0,0.0,0.0,0.0,0.257575,0.257575,0.572403,0.26995,0.26995,4.04992,0.0,0.0,0.0,0.0903211,0.0,0.0,0.0,0.0,0.0,5.64522e-05,0.00230344,0.00442732,0.0,0.0,0.0,0.0,0.0,0.0
42404000,-0.00771817,0.00442343,0.00340319,-0.0106619,0.00921859,-0.151428,0.0,0.0,0.0,-0.00250302,0.0,0.0,0.0,0.0,0.0,0.257562,0.257562,0.57241,0.269944,0.269944,4.04998,0.0,0.0,0.0,0.0903194,0.0,0.0,0.0,0.0,0.0,6.64509e-05,0.00256309,0.00559222,0.0,0.0,0.0,0.0,0.0,0.0
42596000,-0.00338951,-0.0078896,0.0841236,-0.014562,0.0207147,-0.0114746,0.0,0.0,0.0,-0.00507393,0.0,0.0,0.0,0.0,0.0,0.257483,0.257483,0.572417,0.269933,0.269933,4.04978,0.0,0.0,0.0,0.0903178,0.0,0.0,0.0,0.0,0.0,0.000111542,0.00347894,0.00679334,0.0,0.0,0.0,0.0,0.0,0.0
42788000,-0.00253761,-0.00538691,0.0798266,-0.019418,0.00256605,-0.0427856,0.0,0.0,0.0,-0.000577809,0.0,0.0,0.0,0.0,0.0,0.257404,0.257404,0.572424,0.269913,0.269913,4.05016,0.0,0.0,0.0,0.0903162,0.0,0.0,0.0,0.0,0.0,0.00011902,0.00422646,0.00826598,0.0,0.0,0.0,0.0,0.0,0.0
42980000,-0.000290057,-0.00155977,0.114763,-0.000281704,0.00947325,-0.0286255,0.0,0.0,0.0,-8.69837e-05,0.0,0.0,0.0,0.0,0.0,0.257331,0.257331,0.572432,0.269887,0.269887,4.05022,0.0,0.0,0.0,0.0903146,0.0,0.0,0.0,0.0,0.0,5.05626e-05,0.00520687,0.00963776,0.0,0.0,0.0,0.0,0.0,0.0
43180000,-0.00904933,0.00146231,0.0917821,0.00562275,0.00119017,0.0637207,0.0,0.0,0.0,-0.00988096,0.0,0.0,0.0,0.0,0.0,0.257274,0.257274,0.572439,0.269857,0.269857,4.05028,0.0,0.0,0.0,0.0903126,0.0,0.0,0.0,0.0,0.0,3.37258e-05,0.0056371,0.0113354,0.0,0.0,0.0,0.0,0.0,0.0
43372000,-0.0037697,0.00298049,0.0835166,0.000227278,-0.00562279,0.0151367,0.0,0.0,0.0,-0.000154126,0.0,0.0,0.0,0.0,0.0,0.257228,0.257228,0.572446,0.269825,0.269825,4.05035,0.0,0.0,0.0,0.090311,0.0,0.0,0.0,0.0,0.0,4.65109e-05,0.00522733,0.0106922,0.0,0.0,0.0,0.0,0.0,0.0
43564000,-0.00229208,0.00456448,0.0795434,-0.00209086,0.0101331,-0.0760498,0.0,0.0,0.0,0.00837581,0.0,0.0,0.0,0.0,0.0,0.25723,0.25723,0.572434,0.269884,0.269884,4.05014,0.0,0.0,0.0,0.0903093,0.0,0.0,0.0,0.0,0.0,8.38374e-05,0.0033306,0.00682807,0.0,0.0,0.0,0.0,0.0,0.0
43756000,-0.00779835,0.0024133,0.059201,0.00563142,0.0159844,-0.063446,0.0,0.0,0.0,-0.00307273,0.0,0.0,0.0,0.0,0.0,0.257199,0.2572,0.572441,0.269852,0.269852,4.05002,0.0,0.0,0.0,0.0903078,0.0,0.0,0.0,0.0,0.0,2.67749e-05,0.00243827,0.00494899,0.0,0.0,0.0,0.0,0.0,0.0
43948000,-0.00996989,0.0015654,0.0459962,0.00268455,0.0215972,-0.128784,0.0,0.0,0.0,0.000188622,0.0,0.0,0.0,0.0,0.0,0.257181,0.257181,0.572448,0.269822,0.269822,4.05009,0.0,0.0,0.0,0.0903062,0.0,0.0,0.0,0.0,0.0,7.18363e-05,0.00248175,0.0064805,0.0,0.0,0.0,0.0,0.0,0.0
44140000,-0.00916841,-0.00190022,0.0337157,-0.00080919,0.0120184,-0.0168152,0.0,0.0,0.0,-0.00384134,0.0,0.0,0.0,0.0,0.0,0.257174,0.257174,0.572454,0.269796,0.269796,4.05015,0.0,0.0,0.0,0.0903043,0.0,0.0,0.0,0.0,0.0,7.92346e-05,0.0022827,0.0062783,0.0,0.0,0.0,0.0,0.0,0.0
44332000,-0.0137863,0.00998101,0.0506402,-0.00336378,0.0175928,-0.000335693,0.0,0.0,0.0,-0.00110693,0.0,0.0,0.0,0.0,0.0,0.257174,0.257174,0.572392,0.269773,0.269773,4.05003,0.0,0.0,0.0,0.0903027,0.0,0.0,0.0,0.0,0.0,8.42704e-05,0.00205744,0.00617158,0.0,0.0,0.0,0.0,0.0,0.0
44524000,-0.00803228,0.00142572,0.0406821,-0.0040254,-0.000172414,0.0308228,0.0,0.0,0.0,0.00158865,0.0,0.0,0.0,0.0,0.0,0.257179,0.257179,0.572398,0.269755,0.269755,4.05009,0.0,0.0,0.0,0.0903012,0.0,0.0,0.0,0.0,0.0,4.30493e-05,0.00125267,0.00346838,0.0,0.0,0.0,0.0,0.0,0.0
44716000,-0.00479054,0.00505518,0.0331125,-0.0146025,0.000198649,-0.106201,0.0,0.0,0.0,-0.0134973,0.0,0.0,0.0,0.0,0.0,0.257188,0.257188,0.572404,0.26974,0.26974,4.04988,0.0,0.0,0.0,0.0902997,0.0,0.0,0.0,0.0,0.0,7.89763e-05,0.00105874,0.00350179,0.0,0.0,0.0,0.0,0.0,0.0
44908000,-0.000759733,0.0120674,0.0247133,-0.00158349,0.014833,-0.00909424,0.0,0.0,0.0,-0.00242218,0.0,0.0,0.0,0.0,0.0,0.257199,0.257199,0.572411,0.26973,0.26973,4.04994,0.0,0.0,0.0,0.0902981,0.0,0.0,0.0,0.0,0.0,0.000111865,0.00155936,0.00362879,0.0,0.0,0.0,0.0,0.0,0.0
